[{"name": "Tuganeheza sacco Rwimbogo", "location": "Gatsibo", "tel": "0784848248"}, {"name": "Bank of Kigali", "location": "Gatsibo", "tel": "No phone number"}, {"name": "BPR, Nyagasambu Branch", "location": "Gatsibo", "tel": "No phone number"}, {"name": "Bank of Kigali", "location": "Gatsibo", "tel": "0788143453"}, {"name": "BCR, Rwamagana", "location": "Gatsibo", "tel": "0788302265"}, {"name": "National Bank of Rwanda", "location": "Gatsibo", "tel": "No phone number"}, {"name": "Ecobank, Byumba Branch", "location": "Gatsibo", "tel": "No phone number"}, {"name": "Bank Of Kigali", "location": "Gatsibo", "tel": "No phone number"}, {"name": "Bank of Kigali", "location": "Gatsibo", "tel": "No phone number"}, {"name": "Bank of Kigali", "location": "Gatsibo", "tel": "No phone number"}, {"name": "Bank of Kigali", "location": "Gatsibo", "tel": "No phone number"}, {"name": "Unguka Bank", "location": "Gatsibo", "tel": "No phone number"}, {"name": "Bank of Kigali", "location": "Gatsibo", "tel": "0788302514"}, {"name": "Bank of Kigali, RDB Branch", "location": "Gatsibo", "tel": "0788640281"}, {"name": "Bank of Africa", "location": "Gatsibo", "tel": "No phone number"}, {"name": "Bank of Kigali", "location": "Gatsibo", "tel": "No phone number"}, {"name": "KCB Bank MTN Centre", "location": "Gatsibo", "tel": "0788140000"}, {"name": "Bank of Kigali", "location": "Gatsibo", "tel": "0788386580"}, {"name": "KCB Kimironko Branch", "location": "Gatsibo", "tel": "0788140400"}, {"name": "Bank of Kigali, Giporoso Branch", "location": "Gatsibo", "tel": "0788143046"}, {"name": "Bank Populaire du Rwanda, BPR, Kimironko Branch", "location": "Gatsibo", "tel": "No phone number"}, {"name": "Amasezerano Community Bank", "location": "Gatsibo", "tel": "No phone number"}, {"name": "I&M Bank", "location": "Gatsibo", "tel": "No phone number"}, {"name": "Access Bank", "location": "Gatsibo", "tel": "No phone number"}, {"name": "Equity Bank, Kicukiro Branch", "location": "Gatsibo", "tel": "0788190000"}, {"name": "Commercial Bank of Africa", "location": "Gatsibo", "tel": "No phone number"}, {"name": "Amasezerano Community Bank Headquarters", "location": "Gatsibo", "tel": "No phone number"}, {"name": "AB Bank", "location": "Gatsibo", "tel": "No phone number"}, {"name": "I&M Bank", "location": "Gatsibo", "tel": "No phone number"}, {"name": "Bank of Kigali", "location": "Gatsibo", "tel": "No phone number"}, {"name": "East African Development Bank", "location": "Gatsibo", "tel": "No phone number"}, {"name": "BPR", "location": "Gatsibo", "tel": "No phone number"}, {"name": "I&M Bank", "location": "Gatsibo", "tel": "0788162202"}, {"name": "Bank of Kigali, Kicukiro Pension Plaza Branch", "location": "Gatsibo", "tel": "No phone number"}, {"name": "Bank of Kigali", "location": "Gatsibo", "tel": "0788143000"}, {"name": "Development Bank of Rwanda", "location": "Gatsibo", "tel": "No phone number"}, {"name": "BANK OF AFRICA RWANDA PLC", "location": "Gatsibo", "tel": "No phone number"}, {"name": "Cogebanque", "location": "Gatsibo", "tel": "0788302352"}, {"name": "Bank of Kigali", "location": "Gatsibo", "tel": "0783937013"}]