[{"name": "Bank of Kigali, Karongi Branch", "location": "Karongi", "tel": "No phone number"}, {"name": "Inkunga Finance Plc", "location": "Karongi", "tel": "0788685877"}, {"name": "COGEBANQUE Karongi Branch", "location": "Karongi", "tel": "No phone number"}, {"name": "Zigama CSS, Karongi", "location": "Karongi", "tel": "No phone number"}, {"name": "GT Bank", "location": "Karongi", "tel": "No phone number"}, {"name": "RSSB Karongi", "location": "Karongi", "tel": "No phone number"}, {"name": "Bank of Kigali", "location": "Karongi", "tel": "No phone number"}, {"name": "Ecobank ATM", "location": "Karongi", "tel": "No phone number"}, {"name": "Bank of Africa", "location": "Karongi", "tel": "0788136205"}, {"name": "Kenya Commercial Bank", "location": "Karongi", "tel": "No phone number"}, {"name": "Banque Populaire du Rwanda", "location": "Karongi", "tel": "No phone number"}, {"name": "Peaple's Bank Murunda", "location": "Karongi", "tel": "No phone number"}, {"name": "Duterimbere", "location": "Karongi", "tel": "No phone number"}]