[{"name": "Bank of Kigali, Kicukiro Pension Plaza Branch", "location": "Kicukiro", "tel": "No phone number"}, {"name": "Bank of Kigali", "location": "Kicukiro", "tel": "0788143000"}, {"name": "Amasezerano Community Bank", "location": "Kicukiro", "tel": "No phone number"}, {"name": "Equity Bank, Kicukiro Branch", "location": "Kicukiro", "tel": "0788190000"}, {"name": "Urwego Bank", "location": "Kicukiro", "tel": "0788792950"}, {"name": "COPEDU PLC", "location": "Kicukiro", "tel": "No phone number"}, {"name": "Access Bank ATM", "location": "Kicukiro", "tel": "No phone number"}, {"name": "BPR", "location": "Kicukiro", "tel": "No phone number"}, {"name": "COOPEC Zamuka", "location": "Kicukiro", "tel": "No phone number"}, {"name": "GTBank", "location": "Kicukiro", "tel": "0788308420"}, {"name": "Cogebanque, Kicukiro Branch", "location": "Kicukiro", "tel": "No phone number"}, {"name": "Bank of Kigali", "location": "Kicukiro", "tel": "No phone number"}, {"name": "UOB", "location": "Kicukiro", "tel": "No phone number"}, {"name": "Bank of Kigali, RDB Branch", "location": "Kicukiro", "tel": "0788640281"}, {"name": "GTBank", "location": "Kicukiro", "tel": "0788149600"}, {"name": "Commercial Bank of Africa", "location": "Kicukiro", "tel": "No phone number"}, {"name": "BPR", "location": "Kicukiro", "tel": "No phone number"}, {"name": "Bank of Kigali", "location": "Kicukiro", "tel": "No phone number"}, {"name": "Bank of Kigali", "location": "Kicukiro", "tel": "0788302514"}, {"name": "BK ATM", "location": "Kicukiro", "tel": "No phone number"}, {"name": "Bank of Africa", "location": "Kicukiro", "tel": "No phone number"}, {"name": "Bank of Kigali", "location": "Kicukiro", "tel": "No phone number"}, {"name": "Bank of Kigali", "location": "Kicukiro", "tel": "0788386580"}, {"name": "Unguka Bank", "location": "Kicukiro", "tel": "No phone number"}, {"name": "National Bank of Rwanda", "location": "Kicukiro", "tel": "No phone number"}, {"name": "Access Bank", "location": "Kicukiro", "tel": "No phone number"}, {"name": "I&M Bank", "location": "Kicukiro", "tel": "0788162202"}, {"name": "I&M Bank", "location": "Kicukiro", "tel": "No phone number"}, {"name": "Ecobank", "location": "Kicukiro", "tel": "0788161306"}, {"name": "Bank of Africa", "location": "Kicukiro", "tel": "No phone number"}, {"name": "BPR Gisimenti", "location": "Kicukiro", "tel": "No phone number"}, {"name": "Urwego Bank Head Office", "location": "Kicukiro", "tel": "0788173100"}, {"name": "East African Development Bank", "location": "Kicukiro", "tel": "No phone number"}, {"name": "Equity Bank, Kisimenti Branch", "location": "Kicukiro", "tel": "0788190203"}, {"name": "KCB Bank MTN Centre", "location": "Kicukiro", "tel": "0788140000"}, {"name": "Development Bank of Rwanda", "location": "Kicukiro", "tel": "No phone number"}, {"name": "Bank of Kigali, Giporoso Branch", "location": "Kicukiro", "tel": "0788143046"}, {"name": "SMGF Rwanda", "location": "Kicukiro", "tel": "0788354937"}, {"name": "I&M Bank ATM", "location": "Kicukiro", "tel": "0788162006"}, {"name": "Bank of Kigali ATM", "location": "Kicukiro", "tel": "No phone number"}, {"name": "KCB, Kisimenti Branch", "location": "Kicukiro", "tel": "No phone number"}, {"name": "Unguka Bank HQ", "location": "Kicukiro", "tel": "0726019165"}, {"name": "Bank of Kigali", "location": "Kicukiro", "tel": "0788143092"}, {"name": "Ecobank", "location": "Kicukiro", "tel": "No phone number"}, {"name": "Equity Bank, Giporoso Branch", "location": "Kicukiro", "tel": "0788190000"}, {"name": "Bank of Kigali", "location": "Kicukiro", "tel": "0783937013"}, {"name": "Bank of Kigali", "location": "Kicukiro", "tel": "No phone number"}, {"name": "Bank of Africa", "location": "Kicukiro", "tel": "No phone number"}, {"name": "Unguka Bank", "location": "Kicukiro", "tel": "No phone number"}, {"name": "BANK OF AFRICA RWANDA PLC", "location": "Kicukiro", "tel": "No phone number"}, {"name": "Bank of Kigali Headquarters", "location": "Kicukiro", "tel": "0788143000"}, {"name": "COPEDU LTD", "location": "Kicukiro", "tel": "0788422538"}, {"name": "Bank of Kigali", "location": "Kicukiro", "tel": "No phone number"}, {"name": "Goshen Finance Headquarters", "location": "Kicukiro", "tel": "0788301313"}, {"name": "Zigama CSS Headquarters", "location": "Kicukiro", "tel": "0788305726"}, {"name": "Indatsikira SACCO", "location": "Kicukiro", "tel": "No phone number"}, {"name": "Bank of Kigali", "location": "Kicukiro", "tel": "No phone number"}, {"name": "Bank of Africa", "location": "Kicukiro", "tel": "No phone number"}, {"name": "Duterimbere-IMF Head Office", "location": "Kicukiro", "tel": "0788305651"}, {"name": "KCB Kimironko Branch", "location": "Kicukiro", "tel": "0788140400"}, {"name": "Bank Populaire du Rwanda, BPR, Kimironko Branch", "location": "Kicukiro", "tel": "No phone number"}, {"name": "AB Bank", "location": "Kicukiro", "tel": "0789298060"}, {"name": "GTBank", "location": "Kicukiro", "tel": "0788149600"}, {"name": "Bank of Africa Main Branch", "location": "Kicukiro", "tel": "0788136228"}, {"name": "AB Bank", "location": "Kicukiro", "tel": "No phone number"}, {"name": "BPR", "location": "Kicukiro", "tel": "0788187200"}, {"name": "Access Bank Headquarters", "location": "Kicukiro", "tel": "0788145300"}, {"name": "Zigama CSS, Kimihurura", "location": "Kicukiro", "tel": "No phone number"}, {"name": "Ijabo SACCO Kigarama", "location": "Kicukiro", "tel": "No phone number"}, {"name": "Bank of Kigali", "location": "Kicukiro", "tel": "No phone number"}, {"name": "Bank of Kigali", "location": "Kicukiro", "tel": "0788143000"}, {"name": "Rebex Forex Bureau", "location": "Kicukiro", "tel": "No phone number"}, {"name": "Cogebanque", "location": "Kicukiro", "tel": "No phone number"}, {"name": "I&M Bank ATM", "location": "Kicukiro", "tel": "No phone number"}, {"name": "Equity Bank Headquarters", "location": "Kicukiro", "tel": "0788190202"}, {"name": "Urwego Bank", "location": "Kicukiro", "tel": "No phone number"}, {"name": "AB Bank", "location": "Kicukiro", "tel": "No phone number"}]