[{"name": "Bank of Africa", "location": "Muhanga", "tel": "0788136205"}, {"name": "Bank of Kigali", "location": "Muhanga", "tel": "No phone number"}, {"name": "KCB ATM - Muhanga", "location": "Muhanga", "tel": "0788307147"}, {"name": "Kenya Commercial Bank", "location": "Muhanga", "tel": "No phone number"}, {"name": "Banque Populaire du Rwanda", "location": "Muhanga", "tel": "No phone number"}, {"name": "Urwego Opportunity Bank", "location": "Muhanga", "tel": "0788465605"}, {"name": "COGEBANQUE", "location": "Muhanga", "tel": "No phone number"}, {"name": "Bank of Kigali", "location": "Muhanga", "tel": "No phone number"}, {"name": "National Bank of Rwanda", "location": "Muhanga", "tel": "No phone number"}, {"name": "Unguka Bank HQ", "location": "Muhanga", "tel": "0726019165"}, {"name": "Bank of Africa", "location": "Muhanga", "tel": "No phone number"}, {"name": "Bank of Kigali", "location": "Muhanga", "tel": "No phone number"}, {"name": "Development Bank of Rwanda", "location": "Muhanga", "tel": "No phone number"}, {"name": "Bank of Kigali, Nyabugogo Branch", "location": "Muhanga", "tel": "0788143554"}, {"name": "Bank of Kigali", "location": "Muhanga", "tel": "0783937013"}, {"name": "BANK OF AFRICA RWANDA PLC", "location": "Muhanga", "tel": "No phone number"}, {"name": "Bank of Kigali", "location": "Muhanga", "tel": "No phone number"}, {"name": "AB Bank Head Office", "location": "Muhanga", "tel": "0788319108"}, {"name": "Bank of Kigali, RDB Branch", "location": "Muhanga", "tel": "0788640281"}, {"name": "African Development Bank", "location": "Muhanga", "tel": "No phone number"}, {"name": "Bank of Kigali Headquarters", "location": "Muhanga", "tel": "0788143000"}, {"name": "Bank of Africa", "location": "Muhanga", "tel": "No phone number"}, {"name": "I&M Bank", "location": "Muhanga", "tel": "No phone number"}, {"name": "I&M Bank", "location": "Muhanga", "tel": "No phone number"}, {"name": "BPR", "location": "Muhanga", "tel": "No phone number"}, {"name": "AB Bank", "location": "Muhanga", "tel": "No phone number"}, {"name": "Bank of Kigali", "location": "Muhanga", "tel": "No phone number"}, {"name": "Bank of Kigali", "location": "Muhanga", "tel": "0788302514"}, {"name": "GTBank", "location": "Muhanga", "tel": "0788149600"}, {"name": "Unguka Bank", "location": "Muhanga", "tel": "No phone number"}, {"name": "KCB Bank MTN Centre", "location": "Muhanga", "tel": "0788140000"}, {"name": "Rwanda Commercial Bank, Nyabugogo", "location": "Muhanga", "tel": "No phone number"}, {"name": "BPR", "location": "Muhanga", "tel": "0788187200"}, {"name": "Bank of Kigali", "location": "Muhanga", "tel": "0788386580"}, {"name": "Bank of Kigali, Kicukiro Pension Plaza Branch", "location": "Muhanga", "tel": "No phone number"}, {"name": "Bank of Kigali", "location": "Muhanga", "tel": "0788143000"}, {"name": "Bank of Kigali", "location": "Muhanga", "tel": "0788143092"}]