[{"name": "Sacco Shirubukene Ngoma", "location": "Rulindo", "tel": "No phone number"}, {"name": "National Bank of Rwanda", "location": "Rulindo", "tel": "No phone number"}, {"name": "I&M Bank", "location": "Rulindo", "tel": "No phone number"}, {"name": "Bank of Kigali, Nyabugogo Branch", "location": "Rulindo", "tel": "0788143554"}, {"name": "Unguka Bank HQ", "location": "Rulindo", "tel": "0726019165"}, {"name": "I&M Bank", "location": "Rulindo", "tel": "No phone number"}, {"name": "Unguka Bank", "location": "Rulindo", "tel": "No phone number"}, {"name": "Bank of Kigali", "location": "Rulindo", "tel": "No phone number"}, {"name": "BANK OF AFRICA RWANDA PLC", "location": "Rulindo", "tel": "No phone number"}, {"name": "Ecobank, Byumba Branch", "location": "Rulindo", "tel": "No phone number"}, {"name": "Equity Bank, Nyabugogo Branch", "location": "Rulindo", "tel": "0788190000"}, {"name": "Access Bank", "location": "Rulindo", "tel": "No phone number"}, {"name": "Bank of Kigali", "location": "Rulindo", "tel": "0783937013"}, {"name": "Access Bank", "location": "Rulindo", "tel": "No phone number"}, {"name": "Development Bank of Rwanda", "location": "Rulindo", "tel": "No phone number"}, {"name": "I&M Bank", "location": "Rulindo", "tel": "No phone number"}, {"name": "Bank of Kigali", "location": "Rulindo", "tel": "No phone number"}, {"name": "Bank of Africa", "location": "Rulindo", "tel": "No phone number"}, {"name": "BPR", "location": "Rulindo", "tel": "No phone number"}, {"name": "Bank of Africa Main Branch", "location": "Rulindo", "tel": "0788136228"}, {"name": "GTBank Nyabugogo Branch", "location": "Rulindo", "tel": "No phone number"}, {"name": "GTBank", "location": "Rulindo", "tel": "0788149600"}, {"name": "AB Bank", "location": "Rulindo", "tel": "0789298060"}, {"name": "Bank of Kigali Headquarters", "location": "Rulindo", "tel": "0788143000"}, {"name": "Cogebanque", "location": "Rulindo", "tel": "No phone number"}, {"name": "Bank of Africa", "location": "Rulindo", "tel": "No phone number"}, {"name": "I&M Bank", "location": "Rulindo", "tel": "0788162198"}, {"name": "Access Bank Headquarters", "location": "Rulindo", "tel": "0788145300"}, {"name": "Equity Bank, Kigali City Market Branch", "location": "Rulindo", "tel": "0788190000"}, {"name": "Urwego Bank", "location": "Rulindo", "tel": "No phone number"}, {"name": "KCB Iwacu", "location": "Rulindo", "tel": "0783578336"}, {"name": "Equity Bank Headquarters", "location": "Rulindo", "tel": "0788190202"}, {"name": "I&M Bank Headquarters", "location": "Rulindo", "tel": "0788162006"}, {"name": "BPR", "location": "Rulindo", "tel": "No phone number"}, {"name": "Bank of Kigali", "location": "Rulindo", "tel": "No phone number"}, {"name": "AB Bank", "location": "Rulindo", "tel": "No phone number"}, {"name": "BPR", "location": "Rulindo", "tel": "0788187200"}, {"name": "Cogebanque", "location": "Rulindo", "tel": "No phone number"}, {"name": "Ecobank", "location": "Rulindo", "tel": "0788161036"}, {"name": "Cogebanque", "location": "Rulindo", "tel": "0788155500"}, {"name": "East African Development Bank", "location": "Rulindo", "tel": "No phone number"}, {"name": "Bank of Kigali - Gisozi Branch _ Umukindo Center", "location": "Rulindo", "tel": "No phone number"}, {"name": "KCB Rwanda Headquarters", "location": "Rulindo", "tel": "0788140400"}, {"name": "KCB Bank MTN Centre", "location": "Rulindo", "tel": "0788140000"}, {"name": "Commercial Bank of Africa", "location": "Rulindo", "tel": "No phone number"}, {"name": "African Development Bank", "location": "Rulindo", "tel": "No phone number"}]