[{"name": "Bank of Kigali", "location": "Rusizi", "tel": "No phone number"}, {"name": "BK Rusizi Branch", "location": "Rusizi", "tel": "No phone number"}, {"name": "COGEBANQUE Rusizi Branch", "location": "Rusizi", "tel": "No phone number"}, {"name": "UBUMWE SACCO GIKUNDAMVURA", "location": "Rusizi", "tel": "No phone number"}, {"name": "BPR Rusizi Branch", "location": "Rusizi", "tel": "No phone number"}, {"name": "KCB Iwacu", "location": "Rusizi", "tel": "0788692956"}, {"name": "ECOBANK Rusizi Branch", "location": "Rusizi", "tel": "No phone number"}, {"name": "KCB", "location": "Rusizi", "tel": "No phone number"}, {"name": "Zigama CSS, Rusizi", "location": "Rusizi", "tel": "No phone number"}, {"name": "BPR", "location": "Rusizi", "tel": "No phone number"}, {"name": "Equity Bank", "location": "Rusizi", "tel": "No phone number"}, {"name": "Bureaux de Western Union", "location": "Rusizi", "tel": "No phone number"}, {"name": "Bank of Africa", "location": "Rusizi", "tel": "No phone number"}, {"name": "CNSS", "location": "Rusizi", "tel": "No phone number"}, {"name": "FINCA", "location": "Rusizi", "tel": "No phone number"}, {"name": "Banque Centrale du Congo", "location": "Rusizi", "tel": "No phone number"}, {"name": "Zairian Commmercial Bank", "location": "Rusizi", "tel": "No phone number"}]