[{"name": "Cogebanque", "location": "No address", "tel": "No phone number"}, {"name": "Development Bank of Rwanda", "location": "Kigali", "tel": "No phone number"}, {"name": "National Bank of Rwanda", "location": "Kigali", "tel": "No phone number"}, {"name": "Bank of Kigali", "location": "No address", "tel": "No phone number"}, {"name": "Bank of Africa", "location": "No address", "tel": "No phone number"}, {"name": "Bank of Kigali", "location": "Huye", "tel": "No phone number"}, {"name": "Equity Bank", "location": "Huye", "tel": "No phone number"}, {"name": "Bank of Kigali", "location": "Kigali", "tel": "0783937013"}, {"name": "GTBank", "location": "Kigali", "tel": "0788149600"}, {"name": "AB Bank Head Office", "location": "Kigali", "tel": "0788319108"}, {"name": "ECOBANK - Huye", "location": "Huye", "tel": "No phone number"}, {"name": "BANK OF AFRICA RWANDA PLC", "location": "Kigali", "tel": "No phone number"}, {"name": "Access Bank Headquarters", "location": "Kigali", "tel": "0788145300"}, {"name": "Access Bank", "location": "No address", "tel": "No phone number"}, {"name": "BPR", "location": "Kigali", "tel": "0788187200"}, {"name": "I&M Bank", "location": "No address", "tel": "No phone number"}, {"name": "East African Development Bank", "location": "No address", "tel": "No phone number"}, {"name": "KCB Rwanda Headquarters", "location": "Kigali", "tel": "0788140400"}, {"name": "Bank of Kigali", "location": "No address", "tel": "No phone number"}, {"name": "KCB Kimironko Branch", "location": "Kigali", "tel": "0788140400"}, {"name": "KCB Bank MTN Centre", "location": "Kigali", "tel": "0788140000"}, {"name": "Bank of Kigali", "location": "Kigali", "tel": "No phone number"}, {"name": "I&M Bank", "location": "No address", "tel": "No phone number"}, {"name": "Unguka Bank HQ", "location": "Kigali", "tel": "0726019165"}, {"name": "I&M Bank", "location": "Kigali", "tel": "No phone number"}, {"name": "I&M Bank", "location": "Kigali", "tel": "0788162198"}, {"name": "Bank of Kigali, Nyabugogo Branch", "location": "Kigali", "tel": "0788143554"}, {"name": "Ecobank", "location": "Kigali", "tel": "0788161306"}, {"name": "Bank of Africa", "location": "No address", "tel": "0788136205"}, {"name": "I&M Bank Headquarters", "location": "Kigali", "tel": "0788162006"}, {"name": "Banque Populaire du Rwanda", "location": "No address", "tel": "No phone number"}, {"name": "Equity Bank, Kigali City Market Branch", "location": "No address", "tel": "0788190000"}, {"name": "African Development Bank", "location": "Kigali", "tel": "No phone number"}, {"name": "Bank of Africa", "location": "Kigali", "tel": "No phone number"}, {"name": "Bank of Kigali", "location": "No address", "tel": "No phone number"}, {"name": "Bank of Africa", "location": "No address", "tel": "No phone number"}, {"name": "AB Bank", "location": "No address", "tel": "No phone number"}, {"name": "Bank of Kigali Headquarters", "location": "Kigali", "tel": "0788143000"}, {"name": "Cogebanque", "location": "Kigali", "tel": "0788155500"}, {"name": "Zigama CSS Headquarters", "location": "Kigali", "tel": "0788305726"}, {"name": "Kenya Commercial Bank", "location": "No address", "tel": "No phone number"}, {"name": "AB Bank", "location": "Kigali", "tel": "0789298060"}, {"name": "Rwanda Commercial Bank, Nyabugogo", "location": "No address", "tel": "No phone number"}, {"name": "AB Bank", "location": "Kigali", "tel": "No phone number"}, {"name": "Bank of Africa", "location": "No address", "tel": "0739791200"}, {"name": "Bank of Kigali, Kicukiro Pension Plaza Branch", "location": "Kigali", "tel": "No phone number"}, {"name": "Bank of Kigali", "location": "Kigali", "tel": "No phone number"}, {"name": "Unguka Bank", "location": "No address", "tel": "No phone number"}, {"name": "Bank of Kigali", "location": "No address", "tel": "No phone number"}, {"name": "Bank of Kigali, Karongi Branch", "location": "No address", "tel": "No phone number"}, {"name": "KCB ATM - UNR Huye", "location": "Huye", "tel": "0788309026"}, {"name": "Ecobank Headquarters", "location": "Kigali", "tel": "0788161000"}, {"name": "I&M Bank", "location": "No address", "tel": "No phone number"}, {"name": "Bank of Kigali", "location": "Kigali", "tel": "0788386580"}, {"name": "GTBank Nyabugogo Branch", "location": "Kigali", "tel": "No phone number"}, {"name": "Bank Of Kigali Byangabo Branch", "location": "No address", "tel": "No phone number"}, {"name": "Bank of Kigali", "location": "Kigali", "tel": "0788143092"}, {"name": "Ecobank", "location": "Kigali", "tel": "0788161036"}, {"name": "BCR, Rwamagana", "location": "Rwamagana", "tel": "0788302265"}, {"name": "Bank of Kigali, Giporoso Branch", "location": "Kigali", "tel": "0788143046"}, {"name": "Cogebanque", "location": "Kigali", "tel": "No phone number"}, {"name": "SMGF Rwanda", "location": "Kigali", "tel": "0788354937"}, {"name": "KCB Iwacu", "location": "Kigali", "tel": "0788500539"}, {"name": "BPR", "location": "No address", "tel": "No phone number"}, {"name": "Atlantis Microfinance Head Office", "location": "Kigali", "tel": "No phone number"}, {"name": "Urwego Bank Head Office", "location": "Kigali", "tel": "0788173100"}, {"name": "Equity Bank Headquarters", "location": "Kigali", "tel": "0788190202"}, {"name": "Access Bank", "location": "No address", "tel": "No phone number"}, {"name": "Bank of Kigali", "location": "No address", "tel": "No phone number"}, {"name": "Banque Rwandaise de Development", "location": "No address", "tel": "No phone number"}, {"name": "COGEBANQUE Karongi Branch", "location": "No address", "tel": "No phone number"}, {"name": "Bank of Kigali", "location": "Kigali", "tel": "0788143000"}, {"name": "BPR", "location": "Kigali", "tel": "No phone number"}, {"name": "KCB Iwacu", "location": "Kigali", "tel": "0783578336"}, {"name": "Urwego Bank", "location": "No address", "tel": "0788524460"}, {"name": "KCB ATM - Huye", "location": "Huye", "tel": "0788309026"}, {"name": "Equity Bank, Kisimenti Branch", "location": "Kigali", "tel": "0788190203"}, {"name": "KCB Iwacu", "location": "Kigali", "tel": "0788747593"}, {"name": "Equity Bank, Musanze Branch", "location": "No address", "tel": "No phone number"}, {"name": "Access Bank", "location": "Musanze", "tel": "No phone number"}, {"name": "Bank of Kigali, Gisenyi Branch", "location": "No address", "tel": "No phone number"}, {"name": "KCB Iwacu", "location": "No address", "tel": "0788692956"}, {"name": "Amasezerano Community Bank", "location": "No address", "tel": "No phone number"}, {"name": "Cogebanque", "location": "No address", "tel": "No phone number"}, {"name": "GTBank Rusizi Branch", "location": "No address", "tel": "No phone number"}, {"name": "EcoBank", "location": "No address", "tel": "No phone number"}, {"name": "Bank Of Kigali Nyagatare", "location": "Nyagatare", "tel": "0787619777"}, {"name": "BPR", "location": "No address", "tel": "No phone number"}, {"name": "Bank of Kigali", "location": "Kigali", "tel": "No phone number"}, {"name": "I&M Bank", "location": "No address", "tel": "No phone number"}, {"name": "Urwego Opportunity Bank", "location": "No address", "tel": "0788465605"}, {"name": "Urwego Opportunity Bank Ltd", "location": "No address", "tel": "No phone number"}, {"name": "Urwego Bank", "location": "Kigali", "tel": "No phone number"}, {"name": "KCB", "location": "No address", "tel": "No phone number"}, {"name": "AB Bank", "location": "No address", "tel": "No phone number"}, {"name": "GTBank", "location": "Kayonza", "tel": "No phone number"}, {"name": "Urwego Bank Headquarters", "location": "Kigali", "tel": "0788173100"}]