[
  {
    "name": "Joy Clinic",
    "location": "No address",
    "tel": "No phone number"
  },
  {
    "name": "Rwanda Eye Clinic",
    "location": "Kigali",
    "tel": "0783405711"
  },
  {
    "name": "Legacy Clinics",
    "location": "Kigali",
    "tel": "0788382000"
  },
  {
    "name": "Iranzi Clinic- Birth Centre",
    "location": "Kigali",
    "tel": "0785022206"
  },
  {
    "name": "HOSPITAL -UBUZIMA POLYCLINIC",
    "location": "Kigali",
    "tel": "No phone number"
  },
  {
    "name": "Salus Clinic",
    "location": "Huye",
    "tel": "No phone number"
  },
  {
    "name": "Polyclinique du Plateau",
    "location": "Kigali",
    "tel": "0781293417"
  },
  {
    "name": "Salem Clinic",
    "location": "Kigali",
    "tel": "0781698861"
  },
  {
    "name": "Harmony Clinic",
    "location": "Kigali",
    "tel": "0788500497"
  },
  {
    "name": "KIGALI MEDICAL CENTER ( KMC)",
    "location": "Kigali",
    "tel": "0780864534"
  },
  {
    "name": "TMC Technology Clinic",
    "location": "Kigali",
    "tel": "No phone number"
  },
  {
    "name": "CHK Clinic",
    "location": "Kigali",
    "tel": "No phone number"
  },
  {
    "name": "UR - Polyclinic",
    "location": "Kigali",
    "tel": "0786689121"
  },
  {
    "name": "Kigali Dialysis Center - Africa Healthcare Network",
    "location": "Kigali",
    "tel": "0782637546"
  },
  {
    "name": "Doctors' Plaza Clinic",
    "location": "Kigali",
    "tel": "0788609621"
  },
  {
    "name": "Mariba Health Post",
    "location": "No address",
    "tel": "No phone number"
  },
  {
    "name": "Legacy Dental Clinic",
    "location": "Kigali",
    "tel": "0788382000"
  },
  {
    "name": "Dr. Agarwal's Eye Hospital, Kigali",
    "location": "Kigali",
    "tel": "0787303743"
  },
  {
    "name": "La Life Polyclinic ENT(ORL)",
    "location": "Kigali",
    "tel": "0788520986"
  },
  {
    "name": "Kagugu Medical Clinic",
    "location": "No address",
    "tel": "No phone number"
  },
  {
    "name": "Imboni Ophthalmology Clinic of Dr Joseph Sebera",
    "location": "Kigali",
    "tel": "0780257089"
  },
  {
    "name": "Clinique Solamer",
    "location": "No address",
    "tel": "No phone number"
  },
  {
    "name": "Le Bon Samaritain",
    "location": "Kigali",
    "tel": "0788503434"
  },
  {
    "name": "Shema Clinic",
    "location": "Kigali",
    "tel": "0788403594"
  },
  {
    "name": "Ivuriro Isango",
    "location": "No address",
    "tel": "0788691380"
  },
  {
    "name": "Clinique Don de Dieu",
    "location": "Kigali",
    "tel": "0788302839"
  },
  {
    "name": "Umurage Medical Clinic",
    "location": "No address",
    "tel": "0788404430"
  },
  {
    "name": "we actx",
    "location": "Kigali",
    "tel": "0787334678"
  },
  {
    "name": "Dispensaire Sanganirwa",
    "location": "No address",
    "tel": "No phone number"
  },
  {
    "name": "Dispensaire Amizero",
    "location": "No address",
    "tel": "No phone number"
  },
  {
    "name": "Ent (Orl) Clinic",
    "location": "Kigali",
    "tel": "0787400577"
  },
  {
    "name": "Clinique Isango",
    "location": "Kigali",
    "tel": "0788481226"
  },
  {
    "name": "Deva Medical Center",
    "location": "No address",
    "tel": "No phone number"
  },
  {
    "name": "Nyabikenke Health Center",
    "location": "No address",
    "tel": "No phone number"
  },
  {
    "name": "Clinique Sainte Elisa",
    "location": "Kigali",
    "tel": "0782172985"
  },
  {
    "name": "Le Sauveur Dispensary",
    "location": "No address",
    "tel": "No phone number"
  },
  {
    "name": "Pineda Dental Clinic",
    "location": "Kigali",
    "tel": "0788564377"
  },
  {
    "name": "Kigali Adventist Medical Clinic",
    "location": "No address",
    "tel": "No phone number"
  },
  {
    "name": "Polyclinique De L'Etoile",
    "location": "Kigali",
    "tel": "No phone number"
  },
  {
    "name": "Icyizere Psychotherapeutic Center",
    "location": "Kigali",
    "tel": "0783375550"
  },
  {
    "name": "Mediheal Diagnostic and Fertility Centre",
    "location": "Kigali",
    "tel": "No phone number"
  },
  {
    "name": "Caraes Neuropsychiatric Hospital Ndera",
    "location": "Kigali",
    "tel": "0788827364"
  },
  {
    "name": "DK OPTICALS",
    "location": "Kigali",
    "tel": "0789426659"
  },
  {
    "name": "Adventist Dental Clinic",
    "location": "No address",
    "tel": "No phone number"
  },
  {
    "name": "Ejo Heza Clinic",
    "location": "Kigali",
    "tel": "0785845994"
  },
  {
    "name": "Ivuriro Polyfam",
    "location": "Kigali",
    "tel": "No phone number"
  },
  {
    "name": "Jubliee Dental Clinic",
    "location": "Kigali",
    "tel": "0786983100"
  },
  {
    "name": "RAPHA Medical Clinic",
    "location": "Kigali",
    "tel": "0788679290"
  },
  {
    "name": "Girimpuhwe Health Centre",
    "location": "Kigali",
    "tel": "0788473523"
  },
  {
    "name": "BETSAIDA Clinic",
    "location": "No address",
    "tel": "No phone number"
  },
  {
    "name": "IJABO Physiotherapy and Rehabilitation Clinics",
    "location": "No address",
    "tel": "0787921473"
  },
  {
    "name": "Medicus Humanus Clinic",
    "location": "Kigali",
    "tel": "0788340264"
  }
]
