[{"name": "Kibeho Health Centre", "location": "No address", "tel": "No phone number"}, {"name": "Juru Health Center", "location": "No address", "tel": "0784531581"}, {"name": "Kicukiro Health Centre", "location": "Kigali", "tel": "No phone number"}, {"name": "Mushishiro Health Centre", "location": "No address", "tel": "No phone number"}, {"name": "Centre de Sant\u00e9 de Remera", "location": "No address", "tel": "0785119102"}, {"name": "Kinyinya Health Centre", "location": "Kigali", "tel": "0782377213"}, {"name": "KIGALI MEDICAL CENTER ( KMC)", "location": "Kigali", "tel": "0780864534"}, {"name": "Masoro Health Centre", "location": "No address", "tel": "No phone number"}, {"name": "Kibirizi Health Centre", "location": "No address", "tel": "No phone number"}, {"name": "Karwasa Health Center", "location": "No address", "tel": "No phone number"}, {"name": "Gashora Health Center", "location": "No address", "tel": "No phone number"}, {"name": "Deva Medical Center", "location": "No address", "tel": "0788333111"}, {"name": "Kigali Dialysis Center - Africa Healthcare Network", "location": "Kigali", "tel": "0782637546"}, {"name": "Kansi Health Centre", "location": "No address", "tel": "No phone number"}, {"name": "Kiziba Health Center", "location": "No address", "tel": "No phone number"}, {"name": "Nyarubuye Health Centre", "location": "No address", "tel": "No phone number"}, {"name": "Gikondo Health Centre", "location": "Kigali", "tel": "No phone number"}, {"name": "KMISC Kigali Medical Imaging", "location": "Kigali", "tel": "No phone number"}, {"name": "Rwanda Military Hospital", "location": "No address", "tel": "No phone number"}, {"name": "Iranzi Clinic- Birth Centre", "location": "Kigali", "tel": "0785022206"}, {"name": "Bwama Health Centre III", "location": "No address", "tel": "No phone number"}, {"name": "University Teaching Hospital of Kigali", "location": "No address", "tel": "No phone number"}, {"name": "Kigali Dermatology Center", "location": "No address", "tel": "0782742943"}, {"name": "Icyizere Psychotherapeutic Center", "location": "Kigali", "tel": "0783375550"}, {"name": "Health Center De Kalagane", "location": "No address", "tel": "No phone number"}, {"name": "Gisenyi Dialysis Center - Africa Healthcare Network", "location": "No address", "tel": "No phone number"}]