[
  {
    "name": "Nyamata Health Center",
    "location": "Bugesera",
    "tel": "No phone number"
  },
  {
    "name": "Juru Health Center",
    "location": "Bugesera",
    "tel": "0784531581"
  },
  {
    "name": "Ntarama Health Center",
    "location": "Bugesera",
    "tel": "No phone number"
  },
  {
    "name": "Mwogo Health Center",
    "location": "Bugesera",
    "tel": "No phone number"
  },
  {
    "name": "Gashora Health Center",
    "location": "Bugesera",
    "tel": "No phone number"
  },
  {
    "name": "Gahanga Health Center",
    "location": "Bugesera",
    "tel": "No phone number"
  },
  {
    "name": "Ngeruka Health Centre",
    "location": "Bugesera",
    "tel": "No phone number"
  },
  {
    "name": "Gakurazo Health Center",
    "location": "Bugesera",
    "tel": "No phone number"
  },
  {
    "name": "Kamabuye Health Centre",
    "location": "Bugesera",
    "tel": "No phone number"
  },
  {
    "name": "Nyarurenzi Health Post",
    "location": "Bugesera",
    "tel": "No phone number"
  },
  {
    "name": "Butamwa Health Centre",
    "location": "Bugesera",
    "tel": "No phone number"
  },
  {
    "name": "Mareba Health Centre",
    "location": "Bugesera",
    "tel": "No phone number"
  },
  {
    "name": "Muyange Health Centre",
    "location": "Bugesera",
    "tel": "No phone number"
  },
  {
    "name": "Busoro Health Centre",
    "location": "Bugesera",
    "tel": "No phone number"
  },
  {
    "name": "Mazane Health Center",
    "location": "Bugesera",
    "tel": "No phone number"
  },
  {
    "name": "Rilima Health Center",
    "location": "Bugesera",
    "tel": "No phone number"
  },
  {
    "name": "Masaka Health Centre",
    "location": "Bugesera",
    "tel": "No phone number"
  },
  {
    "name": "Betesaida Health Centre",
    "location": "Bugesera",
    "tel": "0787408974"
  },
  {
    "name": "Kicukiro Health Centre",
    "location": "Bugesera",
    "tel": "No phone number"
  },
  {
    "name": "Butaro Health Center",
    "location": "Burera",
    "tel": "No phone number"
  },
  {
    "name": "Mucaca Health Center",
    "location": "Burera",
    "tel": "No phone number"
  },
  {
    "name": "Gasiza Health Center",
    "location": "Burera",
    "tel": "No phone number"
  },
  {
    "name": "Health Center",
    "location": "Burera",
    "tel": "No phone number"
  },
  {
    "name": "Karwasa Health Center",
    "location": "Burera",
    "tel": "No phone number"
  },
  {
    "name": "Rubaya Health Centre",
    "location": "Burera",
    "tel": "No phone number"
  },
  {
    "name": "Ruhunde Health Centre",
    "location": "Burera",
    "tel": "No phone number"
  },
  {
    "name": "Kinini Health Center",
    "location": "Burera",
    "tel": "No phone number"
  },
  {
    "name": "Kivuye Health Centre",
    "location": "Burera",
    "tel": "No phone number"
  },
  {
    "name": "Rwerere Health Centre",
    "location": "Burera",
    "tel": "No phone number"
  },
  {
    "name": "Karwasa Health Centre",
    "location": "Burera",
    "tel": "No phone number"
  },
  {
    "name": "Kabyiniro Health Centre",
    "location": "Burera",
    "tel": "No phone number"
  },
  {
    "name": "Mutara Health Centre",
    "location": "Burera",
    "tel": "No phone number"
  },
  {
    "name": "Rusasa Health Centre",
    "location": "Burera",
    "tel": "No phone number"
  },
  {
    "name": "Rugarama Health Centre",
    "location": "Burera",
    "tel": "No phone number"
  },
  {
    "name": "Gitare Health Centre",
    "location": "Burera",
    "tel": "No phone number"
  },
  {
    "name": "Kirambo Health Center",
    "location": "Burera",
    "tel": "No phone number"
  },
  {
    "name": "Murandi Health Centre",
    "location": "Burera",
    "tel": "No phone number"
  },
  {
    "name": "Rwaza Health Center",
    "location": "Burera",
    "tel": "No phone number"
  },
  {
    "name": "Mulindi Health Center",
    "location": "Burera",
    "tel": "No phone number"
  },
  {
    "name": "Nyange Health Centre",
    "location": "Gakenke",
    "tel": "No phone number"
  },
  {
    "name": "Cyabingo Health Center",
    "location": "Gakenke",
    "tel": "No phone number"
  },
  {
    "name": "Muhondo Health Center",
    "location": "Gakenke",
    "tel": "No phone number"
  },
  {
    "name": "Ruhinga Health Center",
    "location": "Gakenke",
    "tel": "No phone number"
  },
  {
    "name": "Nyakiriba Health Center",
    "location": "Gakenke",
    "tel": "0782095560"
  },
  {
    "name": "Ruli Health Center",
    "location": "Gakenke",
    "tel": "No phone number"
  },
  {
    "name": "Coko Health Centre",
    "location": "Gakenke",
    "tel": "No phone number"
  },
  {
    "name": "Rutake Health Centre",
    "location": "Gakenke",
    "tel": "No phone number"
  },
  {
    "name": "Busengo Health Centre",
    "location": "Gakenke",
    "tel": "No phone number"
  },
  {
    "name": "Mataba Health Centre",
    "location": "Gakenke",
    "tel": "No phone number"
  },
  {
    "name": "Rwahi Health Centre",
    "location": "Gakenke",
    "tel": "No phone number"
  },
  {
    "name": "Gatonde Health Center",
    "location": "Gakenke",
    "tel": "No phone number"
  },
  {
    "name": "Rwankuba Health Centre",
    "location": "Gakenke",
    "tel": "No phone number"
  },
  {
    "name": "Rukura Health Centre",
    "location": "Gakenke",
    "tel": "No phone number"
  },
  {
    "name": "Karangara Health Center",
    "location": "Gakenke",
    "tel": "No phone number"
  },
  {
    "name": "Health Center",
    "location": "Gakenke",
    "tel": "No phone number"
  },
  {
    "name": "Rutenderi Health Centre",
    "location": "Gakenke",
    "tel": "No phone number"
  },
  {
    "name": "Rusororo Health Centre",
    "location": "Gakenke",
    "tel": "No phone number"
  },
  {
    "name": "Nyakinama Health Center",
    "location": "Gakenke",
    "tel": "No phone number"
  },
  {
    "name": "Birehe Health Centre",
    "location": "Gakenke",
    "tel": "No phone number"
  },
  {
    "name": "Byakiriba Health Centre",
    "location": "Gakenke",
    "tel": "No phone number"
  },
  {
    "name": "Mucaca Health Center",
    "location": "Gakenke",
    "tel": "No phone number"
  },
  {
    "name": "Nyundo Health Centre",
    "location": "Gakenke",
    "tel": "No phone number"
  },
  {
    "name": "Kayenzi Health Center",
    "location": "Gakenke",
    "tel": "No phone number"
  },
  {
    "name": "Rushashi Health Centre",
    "location": "Gakenke",
    "tel": "No phone number"
  },
  {
    "name": "Kabuga Health Center",
    "location": "Gakenke",
    "tel": "No phone number"
  },
  {
    "name": "Nyabindi Health Center",
    "location": "Gakenke",
    "tel": "No phone number"
  },
  {
    "name": "Rwaza Health Center",
    "location": "Gakenke",
    "tel": "No phone number"
  },
  {
    "name": "Remera Health Centre",
    "location": "Gasabo",
    "tel": "No phone number"
  },
  {
    "name": "Girimpuhwe Health Centre",
    "location": "Gasabo",
    "tel": "0788473523"
  },
  {
    "name": "Kicukiro Health Centre",
    "location": "Gasabo",
    "tel": "No phone number"
  },
  {
    "name": "Nyarugenge Health Center",
    "location": "Gasabo",
    "tel": "No phone number"
  },
  {
    "name": "Gitega Health Center",
    "location": "Gasabo",
    "tel": "No phone number"
  },
  {
    "name": "Kabuye Health Center",
    "location": "Gasabo",
    "tel": "No phone number"
  },
  {
    "name": "BIGEGA Health center",
    "location": "Gasabo",
    "tel": "No phone number"
  },
  {
    "name": "Betesaida Health Centre",
    "location": "Gasabo",
    "tel": "0787408974"
  },
  {
    "name": "Kinyinya Health Centre",
    "location": "Gasabo",
    "tel": "0782377213"
  },
  {
    "name": "Deva Medical Center",
    "location": "Gasabo",
    "tel": "0788333111"
  },
  {
    "name": "Muhima Health Center",
    "location": "Gasabo",
    "tel": "No phone number"
  },
  {
    "name": "Kagugu Health Centre",
    "location": "Gasabo",
    "tel": "No phone number"
  },
  {
    "name": "Nyacyonga Health Centre",
    "location": "Gasabo",
    "tel": "No phone number"
  },
  {
    "name": "Kanyinya Health Centre",
    "location": "Gasabo",
    "tel": "No phone number"
  },
  {
    "name": "Kigali Dialysis Center - Africa Healthcare Network",
    "location": "Gasabo",
    "tel": "0782637546"
  },
  {
    "name": "Gihongwe Health Center",
    "location": "Gasabo",
    "tel": "No phone number"
  },
  {
    "name": "Burega Health Center",
    "location": "Gasabo",
    "tel": "0783809919"
  },
  {
    "name": "Iranzi Clinic- Birth Centre",
    "location": "Gasabo",
    "tel": "0785022206"
  },
  {
    "name": "Kigali Dermatology Center",
    "location": "Gasabo",
    "tel": "0782742943"
  },
  {
    "name": "Nyagasambu Health Centre",
    "location": "Gasabo",
    "tel": "No phone number"
  },
  {
    "name": "KIGALI MEDICAL CENTER ( KMC)",
    "location": "Gasabo",
    "tel": "0780864534"
  },
  {
    "name": "Kayanga Health Center",
    "location": "Gasabo",
    "tel": "No phone number"
  },
  {
    "name": "Kabuga Health Centre",
    "location": "Gasabo",
    "tel": "No phone number"
  },
  {
    "name": "Nduba Health Center",
    "location": "Gasabo",
    "tel": "No phone number"
  },
  {
    "name": "Shyorongi Health Center",
    "location": "Gasabo",
    "tel": "No phone number"
  },
  {
    "name": "Kabusunzu Health Center",
    "location": "Gasabo",
    "tel": "No phone number"
  },
  {
    "name": "Masaka Health Centre",
    "location": "Gasabo",
    "tel": "No phone number"
  },
  {
    "name": "Gikomero Health Center",
    "location": "Gasabo",
    "tel": "No phone number"
  },
  {
    "name": "Masoro Health Centre",
    "location": "Gasabo",
    "tel": "No phone number"
  },
  {
    "name": "Rubungo Health Centre",
    "location": "Gasabo",
    "tel": "No phone number"
  },
  {
    "name": "Rutonde Health Center",
    "location": "Gasabo",
    "tel": "No phone number"
  },
  {
    "name": "Murambi Health Center",
    "location": "Gasabo",
    "tel": "No phone number"
  },
  {
    "name": "Umwizerwa Medicare Centre",
    "location": "Gasabo",
    "tel": "0788760733"
  },
  {
    "name": "Twesero Health Center",
    "location": "Gasabo",
    "tel": "No phone number"
  },
  {
    "name": "Gikondo Health Centre",
    "location": "Gasabo",
    "tel": "No phone number"
  },
  {
    "name": "Gikomero Health Centre",
    "location": "Gasabo",
    "tel": "No phone number"
  },
  {
    "name": "BWIZA MEDICAL CLINIC AND DIAGNOSTIC CENTER LTD.",
    "location": "Gasabo",
    "tel": "0780681459"
  },
  {
    "name": "Busanza Health Centre",
    "location": "Gasabo",
    "tel": "No phone number"
  },
  {
    "name": "Kajevuba Health Centre",
    "location": "Gasabo",
    "tel": "No phone number"
  },
  {
    "name": "Gihara Health Center",
    "location": "Gasabo",
    "tel": "No phone number"
  },
  {
    "name": "KMISC Kigali Medical Imaging",
    "location": "Gasabo",
    "tel": "No phone number"
  },
  {
    "name": "Ruhuka Health Post",
    "location": "Gasabo",
    "tel": "No phone number"
  },
  {
    "name": "Centre de Sant\u00e9 de Gatenga",
    "location": "Gasabo",
    "tel": "No phone number"
  },
  {
    "name": "Jali Health Centre",
    "location": "Gasabo",
    "tel": "No phone number"
  },
  {
    "name": "Baho Medical Center",
    "location": "Gasabo",
    "tel": "0788564753"
  },
  {
    "name": "Biryogo Health centre",
    "location": "Gasabo",
    "tel": "No phone number"
  },
  {
    "name": "Gahanga Health Center",
    "location": "Gasabo",
    "tel": "No phone number"
  },
  {
    "name": "Rutare Health Centre",
    "location": "Gasabo",
    "tel": "No phone number"
  },
  {
    "name": "Kabuga Health Center",
    "location": "Gasabo",
    "tel": "No phone number"
  },
  {
    "name": "Icyizere Psychotherapeutic Center",
    "location": "Gasabo",
    "tel": "0783375550"
  },
  {
    "name": "Mandela Hope Ltd Dispensary",
    "location": "Gasabo",
    "tel": "No phone number"
  },
  {
    "name": "Kigese Health Centre",
    "location": "Gasabo",
    "tel": "No phone number"
  },
  {
    "name": "Butamwa Health Centre",
    "location": "Gasabo",
    "tel": "No phone number"
  },
  {
    "name": "Karangara Health Center",
    "location": "Gasabo",
    "tel": "No phone number"
  },
  {
    "name": "Gasange Health Center",
    "location": "Gasabo",
    "tel": "No phone number"
  },
  {
    "name": "Cyamuhinda Health Center",
    "location": "Gatsibo",
    "tel": "No phone number"
  },
  {
    "name": "Muhura Health Center",
    "location": "Gatsibo",
    "tel": "0782548096"
  },
  {
    "name": "KABARORE Health center",
    "location": "Gatsibo",
    "tel": "No phone number"
  },
  {
    "name": "Muko Health Center",
    "location": "Gatsibo",
    "tel": "No phone number"
  },
  {
    "name": "Gasange Health Center",
    "location": "Gatsibo",
    "tel": "No phone number"
  },
  {
    "name": "Rugarama Health Center",
    "location": "Gatsibo",
    "tel": "No phone number"
  },
  {
    "name": "Gakenke Health Center",
    "location": "Gatsibo",
    "tel": "No phone number"
  },
  {
    "name": "Nyabiheke Health Centre",
    "location": "Gatsibo",
    "tel": "No phone number"
  },
  {
    "name": "Nyamatete Health Centre",
    "location": "Gatsibo",
    "tel": "No phone number"
  },
  {
    "name": "Humure Health Centre",
    "location": "Gatsibo",
    "tel": "No phone number"
  },
  {
    "name": "Karambi Health Center",
    "location": "Gatsibo",
    "tel": "No phone number"
  },
  {
    "name": "Rwimbogo Health Centre",
    "location": "Gatsibo",
    "tel": "No phone number"
  },
  {
    "name": "Kibondo Health Centre",
    "location": "Gatsibo",
    "tel": "No phone number"
  },
  {
    "name": "Gitoki Health Centre",
    "location": "Gatsibo",
    "tel": "No phone number"
  },
  {
    "name": "Gituza Health Centre",
    "location": "Gatsibo",
    "tel": "No phone number"
  },
  {
    "name": "Nyagahanga Health Centre",
    "location": "Gatsibo",
    "tel": "No phone number"
  },
  {
    "name": "Mimuli Health Centre",
    "location": "Gatsibo",
    "tel": "No phone number"
  },
  {
    "name": "Gatsibo Health Centre",
    "location": "Gatsibo",
    "tel": "No phone number"
  },
  {
    "name": "Rutare Health Centre",
    "location": "Gatsibo",
    "tel": "No phone number"
  },
  {
    "name": "Nyagihita Health Centre",
    "location": "Gatsibo",
    "tel": "No phone number"
  },
  {
    "name": "Humura Health Centre",
    "location": "Gatsibo",
    "tel": "No phone number"
  },
  {
    "name": "Nyagasambu Health Centre",
    "location": "Gatsibo",
    "tel": "No phone number"
  },
  {
    "name": "Mulindi Health Center",
    "location": "Gicumbi",
    "tel": "No phone number"
  },
  {
    "name": "Gasange Health Center",
    "location": "Gicumbi",
    "tel": "No phone number"
  },
  {
    "name": "Rutare Health Centre",
    "location": "Gicumbi",
    "tel": "No phone number"
  },
  {
    "name": "Cyamuhinda Health Center",
    "location": "Gicumbi",
    "tel": "No phone number"
  },
  {
    "name": "Kayanga Health Center",
    "location": "Gicumbi",
    "tel": "No phone number"
  },
  {
    "name": "Munyinya Health Center",
    "location": "Gicumbi",
    "tel": "No phone number"
  },
  {
    "name": "Muko Health Center",
    "location": "Gicumbi",
    "tel": "No phone number"
  },
  {
    "name": "Twesero Health Center",
    "location": "Gicumbi",
    "tel": "No phone number"
  },
  {
    "name": "Byumba Health Centre",
    "location": "Gicumbi",
    "tel": "No phone number"
  },
  {
    "name": "Rubaya Health Centre",
    "location": "Gicumbi",
    "tel": "No phone number"
  },
  {
    "name": "Nyagahanga Health Centre",
    "location": "Gicumbi",
    "tel": "No phone number"
  },
  {
    "name": "Kinihira Health Centre",
    "location": "Gicumbi",
    "tel": "No phone number"
  },
  {
    "name": "Cyondo Health Centre",
    "location": "Gicumbi",
    "tel": "No phone number"
  },
  {
    "name": "Buyoga Health Center",
    "location": "Gicumbi",
    "tel": "No phone number"
  },
  {
    "name": "Ruhunde Health Centre",
    "location": "Gicumbi",
    "tel": "No phone number"
  },
  {
    "name": "Gisiza Health Centre",
    "location": "Gicumbi",
    "tel": "No phone number"
  },
  {
    "name": "Muhondo Health Centre",
    "location": "Gicumbi",
    "tel": "No phone number"
  },
  {
    "name": "Musenyi Health Centre",
    "location": "Gicumbi",
    "tel": "No phone number"
  },
  {
    "name": "Muyove Health Centre",
    "location": "Gicumbi",
    "tel": "No phone number"
  },
  {
    "name": "Bataba Health Centre",
    "location": "Gicumbi",
    "tel": "No phone number"
  },
  {
    "name": "Muyanza Health Center",
    "location": "Gicumbi",
    "tel": "No phone number"
  },
  {
    "name": "Giti Health Centre",
    "location": "Gicumbi",
    "tel": "No phone number"
  },
  {
    "name": "Rwesero Health Centre",
    "location": "Gicumbi",
    "tel": "No phone number"
  },
  {
    "name": "Masoro Health Centre",
    "location": "Gicumbi",
    "tel": "No phone number"
  },
  {
    "name": "Nyagasambu Health Centre",
    "location": "Gicumbi",
    "tel": "No phone number"
  },
  {
    "name": "Gisagara Health Centre",
    "location": "Gisagara",
    "tel": "No phone number"
  },
  {
    "name": "Gishubi Health Centre",
    "location": "Gisagara",
    "tel": "No phone number"
  },
  {
    "name": "Musha Health Centre",
    "location": "Gisagara",
    "tel": "No phone number"
  },
  {
    "name": "Kirarambogo Health Centre",
    "location": "Gisagara",
    "tel": "No phone number"
  },
  {
    "name": "Gikore Health Centre",
    "location": "Gisagara",
    "tel": "No phone number"
  },
  {
    "name": "Kibirizi Health Centre",
    "location": "Gisagara",
    "tel": "No phone number"
  },
  {
    "name": "Kansi Health Centre",
    "location": "Gisagara",
    "tel": "No phone number"
  },
  {
    "name": "MUKURA HEALTH CENTER",
    "location": "Huye",
    "tel": "0785152912"
  },
  {
    "name": "MUKURA HEALTH CENTER/HUYE",
    "location": "Huye",
    "tel": "0785152912"
  },
  {
    "name": "Rukira Health Centre",
    "location": "Huye",
    "tel": "No phone number"
  },
  {
    "name": "Matyazo Health Centre",
    "location": "Huye",
    "tel": "0788000000"
  },
  {
    "name": "Mbazi Health Center",
    "location": "Huye",
    "tel": "No phone number"
  },
  {
    "name": "Simbi Health Centre",
    "location": "Huye",
    "tel": "No phone number"
  },
  {
    "name": "Kinyamakara Health Centre",
    "location": "Huye",
    "tel": "No phone number"
  },
  {
    "name": "Rango Health Center",
    "location": "Huye",
    "tel": "No phone number"
  },
  {
    "name": "One Stop Center Clinic Police",
    "location": "Huye",
    "tel": "No phone number"
  },
  {
    "name": "Ngera Health Centre",
    "location": "Huye",
    "tel": "No phone number"
  },
  {
    "name": "Health Center",
    "location": "Huye",
    "tel": "No phone number"
  },
  {
    "name": "Kibeho Health Centre",
    "location": "Huye",
    "tel": "No phone number"
  },
  {
    "name": "Salus Clinic",
    "location": "Huye",
    "tel": "No phone number"
  },
  {
    "name": "Kamonyi Health Center",
    "location": "Kamonyi",
    "tel": "No phone number"
  },
  {
    "name": "Kiziba Health Center",
    "location": "Karongi",
    "tel": "No phone number"
  },
  {
    "name": "Kibuye Health Centre",
    "location": "Karongi",
    "tel": "No phone number"
  },
  {
    "name": "Mpembe health centre",
    "location": "Karongi",
    "tel": "No phone number"
  },
  {
    "name": "Kirinda Health Centre",
    "location": "Karongi",
    "tel": "No phone number"
  },
  {
    "name": "Rubengera Health Centre",
    "location": "Karongi",
    "tel": "No phone number"
  },
  {
    "name": "Bigugu Health Center",
    "location": "Karongi",
    "tel": "No phone number"
  },
  {
    "name": "Mubuga Health Centre",
    "location": "Karongi",
    "tel": "No phone number"
  },
  {
    "name": "Birambo Health Centre",
    "location": "Karongi",
    "tel": "No phone number"
  },
  {
    "name": "Bubazi Health Centre",
    "location": "Karongi",
    "tel": "No phone number"
  },
  {
    "name": "Munzanga Health Centre",
    "location": "Karongi",
    "tel": "No phone number"
  },
  {
    "name": "Bisesero Health Centre",
    "location": "Karongi",
    "tel": "No phone number"
  },
  {
    "name": "Mahembe Health Centre",
    "location": "Karongi",
    "tel": "No phone number"
  },
  {
    "name": "Mugano Health Centre",
    "location": "Karongi",
    "tel": "No phone number"
  },
  {
    "name": "Karambo Health Centre",
    "location": "Karongi",
    "tel": "No phone number"
  },
  {
    "name": "Rufungo Health Centre",
    "location": "Karongi",
    "tel": "No phone number"
  },
  {
    "name": "Gatwaro Health Centre",
    "location": "Karongi",
    "tel": "No phone number"
  },
  {
    "name": "Muremure Health Centre",
    "location": "Karongi",
    "tel": "No phone number"
  },
  {
    "name": "Mukungu Health Centre",
    "location": "Karongi",
    "tel": "No phone number"
  },
  {
    "name": "Mwendo Health Centre",
    "location": "Karongi",
    "tel": "No phone number"
  },
  {
    "name": "Biguhu Health Centre",
    "location": "Karongi",
    "tel": "No phone number"
  },
  {
    "name": "Karora Health Centre",
    "location": "Karongi",
    "tel": "No phone number"
  },
  {
    "name": "Mushubati Health Centre",
    "location": "Karongi",
    "tel": "No phone number"
  },
  {
    "name": "Buhoro Health Centre",
    "location": "Karongi",
    "tel": "No phone number"
  },
  {
    "name": "Mukura Health Centre",
    "location": "Karongi",
    "tel": "No phone number"
  },
  {
    "name": "Gishweru Health Centre",
    "location": "Karongi",
    "tel": "No phone number"
  },
  {
    "name": "Kibingo Health Centre",
    "location": "Karongi",
    "tel": "No phone number"
  },
  {
    "name": "Mukarange Health Center",
    "location": "Kayonza",
    "tel": "No phone number"
  },
  {
    "name": "Nyamirama Health Center",
    "location": "Kayonza",
    "tel": "No phone number"
  },
  {
    "name": "Rwamagana Health Centre",
    "location": "Kayonza",
    "tel": "No phone number"
  },
  {
    "name": "Cyarubare Health Center",
    "location": "Kayonza",
    "tel": "No phone number"
  },
  {
    "name": "Nyakabungo Health Center",
    "location": "Kayonza",
    "tel": "No phone number"
  },
  {
    "name": "Gakenyeri Health Center",
    "location": "Kayonza",
    "tel": "No phone number"
  },
  {
    "name": "KABARORE Health center",
    "location": "Kayonza",
    "tel": "No phone number"
  },
  {
    "name": "Gahini Health Centre",
    "location": "Kayonza",
    "tel": "No phone number"
  },
  {
    "name": "Bahubwa Health Centre",
    "location": "Kayonza",
    "tel": "No phone number"
  },
  {
    "name": "Kicukiro Health Centre",
    "location": "Kicukiro",
    "tel": "No phone number"
  },
  {
    "name": "Betesaida Health Centre",
    "location": "Kicukiro",
    "tel": "0787408974"
  },
  {
    "name": "Nyarugenge Health Center",
    "location": "Kicukiro",
    "tel": "No phone number"
  },
  {
    "name": "Centre de Sant\u00e9 de Gatenga",
    "location": "Kicukiro",
    "tel": "No phone number"
  },
  {
    "name": "Murambi Health Center",
    "location": "Kicukiro",
    "tel": "No phone number"
  },
  {
    "name": "Gitega Health Center",
    "location": "Kicukiro",
    "tel": "No phone number"
  },
  {
    "name": "Kigali Dialysis Center - Africa Healthcare Network",
    "location": "Kicukiro",
    "tel": "0782637546"
  },
  {
    "name": "Remera Health Centre",
    "location": "Kicukiro",
    "tel": "No phone number"
  },
  {
    "name": "Ruhuka Health Post",
    "location": "Kicukiro",
    "tel": "No phone number"
  },
  {
    "name": "Gikondo Health Centre",
    "location": "Kicukiro",
    "tel": "No phone number"
  },
  {
    "name": "Girimpuhwe Health Centre",
    "location": "Kicukiro",
    "tel": "0788473523"
  },
  {
    "name": "Kabusunzu Health Center",
    "location": "Kicukiro",
    "tel": "No phone number"
  },
  {
    "name": "Biryogo Health centre",
    "location": "Kicukiro",
    "tel": "No phone number"
  },
  {
    "name": "Rusumo Health Centre",
    "location": "Kirehe",
    "tel": "No phone number"
  },
  {
    "name": "Bukira Health Centre",
    "location": "Kirehe",
    "tel": "No phone number"
  },
  {
    "name": "Nyarubuye Health Centre",
    "location": "Kirehe",
    "tel": "No phone number"
  },
  {
    "name": "Kabuye Health Center",
    "location": "Kirehe",
    "tel": "0788885153"
  },
  {
    "name": "Ntaruka Health Centre",
    "location": "Kirehe",
    "tel": "No phone number"
  },
  {
    "name": "Nyabitare Health Centre",
    "location": "Kirehe",
    "tel": "No phone number"
  },
  {
    "name": "Kabigembe Health Centre",
    "location": "Kirehe",
    "tel": "No phone number"
  },
  {
    "name": "Health Center Bukora",
    "location": "Kirehe",
    "tel": "No phone number"
  },
  {
    "name": "Rukira Health Centre",
    "location": "Kirehe",
    "tel": "No phone number"
  },
  {
    "name": "Kibungo Health Center",
    "location": "Kirehe",
    "tel": "No phone number"
  },
  {
    "name": "Nyabikenke Health Center",
    "location": "Muhanga",
    "tel": "No phone number"
  },
  {
    "name": "Nyabindi Health Center",
    "location": "Muhanga",
    "tel": "No phone number"
  },
  {
    "name": "Mushishiro Health Centre",
    "location": "Muhanga",
    "tel": "No phone number"
  },
  {
    "name": "Kabgayi Health Centre",
    "location": "Muhanga",
    "tel": "No phone number"
  },
  {
    "name": "Gasagara Health Centre",
    "location": "Muhanga",
    "tel": "No phone number"
  },
  {
    "name": "Gasovu Health Centre",
    "location": "Muhanga",
    "tel": "No phone number"
  },
  {
    "name": "Shyogwe Health Centre",
    "location": "Muhanga",
    "tel": "No phone number"
  },
  {
    "name": "Kibyimba Health Centre",
    "location": "Muhanga",
    "tel": "No phone number"
  },
  {
    "name": "Gitega Health Centre",
    "location": "Muhanga",
    "tel": "No phone number"
  },
  {
    "name": "Birehe Health Centre",
    "location": "Muhanga",
    "tel": "No phone number"
  },
  {
    "name": "Nyange Health Centre",
    "location": "Muhanga",
    "tel": "No phone number"
  },
  {
    "name": "Buramba Health Centre",
    "location": "Muhanga",
    "tel": "No phone number"
  },
  {
    "name": "Cyanza Health Centre",
    "location": "Muhanga",
    "tel": "No phone number"
  },
  {
    "name": "Gishweru Health Centre",
    "location": "Muhanga",
    "tel": "No phone number"
  },
  {
    "name": "Health Center De Cyakabiri",
    "location": "Muhanga",
    "tel": "No phone number"
  },
  {
    "name": "Buhoro Health Centre",
    "location": "Muhanga",
    "tel": "No phone number"
  },
  {
    "name": "Kiziguro Health Centre",
    "location": "Muhanga",
    "tel": "No phone number"
  },
  {
    "name": "Kayenzi Health Center",
    "location": "Muhanga",
    "tel": "No phone number"
  },
  {
    "name": "Nyagahimba Health Center",
    "location": "Muhanga",
    "tel": "No phone number"
  },
  {
    "name": "Gitarama Health Centre",
    "location": "Muhanga",
    "tel": "No phone number"
  },
  {
    "name": "Ruli Health Center",
    "location": "Muhanga",
    "tel": "No phone number"
  },
  {
    "name": "Mbuye Health Centre",
    "location": "Muhanga",
    "tel": "No phone number"
  },
  {
    "name": "Kimonyi Health Center",
    "location": "Musanze",
    "tel": "No phone number"
  },
  {
    "name": "Rwaza Health Center",
    "location": "Musanze",
    "tel": "No phone number"
  },
  {
    "name": "Busogo Health Center",
    "location": "Musanze",
    "tel": "No phone number"
  },
  {
    "name": "Nyarubuye Health Center",
    "location": "Musanze",
    "tel": "No phone number"
  },
  {
    "name": "Gasiza Health Center",
    "location": "Musanze",
    "tel": "No phone number"
  },
  {
    "name": "Kabere Health Center",
    "location": "Musanze",
    "tel": "No phone number"
  },
  {
    "name": "Shingiro Health Center",
    "location": "Musanze",
    "tel": "No phone number"
  },
  {
    "name": "Murandi Health Centre",
    "location": "Musanze",
    "tel": "No phone number"
  },
  {
    "name": "Karwasa Health Center",
    "location": "Musanze",
    "tel": "No phone number"
  },
  {
    "name": "Karwasa Health Centre",
    "location": "Musanze",
    "tel": "No phone number"
  },
  {
    "name": "Musanze District HIV Stop Center",
    "location": "Musanze",
    "tel": "No phone number"
  },
  {
    "name": "Rukumberi Health Center",
    "location": "Ngoma",
    "tel": "No phone number"
  },
  {
    "name": "Remera Health Center",
    "location": "Ngoma",
    "tel": "No phone number"
  },
  {
    "name": "Gituku Health Centre",
    "location": "Ngoma",
    "tel": "No phone number"
  },
  {
    "name": "Kibungo Health Center",
    "location": "Ngoma",
    "tel": "No phone number"
  },
  {
    "name": "Health Center De Jarama",
    "location": "Ngoma",
    "tel": "No phone number"
  },
  {
    "name": "Sangaza Health Centre",
    "location": "Ngoma",
    "tel": "No phone number"
  },
  {
    "name": "APEESPE",
    "location": "Ngoma",
    "tel": "No phone number"
  },
  {
    "name": "Rukoma Health Center",
    "location": "Ngoma",
    "tel": "No phone number"
  },
  {
    "name": "Nyange Health Centre",
    "location": "Ngoma",
    "tel": "No phone number"
  },
  {
    "name": "Mutenderi Health Centre",
    "location": "Ngoma",
    "tel": "No phone number"
  },
  {
    "name": "Rukira Health Centre",
    "location": "Ngoma",
    "tel": "No phone number"
  },
  {
    "name": "Mazane Health Center",
    "location": "Ngoma",
    "tel": "No phone number"
  },
  {
    "name": "Gashora Health Center",
    "location": "Ngoma",
    "tel": "No phone number"
  },
  {
    "name": "Jarama Health Centre",
    "location": "Ngoma",
    "tel": "No phone number"
  },
  {
    "name": "Kirwa Health Centre",
    "location": "Ngoma",
    "tel": "No phone number"
  },
  {
    "name": "Munyaga Health Center",
    "location": "Ngoma",
    "tel": "No phone number"
  },
  {
    "name": "Kageyo Health Center",
    "location": "Ngororero",
    "tel": "No phone number"
  },
  {
    "name": "Nyange I Health Centre",
    "location": "Ngororero",
    "tel": "No phone number"
  },
  {
    "name": "Ntaganzwa Health Centre",
    "location": "Ngororero",
    "tel": "No phone number"
  },
  {
    "name": "Rususa Health Center",
    "location": "Ngororero",
    "tel": "No phone number"
  },
  {
    "name": "Gatumba Health Centre",
    "location": "Ngororero",
    "tel": "No phone number"
  },
  {
    "name": "Kiziguro Health Centre",
    "location": "Ngororero",
    "tel": "No phone number"
  },
  {
    "name": "Gakamba Health Center",
    "location": "Ngororero",
    "tel": "No phone number"
  },
  {
    "name": "Rubaya Health Centre",
    "location": "Ngororero",
    "tel": "No phone number"
  },
  {
    "name": "Muramba Health Centre",
    "location": "Ngororero",
    "tel": "No phone number"
  },
  {
    "name": "Iwacu Health Centre",
    "location": "Ngororero",
    "tel": "No phone number"
  },
  {
    "name": "Birembo Health Center",
    "location": "Nyabihu",
    "tel": "No phone number"
  },
  {
    "name": "Nyakiriba Health Center",
    "location": "Nyabihu",
    "tel": "0782095560"
  },
  {
    "name": "Rambura Health Center",
    "location": "Nyabihu",
    "tel": "No phone number"
  },
  {
    "name": "Nyakinama Health Center",
    "location": "Nyabihu",
    "tel": "No phone number"
  },
  {
    "name": "Mwiyanike Health Center",
    "location": "Nyabihu",
    "tel": "No phone number"
  },
  {
    "name": "Gakamba Health Center",
    "location": "Nyabihu",
    "tel": "No phone number"
  },
  {
    "name": "Kabatwa Health Center",
    "location": "Nyabihu",
    "tel": "No phone number"
  },
  {
    "name": "Rurembo Health Centre",
    "location": "Nyabihu",
    "tel": "No phone number"
  },
  {
    "name": "Jomba Health Center",
    "location": "Nyabihu",
    "tel": "No phone number"
  },
  {
    "name": "Rwankeri Health Centre",
    "location": "Nyabihu",
    "tel": "No phone number"
  },
  {
    "name": "Kora Health Center",
    "location": "Nyabihu",
    "tel": "No phone number"
  },
  {
    "name": "Rubaya Health Centre",
    "location": "Nyabihu",
    "tel": "No phone number"
  },
  {
    "name": "Byakiriba Health Centre",
    "location": "Nyabihu",
    "tel": "No phone number"
  },
  {
    "name": "Arusha Health Center",
    "location": "Nyabihu",
    "tel": "No phone number"
  },
  {
    "name": "Bugeshi Health Center",
    "location": "Nyabihu",
    "tel": "No phone number"
  },
  {
    "name": "Busogo Health Center",
    "location": "Nyabihu",
    "tel": "No phone number"
  },
  {
    "name": "Kareba Health Centre",
    "location": "Nyabihu",
    "tel": "No phone number"
  },
  {
    "name": "Nyakigezi Health Centre",
    "location": "Nyabihu",
    "tel": "No phone number"
  },
  {
    "name": "Kabere Health Center",
    "location": "Nyabihu",
    "tel": "No phone number"
  },
  {
    "name": "Gatonde Health Center",
    "location": "Nyabihu",
    "tel": "No phone number"
  },
  {
    "name": "Mudende Health Centre",
    "location": "Nyabihu",
    "tel": "No phone number"
  },
  {
    "name": "Gataraga Health Center",
    "location": "Nyabihu",
    "tel": "No phone number"
  },
  {
    "name": "Jomba Health Centre",
    "location": "Nyabihu",
    "tel": "No phone number"
  },
  {
    "name": "Nyagatare Health Center",
    "location": "Nyagatare",
    "tel": "No phone number"
  },
  {
    "name": "Cyabayaga Health Centre",
    "location": "Nyagatare",
    "tel": "No phone number"
  },
  {
    "name": "Nyakigando Health Centre",
    "location": "Nyagatare",
    "tel": "No phone number"
  },
  {
    "name": "Nyendo Health Centre",
    "location": "Nyagatare",
    "tel": "No phone number"
  },
  {
    "name": "Karambi Health Center",
    "location": "Nyagatare",
    "tel": "No phone number"
  },
  {
    "name": "Kagitumba Health Center",
    "location": "Nyagatare",
    "tel": "No phone number"
  },
  {
    "name": "Kabuga Health Centre",
    "location": "Nyagatare",
    "tel": "No phone number"
  },
  {
    "name": "Kanyundo Health Center",
    "location": "Nyagatare",
    "tel": "No phone number"
  },
  {
    "name": "Muhambo Health Centre",
    "location": "Nyagatare",
    "tel": "No phone number"
  },
  {
    "name": "Ndama Health Center",
    "location": "Nyagatare",
    "tel": "No phone number"
  },
  {
    "name": "Nyagihita Health Centre",
    "location": "Nyagatare",
    "tel": "No phone number"
  },
  {
    "name": "Rwenjara Health Center",
    "location": "Nyagatare",
    "tel": "No phone number"
  },
  {
    "name": "Katabagemu Health Centre",
    "location": "Nyagatare",
    "tel": "No phone number"
  },
  {
    "name": "Nyamagabe Health Centre",
    "location": "Nyamagabe",
    "tel": "No phone number"
  },
  {
    "name": "Kigeme Health Centre",
    "location": "Nyamagabe",
    "tel": "No phone number"
  },
  {
    "name": "Kirambi Health Centre",
    "location": "Nyamagabe",
    "tel": "No phone number"
  },
  {
    "name": "Cyanika Health Centre",
    "location": "Nyamagabe",
    "tel": "No phone number"
  },
  {
    "name": "Nyarusiza Health Centre",
    "location": "Nyamagabe",
    "tel": "No phone number"
  },
  {
    "name": "Mugano Health Centre",
    "location": "Nyamagabe",
    "tel": "No phone number"
  },
  {
    "name": "Cyahafi Health Centre",
    "location": "Nyamagabe",
    "tel": "No phone number"
  },
  {
    "name": "Bamba Health Centre",
    "location": "Nyamagabe",
    "tel": "No phone number"
  },
  {
    "name": "Gatare Health Centre",
    "location": "Nyamagabe",
    "tel": "No phone number"
  },
  {
    "name": "Jenda Health Centre",
    "location": "Nyamagabe",
    "tel": "No phone number"
  },
  {
    "name": "Mbuga Health Centre",
    "location": "Nyamagabe",
    "tel": "No phone number"
  },
  {
    "name": "Mushubi Health Centre",
    "location": "Nyamagabe",
    "tel": "No phone number"
  },
  {
    "name": "Rugege Health Centre",
    "location": "Nyamagabe",
    "tel": "No phone number"
  },
  {
    "name": "Uwinkinji Health Centre",
    "location": "Nyamagabe",
    "tel": "No phone number"
  },
  {
    "name": "Kinyamakara Health Centre",
    "location": "Nyamagabe",
    "tel": "No phone number"
  },
  {
    "name": "Nyarwungo Health Centre",
    "location": "Nyamagabe",
    "tel": "No phone number"
  },
  {
    "name": "Health Center De Musebeya",
    "location": "Nyamagabe",
    "tel": "No phone number"
  },
  {
    "name": "Ngara Health Centre",
    "location": "Nyamagabe",
    "tel": "No phone number"
  },
  {
    "name": "Nyamagabe Health Center",
    "location": "Nyamagabe",
    "tel": "No phone number"
  },
  {
    "name": "Kirinda Health Centre",
    "location": "Nyamagabe",
    "tel": "No phone number"
  },
  {
    "name": "Nyamasheke Health Centre",
    "location": "Nyamasheke",
    "tel": "No phone number"
  },
  {
    "name": "Nyanza health center",
    "location": "Nyanza",
    "tel": "No phone number"
  },
  {
    "name": "Gishike Health Centre",
    "location": "Nyanza",
    "tel": "No phone number"
  },
  {
    "name": "Nyamure Health Centre",
    "location": "Nyanza",
    "tel": "No phone number"
  },
  {
    "name": "Gashikiri Health Centre",
    "location": "Nyanza",
    "tel": "No phone number"
  },
  {
    "name": "Mucubira Health Centre",
    "location": "Nyanza",
    "tel": "No phone number"
  },
  {
    "name": "Gitwe Health Centre",
    "location": "Nyanza",
    "tel": "No phone number"
  },
  {
    "name": "Nyarurama Health Centre",
    "location": "Nyanza",
    "tel": "No phone number"
  },
  {
    "name": "Muyunzwe Health Centre",
    "location": "Nyanza",
    "tel": "No phone number"
  },
  {
    "name": "Busoro Health Centre",
    "location": "Nyanza",
    "tel": "No phone number"
  },
  {
    "name": "Mweya Health Centre",
    "location": "Nyanza",
    "tel": "No phone number"
  },
  {
    "name": "Kizibere Health Centre",
    "location": "Nyanza",
    "tel": "No phone number"
  },
  {
    "name": "Kinazi Health Centre",
    "location": "Nyanza",
    "tel": "No phone number"
  },
  {
    "name": "Gishweru Health Centre",
    "location": "Nyanza",
    "tel": "No phone number"
  },
  {
    "name": "Mukoma Health Centre",
    "location": "Nyanza",
    "tel": "No phone number"
  },
  {
    "name": "Cyeru Health Centre",
    "location": "Nyanza",
    "tel": "No phone number"
  },
  {
    "name": "Muremure Health Centre",
    "location": "Nyanza",
    "tel": "No phone number"
  },
  {
    "name": "Ruhuka Health Post",
    "location": "Nyanza",
    "tel": "No phone number"
  },
  {
    "name": "Nyarugenge Health Center",
    "location": "Nyarugenge",
    "tel": "No phone number"
  },
  {
    "name": "Gitega Health Center",
    "location": "Nyarugenge",
    "tel": "No phone number"
  },
  {
    "name": "Biryogo Health centre",
    "location": "Nyarugenge",
    "tel": "No phone number"
  },
  {
    "name": "Baho Medical Center",
    "location": "Nyarugenge",
    "tel": "0788564753"
  },
  {
    "name": "Kabusunzu Health Center",
    "location": "Nyarugenge",
    "tel": "No phone number"
  },
  {
    "name": "Polyclinique du Plateau",
    "location": "Nyarugenge",
    "tel": "0781293417"
  },
  {
    "name": "Kibeho Health Centre",
    "location": "Nyaruguru",
    "tel": "No phone number"
  },
  {
    "name": "Runyombyi Health Centre",
    "location": "Nyaruguru",
    "tel": "No phone number"
  },
  {
    "name": "Nyantanga Health Centre",
    "location": "Nyaruguru",
    "tel": "No phone number"
  },
  {
    "name": "Cyahinda Health Centre",
    "location": "Nyaruguru",
    "tel": "No phone number"
  },
  {
    "name": "Kabilizi Health Centre",
    "location": "Nyaruguru",
    "tel": "No phone number"
  },
  {
    "name": "Busoro-Gishamvu Health Centre",
    "location": "Nyaruguru",
    "tel": "No phone number"
  },
  {
    "name": "Kigembe Health Centre",
    "location": "Nyaruguru",
    "tel": "No phone number"
  },
  {
    "name": "Kivu Health Centre",
    "location": "Nyaruguru",
    "tel": "No phone number"
  },
  {
    "name": "Gakaranka Health Centre",
    "location": "Nyaruguru",
    "tel": "No phone number"
  },
  {
    "name": "Nyamyumba Health Centre",
    "location": "Nyaruguru",
    "tel": "No phone number"
  },
  {
    "name": "Maraba Health Centre",
    "location": "Nyaruguru",
    "tel": "No phone number"
  },
  {
    "name": "Ngoma Health Centre",
    "location": "Nyaruguru",
    "tel": "No phone number"
  },
  {
    "name": "Coko Health Centre",
    "location": "Nyaruguru",
    "tel": "No phone number"
  },
  {
    "name": "Muganza Health Centre",
    "location": "Nyaruguru",
    "tel": "No phone number"
  },
  {
    "name": "Rubamba Health Centre",
    "location": "Nyaruguru",
    "tel": "No phone number"
  },
  {
    "name": "Ngera Health Centre",
    "location": "Nyaruguru",
    "tel": "No phone number"
  },
  {
    "name": "Kansi Health Centre",
    "location": "Nyaruguru",
    "tel": "No phone number"
  },
  {
    "name": "Kabatwa Health Center",
    "location": "Rubavu",
    "tel": "No phone number"
  },
  {
    "name": "Kabari Health Center",
    "location": "Rubavu",
    "tel": "No phone number"
  },
  {
    "name": "Byahi Health Center",
    "location": "Rubavu",
    "tel": "No phone number"
  },
  {
    "name": "Ruhango Health Centre",
    "location": "Ruhango",
    "tel": "No phone number"
  },
  {
    "name": "Kamonyi Health Center",
    "location": "Ruhango",
    "tel": "No phone number"
  },
  {
    "name": "Rutonde Health Center",
    "location": "Rulindo",
    "tel": "No phone number"
  },
  {
    "name": "Buyoga Health Center",
    "location": "Rulindo",
    "tel": "No phone number"
  },
  {
    "name": "Muyanza Health Center",
    "location": "Rulindo",
    "tel": "No phone number"
  },
  {
    "name": "Shyorongi Health Center",
    "location": "Rulindo",
    "tel": "No phone number"
  },
  {
    "name": "Kanyinya Health Centre",
    "location": "Rulindo",
    "tel": "No phone number"
  },
  {
    "name": "Masoro Health Centre",
    "location": "Rulindo",
    "tel": "No phone number"
  },
  {
    "name": "Muhondo Health Center",
    "location": "Rulindo",
    "tel": "No phone number"
  },
  {
    "name": "Kabuga Health Center",
    "location": "Rulindo",
    "tel": "No phone number"
  },
  {
    "name": "UBUVUZI GAKONDO",
    "location": "Rulindo",
    "tel": "0782506955"
  },
  {
    "name": "Health Center",
    "location": "Rulindo",
    "tel": "No phone number"
  },
  {
    "name": "Byumba Health Centre",
    "location": "Rulindo",
    "tel": "No phone number"
  },
  {
    "name": "Rwahi Health Centre",
    "location": "Rulindo",
    "tel": "No phone number"
  },
  {
    "name": "Kiyanza Health Centre",
    "location": "Rulindo",
    "tel": "No phone number"
  },
  {
    "name": "Centre de Sant\u00e9 de Remera",
    "location": "Rulindo",
    "tel": "0785119102"
  },
  {
    "name": "Karangara Health Center",
    "location": "Rulindo",
    "tel": "No phone number"
  },
  {
    "name": "Kinihira Health Centre",
    "location": "Rulindo",
    "tel": "No phone number"
  },
  {
    "name": "Kajevuba Health Centre",
    "location": "Rulindo",
    "tel": "No phone number"
  },
  {
    "name": "Jali Health Centre",
    "location": "Rulindo",
    "tel": "No phone number"
  },
  {
    "name": "Muyove Health Centre",
    "location": "Rulindo",
    "tel": "No phone number"
  },
  {
    "name": "Murambi Health Centre",
    "location": "Rulindo",
    "tel": "No phone number"
  },
  {
    "name": "Tumba Health Centre",
    "location": "Rulindo",
    "tel": "No phone number"
  },
  {
    "name": "Base Health Centre",
    "location": "Rulindo",
    "tel": "No phone number"
  },
  {
    "name": "Nyacyonga Health Centre",
    "location": "Rulindo",
    "tel": "No phone number"
  },
  {
    "name": "Gihara Health Center",
    "location": "Rulindo",
    "tel": "No phone number"
  },
  {
    "name": "Rusizi Health Centre",
    "location": "Rusizi",
    "tel": "No phone number"
  },
  {
    "name": "Nkanka Health Center",
    "location": "Rusizi",
    "tel": "No phone number"
  },
  {
    "name": "Nyabitimbo Health Centre",
    "location": "Rusizi",
    "tel": "No phone number"
  },
  {
    "name": "Bweyeye Health Centre",
    "location": "Rusizi",
    "tel": "No phone number"
  },
  {
    "name": "Nkungu Health Centre",
    "location": "Rusizi",
    "tel": "No phone number"
  },
  {
    "name": "Gihundwe Health Centre",
    "location": "Rusizi",
    "tel": "No phone number"
  },
  {
    "name": "Mashesha Health Centre",
    "location": "Rusizi",
    "tel": "No phone number"
  },
  {
    "name": "Nkombo Health Centre",
    "location": "Rusizi",
    "tel": "No phone number"
  },
  {
    "name": "Nyakarenzo Health Centre",
    "location": "Rusizi",
    "tel": "No phone number"
  },
  {
    "name": "Bugarama Health Centre",
    "location": "Rusizi",
    "tel": "No phone number"
  },
  {
    "name": "Rasano Health Centre",
    "location": "Rusizi",
    "tel": "No phone number"
  },
  {
    "name": "Gasumo Health Centre",
    "location": "Rusizi",
    "tel": "No phone number"
  },
  {
    "name": "Kamatita Health Centre",
    "location": "Rusizi",
    "tel": "No phone number"
  },
  {
    "name": "Mubirizi Health Centre",
    "location": "Rusizi",
    "tel": "No phone number"
  },
  {
    "name": "Tara Health Centre",
    "location": "Rusizi",
    "tel": "No phone number"
  },
  {
    "name": "Gahungeri Health Centre",
    "location": "Rusizi",
    "tel": "No phone number"
  },
  {
    "name": "Mwenzi Health Centre",
    "location": "Rusizi",
    "tel": "No phone number"
  },
  {
    "name": "Mushaka Health Center",
    "location": "Rusizi",
    "tel": "0783188102"
  },
  {
    "name": "Health Center De Kalagane",
    "location": "Rusizi",
    "tel": "No phone number"
  },
  {
    "name": "Gisakura Health Centre",
    "location": "Rusizi",
    "tel": "No phone number"
  },
  {
    "name": "Cimerwa Health Centre",
    "location": "Rusizi",
    "tel": "No phone number"
  },
  {
    "name": "Congo Nil Health Centre",
    "location": "Rutsiro",
    "tel": "No phone number"
  },
  {
    "name": "Mushubati Health Centre",
    "location": "Rutsiro",
    "tel": "No phone number"
  },
  {
    "name": "Rubengera Health Centre",
    "location": "Rutsiro",
    "tel": "No phone number"
  },
  {
    "name": "Kibingo Health Centre",
    "location": "Rutsiro",
    "tel": "No phone number"
  },
  {
    "name": "Musasa Health Centre",
    "location": "Rutsiro",
    "tel": "No phone number"
  },
  {
    "name": "Rutsiro Health Centre",
    "location": "Rutsiro",
    "tel": "No phone number"
  },
  {
    "name": "Kinunu Health Centre",
    "location": "Rutsiro",
    "tel": "No phone number"
  },
  {
    "name": "Biruyi Health Center",
    "location": "Rutsiro",
    "tel": "No phone number"
  },
  {
    "name": "Bitenga Health Centre",
    "location": "Rutsiro",
    "tel": "No phone number"
  },
  {
    "name": "Mukura Health Centre",
    "location": "Rutsiro",
    "tel": "No phone number"
  },
  {
    "name": "Kabona Health Centre",
    "location": "Rutsiro",
    "tel": "No phone number"
  },
  {
    "name": "Karumbi Health Centre",
    "location": "Rutsiro",
    "tel": "No phone number"
  },
  {
    "name": "Cyimbili Health Centre",
    "location": "Rutsiro",
    "tel": "No phone number"
  },
  {
    "name": "Nyabirasi Health Center",
    "location": "Rutsiro",
    "tel": "No phone number"
  },
  {
    "name": "Kigeyo Health Centre",
    "location": "Rutsiro",
    "tel": "No phone number"
  },
  {
    "name": "Rufungo Health Centre",
    "location": "Rutsiro",
    "tel": "No phone number"
  },
  {
    "name": "Gashumbi Health Centre",
    "location": "Rutsiro",
    "tel": "No phone number"
  },
  {
    "name": "Kibuye Health Centre",
    "location": "Rutsiro",
    "tel": "No phone number"
  },
  {
    "name": "Rwamagana Health Centre",
    "location": "Rwamagana",
    "tel": "No phone number"
  },
  {
    "name": "Nzige Health Centre",
    "location": "Rwamagana",
    "tel": "No phone number"
  },
  {
    "name": "Rubona Health Centre",
    "location": "Rwamagana",
    "tel": "No phone number"
  },
  {
    "name": "Nyagasambu Health Centre",
    "location": "Rwamagana",
    "tel": "No phone number"
  },
  {
    "name": "Musha Health Centre",
    "location": "Rwamagana",
    "tel": "No phone number"
  },
  {
    "name": "Gahengeri Health Centre",
    "location": "Rwamagana",
    "tel": "No phone number"
  }
]
