[{"name": "Kabutare Hospital", "location": "Huye", "tel": "No phone number"}, {"name": "Kigeme Hospital", "location": "No address", "tel": "No phone number"}, {"name": "Kibogora Hospital", "location": "No address", "tel": "0788256602"}, {"name": "University Teaching Hospital of Butare (CHUB)", "location": "Huye", "tel": "0788300952"}, {"name": "King Faisal Hospital", "location": "Kigali", "tel": "0788384877"}, {"name": "Gakoma Hospital", "location": "Gisagara", "tel": "No phone number"}, {"name": "Mugonero Hospital", "location": "No address", "tel": "No phone number"}, {"name": "Shyira Hospital", "location": "No address", "tel": "0788561751"}, {"name": "Kaduha Hospital", "location": "No address", "tel": "No phone number"}, {"name": "University Teaching Hospital of Kigali", "location": "Kigali", "tel": "No phone number"}, {"name": "Kabgayi Hospital", "location": "No address", "tel": "No phone number"}, {"name": "Kigeme Hospital", "location": "No address", "tel": "No phone number"}, {"name": "Heritage Medical Park", "location": "Kigali", "tel": "0788344613"}, {"name": "Muhima Hospital", "location": "Kigali", "tel": "0728283887"}, {"name": "Ruli District Hospital", "location": "No address", "tel": "No phone number"}, {"name": "University Central Hospital of Butare", "location": "Huye", "tel": "No phone number"}, {"name": "Gitwe Hospital", "location": "No address", "tel": "No phone number"}, {"name": "Kiziguro Hospital", "location": "No address", "tel": "No phone number"}, {"name": "Rwanda Military Hospital", "location": "Kigali", "tel": "No phone number"}, {"name": "Kibagabaga Hospital", "location": "Kigali", "tel": "0788732945"}, {"name": "Bushenge Hospital", "location": "No address", "tel": "No phone number"}, {"name": "Murunda Hospital", "location": "Rutsiro", "tel": "No phone number"}, {"name": "Nyamata Hospital", "location": "No address", "tel": "No phone number"}, {"name": "Musanze Hospital", "location": "No address", "tel": "No phone number"}, {"name": "Kirehe Hospital", "location": "No address", "tel": "No phone number"}, {"name": "Remera-Rukoma Hospital", "location": "No address", "tel": "No phone number"}, {"name": "Rutongo Hospital", "location": "No address", "tel": "No phone number"}, {"name": "Masaka Hospital", "location": "No address", "tel": "0728878194"}, {"name": "Coko Health Centre", "location": "No address", "tel": "No phone number"}, {"name": "Baho International Hospital", "location": "Kigali", "tel": "0782343710"}, {"name": "Hvp Gatagara", "location": "No address", "tel": "No phone number"}, {"name": "Kabgayi District Hospital", "location": "No address", "tel": "No phone number"}, {"name": "Rwinkwavu Hospital", "location": "Kayonza", "tel": "0785287160"}, {"name": "Munini Hospital", "location": "No address", "tel": "No phone number"}, {"name": "Kabutare", "location": "Huye", "tel": "No phone number"}, {"name": "La Croix du Sud Hospital", "location": "Kigali", "tel": "0785246882"}, {"name": "Gisenyi Hospital", "location": "No address", "tel": "No phone number"}, {"name": "Rwamagana Hospital", "location": "Rwamagana", "tel": "No phone number"}, {"name": "Burera District Hospital", "location": "No address", "tel": "No phone number"}, {"name": "Ngarama Hospital", "location": "No address", "tel": "No phone number"}, {"name": "Nemba Hospital", "location": "No address", "tel": "No phone number"}, {"name": "Muhororo Hospital", "location": "No address", "tel": "No phone number"}, {"name": "Yashoda Hospitals Medical Information Centre", "location": "Kigali", "tel": "No phone number"}, {"name": "Kirinda District Hospital", "location": "No address", "tel": "0788394927"}, {"name": "Rwanda Military Hospital", "location": "Kigali", "tel": "No phone number"}, {"name": "Rukoma Health Centre", "location": "No address", "tel": "No phone number"}, {"name": "Kabaya Hospital", "location": "No address", "tel": "No phone number"}, {"name": "Legacy Clinics", "location": "Kigali", "tel": "0788382000"}, {"name": "Gatwaro Health Centre", "location": "No address", "tel": "No phone number"}, {"name": "Polyclinique La Medicale (Dr Kanimba Hospital)", "location": "Kigali", "tel": "0788305661"}, {"name": "Kacyiru Hospital", "location": "Kigali", "tel": "0785061906"}, {"name": "Mibirizi Hospital", "location": "No address", "tel": "No phone number"}, {"name": "Gihundwe District Hospital", "location": "No address", "tel": "No phone number"}, {"name": "Ruhango Health Post", "location": "No address", "tel": "No phone number"}, {"name": "Rukira Health Centre", "location": "Huye", "tel": "No phone number"}, {"name": "Karongi Hospital", "location": "No address", "tel": "No phone number"}, {"name": "Musanze Hospital", "location": "No address", "tel": "0788294727"}, {"name": "Baho International Hospital", "location": "Kigali", "tel": "0782343710"}, {"name": "Gisagara Health Centre", "location": "No address", "tel": "No phone number"}, {"name": "Polyclinique Saint Jean", "location": "Kigali", "tel": "0786635315"}, {"name": "Ivuriro Polyfam", "location": "Kigali", "tel": "No phone number"}, {"name": "HOSPITAL -UBUZIMA POLYCLINIC", "location": "Kigali", "tel": "No phone number"}, {"name": "Deva Medical Center", "location": "No address", "tel": "0788333111"}, {"name": "Nyabisindu Health Post", "location": "No address", "tel": "No phone number"}, {"name": "Omega Hospital", "location": "Kigali", "tel": "No phone number"}, {"name": "Mutara Health Centre", "location": "No address", "tel": "No phone number"}, {"name": "Inkuru Nziza Orthopedic Hospital", "location": "Kigali", "tel": "0788528238"}, {"name": "Muslims New Hospital", "location": "No address", "tel": "No phone number"}, {"name": "Gikondo Health Centre", "location": "Kigali", "tel": "No phone number"}, {"name": "Icyizere Psychotherapeutic Center", "location": "Kigali", "tel": "0783375550"}, {"name": "Bugesera District Hospital\"ADEPR Hospital\"", "location": "No address", "tel": "No phone number"}, {"name": "Muyunzwe Health Centre", "location": "No address", "tel": "No phone number"}, {"name": "Baho Medical Center", "location": "Kigali", "tel": "No phone number"}, {"name": "TTP hospital", "location": "Kigali", "tel": "0786317897"}, {"name": "Centre de Sante Kimirono", "location": "No address", "tel": "No phone number"}, {"name": "Avega Kigali", "location": "No address", "tel": "No phone number"}, {"name": "Ejo Heza Clinic", "location": "Kigali", "tel": "0785845994"}, {"name": "Kigali Ivf And Fertility Clinic", "location": "No address", "tel": "No phone number"}, {"name": "NEW VISION Veterinary Hospital Outpost", "location": "Kigali", "tel": "0780836952"}, {"name": "BETSAIDA Clinic", "location": "No address", "tel": "No phone number"}, {"name": "Polyclinique du Carrefour", "location": "Kigali", "tel": "No phone number"}, {"name": "Advanced Dental Centre Remera", "location": "Kigali", "tel": "0783013034"}, {"name": "Centre Medical Orkide", "location": "No address", "tel": "No phone number"}, {"name": "BEATRICE POLYCLINIC", "location": "No address", "tel": "No phone number"}, {"name": "Ruramira Health Center", "location": "No address", "tel": "No phone number"}, {"name": "Karwasa Health Centre", "location": "No address", "tel": "No phone number"}, {"name": "PRIMO Clinic", "location": "Kigali", "tel": "No phone number"}, {"name": "Soeurs Des Anges", "location": "No address", "tel": "No phone number"}, {"name": "Skyborne Hospital", "location": "No address", "tel": "No phone number"}, {"name": "Pro Omnibus Polyclinic", "location": "No address", "tel": "0783739549"}, {"name": "Nyampeta Ladislas", "location": "No address", "tel": "No phone number"}, {"name": "Minas Medical Center", "location": "No address", "tel": "No phone number"}, {"name": "Pharmacie Du District De Rubavu", "location": "No address", "tel": "No phone number"}, {"name": "Sainte Cecile Health Post", "location": "No address", "tel": "No phone number"}, {"name": "Congo Nil Health Centre", "location": "Rutsiro", "tel": "No phone number"}, {"name": "Nyamirama Health Center", "location": "No address", "tel": "No phone number"}, {"name": "Panzi Hospital", "location": "No address", "tel": "No phone number"}, {"name": "Dr. Agarwal's Eye Hospital, Kigali", "location": "Kigali", "tel": "0787303743"}, {"name": "New Hope Hospital Bukavu", "location": "No address", "tel": "No phone number"}, {"name": "Hospital General Reference Of Goma \"Charit\u00e9 Maternelle\"", "location": "No address", "tel": "No phone number"}, {"name": "HOPITAL LA CROIX DU SUD KWA NYIRINKWAYA", "location": "Kigali", "tel": "0785246882"}, {"name": "Dr. Agarwals Eye Hospital, Rusizi, Rwanda", "location": "No address", "tel": "No phone number"}, {"name": "Hospital Provincial General Reference De Bukavu", "location": "No address", "tel": "No phone number"}, {"name": "Caraes Neuropsychiatric Hospital Ndera", "location": "Kigali", "tel": "0788827364"}]