[
  {
    "name": "Mijo Hostel",
    "location": "No address",
    "tel": "No phone number"
  },
  {
    "name": "Colours Club Spa",
    "location": "No address",
    "tel": "0788521369"
  },
  {
    "name": "Kigali Marriott Hotel",
    "location": "No address",
    "tel": "No phone number"
  },
  {
    "name": "Peponi Living Spaces",
    "location": "No address",
    "tel": "No phone number"
  },
  {
    "name": "Serenity Park",
    "location": "No address",
    "tel": "No phone number"
  },
  {
    "name": "Red Rocks Rwanda",
    "location": "No address",
    "tel": "No phone number"
  },
  {
    "name": "H\u00f4tel des Mille Collines",
    "location": "No address",
    "tel": "No phone number"
  },
  {
    "name": "The Kingfish Beach Hotel",
    "location": "No address",
    "tel": "No phone number"
  },
  {
    "name": "Rouge by Desir",
    "location": "No address",
    "tel": "No phone number"
  },
  {
    "name": "Wailers Guest House",
    "location": "No address",
    "tel": "No phone number"
  },
  {
    "name": "Ruhondo Beach Resort",
    "location": "No address",
    "tel": "No phone number"
  },
  {
    "name": "Nyungwe Forest Lodge",
    "location": "No address",
    "tel": "No phone number"
  },
  {
    "name": "Rainbow Hotel",
    "location": "No address",
    "tel": "No phone number"
  },
  {
    "name": "Gisa Stay 101",
    "location": "No address",
    "tel": "No phone number"
  },
  {
    "name": "Onomo Hotel",
    "location": "No address",
    "tel": "No phone number"
  },
  {
    "name": "Gisa Stay 103",
    "location": "No address",
    "tel": "No phone number"
  },
  {
    "name": "Radisson Blu Hotel & Convention Centre, Kigali",
    "location": "No address",
    "tel": "No phone number"
  },
  {
    "name": "The Manor Hotel",
    "location": "No address",
    "tel": "No phone number"
  },
  {
    "name": "Ishema Kigali Home",
    "location": "No address",
    "tel": "No phone number"
  },
  {
    "name": "Keva Guest House",
    "location": "No address",
    "tel": "No phone number"
  },
  {
    "name": "Isimbi Murugo",
    "location": "No address",
    "tel": "0783904586"
  },
  {
    "name": "One&Only Nyungwe House",
    "location": "No address",
    "tel": "No phone number"
  },
  {
    "name": "Feel At Home",
    "location": "No address",
    "tel": "No phone number"
  },
  {
    "name": "GreenPage Garden Suites",
    "location": "No address",
    "tel": "No phone number"
  },
  {
    "name": "Five To Five Hotel",
    "location": "No address",
    "tel": "No phone number"
  },
  {
    "name": "Heaven Boutique Hotel Villa",
    "location": "No address",
    "tel": "No phone number"
  },
  {
    "name": "Discover Rwanda Youth Hostel",
    "location": "No address",
    "tel": "No phone number"
  },
  {
    "name": "HILL CREST HOTEL",
    "location": "No address",
    "tel": "No phone number"
  },
  {
    "name": "Park Inn by Radisson Kigali",
    "location": "No address",
    "tel": "No phone number"
  },
  {
    "name": "Yambi Hotel",
    "location": "No address",
    "tel": "No phone number"
  },
  {
    "name": "GISA STAY 104",
    "location": "No address",
    "tel": "No phone number"
  },
  {
    "name": "Murugo Rwanda Hostel",
    "location": "No address",
    "tel": "No phone number"
  },
  {
    "name": "Kereth Living Space",
    "location": "No address",
    "tel": "No phone number"
  },
  {
    "name": "Centre d'Acceuil Bonne Esp\u00e9rance",
    "location": "No address",
    "tel": "No phone number"
  },
  {
    "name": "Kigali Art Gallery",
    "location": "No address",
    "tel": "No phone number"
  },
  {
    "name": "Dove Hotel Kigali",
    "location": "No address",
    "tel": "No phone number"
  },
  {
    "name": "Perle Boutique Hotel",
    "location": "No address",
    "tel": "No phone number"
  },
  {
    "name": "Kigali Serena Hotel",
    "location": "No address",
    "tel": "No phone number"
  },
  {
    "name": "Urban by CityBlue",
    "location": "No address",
    "tel": "No phone number"
  },
  {
    "name": "Flame Tree Village",
    "location": "No address",
    "tel": "No phone number"
  }
]
