[{"name": "Kacyiru Petrol Station", "location": "Gasabo", "tel": "No phone number"}, {"name": "Soci\u00e9t\u00e9 P\u00e9troli\u00e8re, SP", "location": "Gasabo", "tel": "No phone number"}, {"name": "Hashi Petrol Station", "location": "Gasabo", "tel": "0788306020"}, {"name": "Maxi Station", "location": "Gasabo", "tel": "No phone number"}, {"name": "SP Petrol Station", "location": "Gasabo", "tel": "No phone number"}, {"name": "Enes Petrol Station", "location": "Gasabo", "tel": "No phone number"}, {"name": "Petrol Station", "location": "Gasabo", "tel": "No phone number"}, {"name": "Mt Meru Petrol Station", "location": "Gasabo", "tel": "No phone number"}, {"name": "SP Rwanda", "location": "Gasabo", "tel": "0788306233"}, {"name": "SP", "location": "Gasabo", "tel": "No phone number"}, {"name": "Engen", "location": "Gasabo", "tel": "0788175100"}, {"name": "Engen", "location": "Gasabo", "tel": "No phone number"}, {"name": "SP", "location": "Gasabo", "tel": "No phone number"}, {"name": "SP Rwanda", "location": "Gasabo", "tel": "0781269010"}, {"name": "Mt Meru Petrol Station", "location": "Gasabo", "tel": "0786131430"}, {"name": "Mogas", "location": "Gasabo", "tel": "No phone number"}, {"name": "Merez", "location": "Gasabo", "tel": "0788307575"}, {"name": "Petrol Station", "location": "Gasabo", "tel": "0786131430"}, {"name": "Meru", "location": "Gasabo", "tel": "No phone number"}, {"name": "Engen", "location": "Gasabo", "tel": "No phone number"}, {"name": "Engen", "location": "Gasabo", "tel": "No phone number"}, {"name": "Engen", "location": "Gasabo", "tel": "No phone number"}, {"name": "Kobil", "location": "Gasabo", "tel": "0788821924"}, {"name": "Castrol", "location": "Gasabo", "tel": "No phone number"}, {"name": "Gemeca", "location": "Gasabo", "tel": "0788591481"}, {"name": "Discentre", "location": "Gasabo", "tel": "No phone number"}, {"name": "Ukod Oil", "location": "Gasabo", "tel": "No phone number"}, {"name": "Engen", "location": "Gasabo", "tel": "No phone number"}]