[{"name": "SP", "location": "Nyarugenge", "tel": "No phone number"}, {"name": "SP", "location": "Nyarugenge", "tel": "No phone number"}, {"name": "SP Rwanda", "location": "Nyarugenge", "tel": "0788306233"}, {"name": "SP Rwanda", "location": "Nyarugenge", "tel": "0781269010"}, {"name": "Maxi Station", "location": "Nyarugenge", "tel": "No phone number"}, {"name": "Engen", "location": "Nyarugenge", "tel": "0788175100"}, {"name": "Kigali City Center Taxi Park", "location": "Nyarugenge", "tel": "No phone number"}, {"name": "Engen", "location": "Nyarugenge", "tel": "No phone number"}, {"name": "Discentre", "location": "Nyarugenge", "tel": "No phone number"}, {"name": "Merez", "location": "Nyarugenge", "tel": "0788307575"}, {"name": "Hashi Petrol Station", "location": "Nyarugenge", "tel": "0788306020"}, {"name": "Engen", "location": "Nyarugenge", "tel": "No phone number"}, {"name": "Kwa Nyiranuma", "location": "Nyarugenge", "tel": "No phone number"}, {"name": "Merez 1", "location": "Nyarugenge", "tel": "0788307575"}, {"name": "Kobil", "location": "Nyarugenge", "tel": "0785783178"}]