[{"name": "Kacyiru Petrol Station", "location": "Rulindo", "tel": "No phone number"}, {"name": "Soci\u00e9t\u00e9 P\u00e9troli\u00e8re, SP", "location": "Rulindo", "tel": "No phone number"}, {"name": "Hashi Petrol Station", "location": "Rulindo", "tel": "0788306020"}, {"name": "SP Petrol Station", "location": "Rulindo", "tel": "No phone number"}, {"name": "Engen", "location": "Rulindo", "tel": "0788175100"}, {"name": "Engen", "location": "Rulindo", "tel": "No phone number"}, {"name": "Discentre", "location": "Rulindo", "tel": "No phone number"}, {"name": "SP", "location": "Rulindo", "tel": "No phone number"}, {"name": "Maxi Station", "location": "Rulindo", "tel": "No phone number"}, {"name": "Mt Meru Petrol Station", "location": "Rulindo", "tel": "No phone number"}, {"name": "Mt Meru Petrol Station", "location": "Rulindo", "tel": "0786131430"}, {"name": "Enes Petrol Station", "location": "Rulindo", "tel": "No phone number"}, {"name": "Engen", "location": "Rulindo", "tel": "No phone number"}, {"name": "SP Rwanda", "location": "Rulindo", "tel": "0781269010"}, {"name": "Engen", "location": "Rulindo", "tel": "No phone number"}, {"name": "Discentre", "location": "Rulindo", "tel": "No phone number"}, {"name": "Engen", "location": "Rulindo", "tel": "No phone number"}, {"name": "ENES Petrol Station", "location": "Rulindo", "tel": "0783678516"}, {"name": "Delta Petrol Station", "location": "Rulindo", "tel": "No phone number"}, {"name": "SP", "location": "Rulindo", "tel": "No phone number"}, {"name": "SP Petrol Station", "location": "Rulindo", "tel": "No phone number"}, {"name": "Engen", "location": "Rulindo", "tel": "No phone number"}, {"name": "Kobil", "location": "Rulindo", "tel": "0788821924"}, {"name": "Engen", "location": "Rulindo", "tel": "No phone number"}, {"name": "Mogas", "location": "Rulindo", "tel": "No phone number"}, {"name": "Merez 1", "location": "Rulindo", "tel": "0788307575"}, {"name": "SP Rwanda", "location": "Rulindo", "tel": "0788306233"}]