[{"name": "Nyamata Health Center", "location": "Bugesera", "tel": "No phone number"}, {"name": "Juru Health Center", "location": "Bugesera", "tel": "0784531581"}, {"name": "Ntarama Health Center", "location": "Bugesera", "tel": "No phone number"}, {"name": "Mwogo Health Center", "location": "Bugesera", "tel": "No phone number"}, {"name": "Gashora Health Center", "location": "Bugesera", "tel": "No phone number"}, {"name": "Gahanga Health Center", "location": "Bugesera", "tel": "No phone number"}, {"name": "Ngeruka Health Centre", "location": "Bugesera", "tel": "No phone number"}, {"name": "Gakurazo Health Center", "location": "Bugesera", "tel": "No phone number"}, {"name": "Kamabuye Health Centre", "location": "Bugesera", "tel": "No phone number"}, {"name": "Nyarurenzi Health Post", "location": "Bugesera", "tel": "No phone number"}, {"name": "Butamwa Health Centre", "location": "Bugesera", "tel": "No phone number"}, {"name": "Mareba Health Centre", "location": "Bugesera", "tel": "No phone number"}, {"name": "Muyange Health Centre", "location": "Bugesera", "tel": "No phone number"}, {"name": "Busoro Health Centre", "location": "Bugesera", "tel": "No phone number"}, {"name": "Mazane Health Center", "location": "Bugesera", "tel": "No phone number"}, {"name": "Rilima Health Center", "location": "Bugesera", "tel": "No phone number"}, {"name": "Masaka Health Centre", "location": "Bugesera", "tel": "No phone number"}, {"name": "Betesaida Health Centre", "location": "Bugesera", "tel": "0787408974"}, {"name": "Kicukiro Health Centre", "location": "Bugesera", "tel": "No phone number"}]