[{"name": "Remera Health Centre", "location": "Gasabo", "tel": "No phone number"}, {"name": "Girimpuhwe Health Centre", "location": "Gasabo", "tel": "0788473523"}, {"name": "Kicukiro Health Centre", "location": "Gasabo", "tel": "No phone number"}, {"name": "Nyarugenge Health Center", "location": "Gasabo", "tel": "No phone number"}, {"name": "Gitega Health Center", "location": "Gasabo", "tel": "No phone number"}, {"name": "Kabuye Health Center", "location": "Gasabo", "tel": "No phone number"}, {"name": "BIGEGA Health center", "location": "Gasabo", "tel": "No phone number"}, {"name": "Betesaida Health Centre", "location": "Gasabo", "tel": "0787408974"}, {"name": "Kinyinya Health Centre", "location": "Gasabo", "tel": "0782377213"}, {"name": "Deva Medical Center", "location": "Gasabo", "tel": "0788333111"}, {"name": "Muhima Health Center", "location": "Gasabo", "tel": "No phone number"}, {"name": "Kagugu Health Centre", "location": "Gasabo", "tel": "No phone number"}, {"name": "Nyacyonga Health Centre", "location": "Gasabo", "tel": "No phone number"}, {"name": "Kanyinya Health Centre", "location": "Gasabo", "tel": "No phone number"}, {"name": "Kigali Dialysis Center - Africa Healthcare Network", "location": "Gasabo", "tel": "0782637546"}, {"name": "Gihongwe Health Center", "location": "Gasabo", "tel": "No phone number"}, {"name": "Burega Health Center", "location": "Gasabo", "tel": "0783809919"}, {"name": "Iranzi Clinic- Birth Centre", "location": "Gasabo", "tel": "0785022206"}, {"name": "Kigali Dermatology Center", "location": "Gasabo", "tel": "0782742943"}, {"name": "Nyagasambu Health Centre", "location": "Gasabo", "tel": "No phone number"}, {"name": "KIGALI MEDICAL CENTER ( KMC)", "location": "Gasabo", "tel": "0780864534"}, {"name": "Kayanga Health Center", "location": "Gasabo", "tel": "No phone number"}, {"name": "Kabuga Health Centre", "location": "Gasabo", "tel": "No phone number"}, {"name": "Nduba Health Center", "location": "Gasabo", "tel": "No phone number"}, {"name": "Shyorongi Health Center", "location": "Gasabo", "tel": "No phone number"}, {"name": "Kabusunzu Health Center", "location": "Gasabo", "tel": "No phone number"}, {"name": "Masaka Health Centre", "location": "Gasabo", "tel": "No phone number"}, {"name": "Gikomero Health Center", "location": "Gasabo", "tel": "No phone number"}, {"name": "Masoro Health Centre", "location": "Gasabo", "tel": "No phone number"}, {"name": "Rubungo Health Centre", "location": "Gasabo", "tel": "No phone number"}, {"name": "Rutonde Health Center", "location": "Gasabo", "tel": "No phone number"}, {"name": "Murambi Health Center", "location": "Gasabo", "tel": "No phone number"}, {"name": "Umwizerwa Medicare Centre", "location": "Gasabo", "tel": "0788760733"}, {"name": "Twesero Health Center", "location": "Gasabo", "tel": "No phone number"}, {"name": "Gikondo Health Centre", "location": "Gasabo", "tel": "No phone number"}, {"name": "Gikomero Health Centre", "location": "Gasabo", "tel": "No phone number"}, {"name": "BWIZA MEDICAL CLINIC AND DIAGNOSTIC CENTER LTD.", "location": "Gasabo", "tel": "0780681459"}, {"name": "Busanza Health Centre", "location": "Gasabo", "tel": "No phone number"}, {"name": "Kajevuba Health Centre", "location": "Gasabo", "tel": "No phone number"}, {"name": "Gihara Health Center", "location": "Gasabo", "tel": "No phone number"}, {"name": "KMISC Kigali Medical Imaging", "location": "Gasabo", "tel": "No phone number"}, {"name": "Ruhuka Health Post", "location": "Gasabo", "tel": "No phone number"}, {"name": "Centre de Sant\u00e9 de Gatenga", "location": "Gasabo", "tel": "No phone number"}, {"name": "Jali Health Centre", "location": "Gasabo", "tel": "No phone number"}, {"name": "Baho Medical Center", "location": "Gasabo", "tel": "0788564753"}, {"name": "Biryogo Health centre", "location": "Gasabo", "tel": "No phone number"}, {"name": "Gahanga Health Center", "location": "Gasabo", "tel": "No phone number"}, {"name": "Rutare Health Centre", "location": "Gasabo", "tel": "No phone number"}, {"name": "Kabuga Health Center", "location": "Gasabo", "tel": "No phone number"}, {"name": "Icyizere Psychotherapeutic Center", "location": "Gasabo", "tel": "0783375550"}, {"name": "Mandela Hope Ltd Dispensary", "location": "Gasabo", "tel": "No phone number"}, {"name": "Kigese Health Centre", "location": "Gasabo", "tel": "No phone number"}, {"name": "Butamwa Health Centre", "location": "Gasabo", "tel": "No phone number"}, {"name": "Karangara Health Center", "location": "Gasabo", "tel": "No phone number"}, {"name": "Gasange Health Center", "location": "Gasabo", "tel": "No phone number"}]