[{"name": "Mulindi Health Center", "location": "Gicumbi", "tel": "No phone number"}, {"name": "Gasange Health Center", "location": "Gicumbi", "tel": "No phone number"}, {"name": "Rutare Health Centre", "location": "Gicumbi", "tel": "No phone number"}, {"name": "Cyamuhinda Health Center", "location": "Gicumbi", "tel": "No phone number"}, {"name": "Kayanga Health Center", "location": "Gicumbi", "tel": "No phone number"}, {"name": "Munyinya Health Center", "location": "Gicumbi", "tel": "No phone number"}, {"name": "Muko Health Center", "location": "Gicumbi", "tel": "No phone number"}, {"name": "Twesero Health Center", "location": "Gicumbi", "tel": "No phone number"}, {"name": "Byumba Health Centre", "location": "Gicumbi", "tel": "No phone number"}, {"name": "Rubaya Health Centre", "location": "Gicumbi", "tel": "No phone number"}, {"name": "Nyagahanga Health Centre", "location": "Gicumbi", "tel": "No phone number"}, {"name": "Kinihira Health Centre", "location": "Gicumbi", "tel": "No phone number"}, {"name": "Cyondo Health Centre", "location": "Gicumbi", "tel": "No phone number"}, {"name": "Buyoga Health Center", "location": "Gicumbi", "tel": "No phone number"}, {"name": "Ruhunde Health Centre", "location": "Gicumbi", "tel": "No phone number"}, {"name": "Gisiza Health Centre", "location": "Gicumbi", "tel": "No phone number"}, {"name": "Muhondo Health Centre", "location": "Gicumbi", "tel": "No phone number"}, {"name": "Musenyi Health Centre", "location": "Gicumbi", "tel": "No phone number"}, {"name": "Muyove Health Centre", "location": "Gicumbi", "tel": "No phone number"}, {"name": "Bataba Health Centre", "location": "Gicumbi", "tel": "No phone number"}, {"name": "Muyanza Health Center", "location": "Gicumbi", "tel": "No phone number"}, {"name": "Giti Health Centre", "location": "Gicumbi", "tel": "No phone number"}, {"name": "Rwesero Health Centre", "location": "Gicumbi", "tel": "No phone number"}, {"name": "Masoro Health Centre", "location": "Gicumbi", "tel": "No phone number"}, {"name": "Nyagasambu Health Centre", "location": "Gicumbi", "tel": "No phone number"}]