[{"name": "MUKURA HEALTH CENTER", "location": "Huye", "tel": "0785152912"}, {"name": "MUKURA HEALTH CENTER/HUYE", "location": "Huye", "tel": "0785152912"}, {"name": "Rukira Health Centre", "location": "Huye", "tel": "No phone number"}, {"name": "Matyazo Health Centre", "location": "Huye", "tel": "0788000000"}, {"name": "Mbazi Health Center", "location": "Huye", "tel": "No phone number"}, {"name": "Simbi Health Centre", "location": "Huye", "tel": "No phone number"}, {"name": "Kinyamakara Health Centre", "location": "Huye", "tel": "No phone number"}, {"name": "Rango Health Center", "location": "Huye", "tel": "No phone number"}, {"name": "One Stop Center Clinic Police", "location": "Huye", "tel": "No phone number"}, {"name": "Ngera Health Centre", "location": "Huye", "tel": "No phone number"}, {"name": "Health Center", "location": "Huye", "tel": "No phone number"}, {"name": "Kibeho Health Centre", "location": "Huye", "tel": "No phone number"}, {"name": "Salus Clinic", "location": "Huye", "tel": "No phone number"}]