[{"name": "Kicukiro Health Centre", "location": "Kicukiro", "tel": "No phone number"}, {"name": "Betesaida Health Centre", "location": "Kicukiro", "tel": "0787408974"}, {"name": "Nyarugenge Health Center", "location": "Kicukiro", "tel": "No phone number"}, {"name": "Centre de Sant\u00e9 de Gatenga", "location": "Kicukiro", "tel": "No phone number"}, {"name": "Murambi Health Center", "location": "Kicukiro", "tel": "No phone number"}, {"name": "Gitega Health Center", "location": "Kicukiro", "tel": "No phone number"}, {"name": "Kigali Dialysis Center - Africa Healthcare Network", "location": "Kicukiro", "tel": "0782637546"}, {"name": "Remera Health Centre", "location": "Kicukiro", "tel": "No phone number"}, {"name": "Ruhuka Health Post", "location": "Kicukiro", "tel": "No phone number"}, {"name": "Gikondo Health Centre", "location": "Kicukiro", "tel": "No phone number"}, {"name": "Girimpuhwe Health Centre", "location": "Kicukiro", "tel": "0788473523"}, {"name": "Kabusunzu Health Center", "location": "Kicukiro", "tel": "No phone number"}, {"name": "Biryogo Health centre", "location": "Kicukiro", "tel": "No phone number"}]