[{"name": "Rukumberi Health Center", "location": "Ngoma", "tel": "No phone number"}, {"name": "Remera Health Center", "location": "Ngoma", "tel": "No phone number"}, {"name": "Gituku Health Centre", "location": "Ngoma", "tel": "No phone number"}, {"name": "Kibungo Health Center", "location": "Ngoma", "tel": "No phone number"}, {"name": "Health Center De Jarama", "location": "Ngoma", "tel": "No phone number"}, {"name": "Sangaza Health Centre", "location": "Ngoma", "tel": "No phone number"}, {"name": "APEESPE", "location": "Ngoma", "tel": "No phone number"}, {"name": "Rukoma Health Center", "location": "Ngoma", "tel": "No phone number"}, {"name": "Nyange Health Centre", "location": "Ngoma", "tel": "No phone number"}, {"name": "Mutenderi Health Centre", "location": "Ngoma", "tel": "No phone number"}, {"name": "Rukira Health Centre", "location": "Ngoma", "tel": "No phone number"}, {"name": "Mazane Health Center", "location": "Ngoma", "tel": "No phone number"}, {"name": "Gashora Health Center", "location": "Ngoma", "tel": "No phone number"}, {"name": "Jarama Health Centre", "location": "Ngoma", "tel": "No phone number"}, {"name": "Kirwa Health Centre", "location": "Ngoma", "tel": "No phone number"}, {"name": "Munyaga Health Center", "location": "Ngoma", "tel": "No phone number"}]