[{"name": "Nyamagabe Health Centre", "location": "Nyamagabe", "tel": "No phone number"}, {"name": "Kigeme Health Centre", "location": "Nyamagabe", "tel": "No phone number"}, {"name": "Kirambi Health Centre", "location": "Nyamagabe", "tel": "No phone number"}, {"name": "Cyanika Health Centre", "location": "Nyamagabe", "tel": "No phone number"}, {"name": "Nyarusiza Health Centre", "location": "Nyamagabe", "tel": "No phone number"}, {"name": "Mugano Health Centre", "location": "Nyamagabe", "tel": "No phone number"}, {"name": "Cyahafi Health Centre", "location": "Nyamagabe", "tel": "No phone number"}, {"name": "Bamba Health Centre", "location": "Nyamagabe", "tel": "No phone number"}, {"name": "Gatare Health Centre", "location": "Nyamagabe", "tel": "No phone number"}, {"name": "Jenda Health Centre", "location": "Nyamagabe", "tel": "No phone number"}, {"name": "Mbuga Health Centre", "location": "Nyamagabe", "tel": "No phone number"}, {"name": "Mushubi Health Centre", "location": "Nyamagabe", "tel": "No phone number"}, {"name": "Rugege Health Centre", "location": "Nyamagabe", "tel": "No phone number"}, {"name": "Uwinkinji Health Centre", "location": "Nyamagabe", "tel": "No phone number"}, {"name": "Kinyamakara Health Centre", "location": "Nyamagabe", "tel": "No phone number"}, {"name": "Nyarwungo Health Centre", "location": "Nyamagabe", "tel": "No phone number"}, {"name": "Health Center De Musebeya", "location": "Nyamagabe", "tel": "No phone number"}, {"name": "Ngara Health Centre", "location": "Nyamagabe", "tel": "No phone number"}, {"name": "Nyamagabe Health Center", "location": "Nyamagabe", "tel": "No phone number"}, {"name": "Kirinda Health Centre", "location": "Nyamagabe", "tel": "No phone number"}]