[{"name": "Congo Nil Health Centre", "location": "Rutsiro", "tel": "No phone number"}, {"name": "Mushubati Health Centre", "location": "Rutsiro", "tel": "No phone number"}, {"name": "Rubengera Health Centre", "location": "Rutsiro", "tel": "No phone number"}, {"name": "Kibingo Health Centre", "location": "Rutsiro", "tel": "No phone number"}, {"name": "Musasa Health Centre", "location": "Rutsiro", "tel": "No phone number"}, {"name": "Rutsiro Health Centre", "location": "Rutsiro", "tel": "No phone number"}, {"name": "Kinunu Health Centre", "location": "Rutsiro", "tel": "No phone number"}, {"name": "Biruyi Health Center", "location": "Rutsiro", "tel": "No phone number"}, {"name": "Bitenga Health Centre", "location": "Rutsiro", "tel": "No phone number"}, {"name": "Mukura Health Centre", "location": "Rutsiro", "tel": "No phone number"}, {"name": "Kabona Health Centre", "location": "Rutsiro", "tel": "No phone number"}, {"name": "Karumbi Health Centre", "location": "Rutsiro", "tel": "No phone number"}, {"name": "Cyimbili Health Centre", "location": "Rutsiro", "tel": "No phone number"}, {"name": "Nyabirasi Health Center", "location": "Rutsiro", "tel": "No phone number"}, {"name": "Kigeyo Health Centre", "location": "Rutsiro", "tel": "No phone number"}, {"name": "Rufungo Health Centre", "location": "Rutsiro", "tel": "No phone number"}, {"name": "Gashumbi Health Centre", "location": "Rutsiro", "tel": "No phone number"}, {"name": "Kibuye Health Centre", "location": "Rutsiro", "tel": "No phone number"}]