[
  {
    "name": "Dispensaire Sanganirwa",
    "location": "Kicukiro",
    "tel": "No phone number"
  },
  {
    "name": "Clinic Ste Therese",
    "location": "Kicukiro",
    "tel": "No phone number"
  },
  {
    "name": "Clinique Don de Dieu",
    "location": "Kicukiro",
    "tel": "0788302839"
  },
  {
    "name": "ALPHA Pro-line ltd",
    "location": "Kicukiro",
    "tel": "0788814618"
  },
  {
    "name": "BETSAIDA Clinic",
    "location": "Kicukiro",
    "tel": "No phone number"
  },
  {
    "name": "TMC Technology Clinic",
    "location": "Kicukiro",
    "tel": "No phone number"
  },
  {
    "name": "Ent (Orl) Clinic",
    "location": "Kicukiro",
    "tel": "0787400577"
  },
  {
    "name": "Le Bon Samaritain",
    "location": "Kicukiro",
    "tel": "0788503434"
  },
  {
    "name": "Traditional Chinese Medicine, TCM Technology",
    "location": "Kicukiro",
    "tel": "No phone number"
  },
  {
    "name": "Iranzi Clinic- Birth Centre",
    "location": "Kicukiro",
    "tel": "0785022206"
  },
  {
    "name": "BWIZA CLINIC AND DIAGNOSTIC CENTER LTD",
    "location": "Kicukiro",
    "tel": "0780681459"
  },
  {
    "name": "Kigali Dialysis Center - Africa Healthcare Network",
    "location": "Kicukiro",
    "tel": "0782637546"
  },
  {
    "name": "CHK Clinic",
    "location": "Kicukiro",
    "tel": "No phone number"
  },
  {
    "name": "Doctors' Plaza Clinic",
    "location": "Kicukiro",
    "tel": "0788609621"
  },
  {
    "name": "Dr. Agarwal's Eye Hospital, Kigali",
    "location": "Kicukiro",
    "tel": "0787303743"
  },
  {
    "name": "China Clinic",
    "location": "Kicukiro",
    "tel": "No phone number"
  },
  {
    "name": "La Life Polyclinic ENT(ORL)",
    "location": "Kicukiro",
    "tel": "0788520986"
  },
  {
    "name": "Ivuriro Sante Clinic",
    "location": "Kicukiro",
    "tel": "No phone number"
  },
  {
    "name": "Icyizere Psychotherapeutic Center",
    "location": "Kicukiro",
    "tel": "0783375550"
  },
  {
    "name": "Umwizerwa Medicare Centre",
    "location": "Kicukiro",
    "tel": "0788760733"
  },
  {
    "name": "Harmony Clinic",
    "location": "Kicukiro",
    "tel": "0788500497"
  },
  {
    "name": "Polyclinique du Plateau",
    "location": "Kicukiro",
    "tel": "0781293417"
  },
  {
    "name": "Le Sauveur Dispensary",
    "location": "Kicukiro",
    "tel": "No phone number"
  }
]
