[{"name": "Pharmamed Pharmacy", "location": "Gasabo", "tel": "0783164306"}, {"name": "Score Pharmacy", "location": "Gasabo", "tel": "0783410790"}, {"name": "Teta Pharmacy Kimironko", "location": "Gasabo", "tel": "0789771322"}, {"name": "Sunshine Pharmacy", "location": "Gasabo", "tel": "No phone number"}, {"name": "Kipharma Pharmacy, Nyarugenge", "location": "Gasabo", "tel": "No phone number"}, {"name": "Pharmacy Divine", "location": "Gasabo", "tel": "0789453089"}, {"name": "Memia's Pharmacy", "location": "Gasabo", "tel": "0788310016"}, {"name": "Vine Pharmacy", "location": "Gasabo", "tel": "No phone number"}, {"name": "Pharmacie Conseil", "location": "Gasabo", "tel": "0781928457"}, {"name": "Umutozo Pharmacy", "location": "Gasabo", "tel": "No phone number"}, {"name": "Kipharma Pharmacy, Bridge (B2)", "location": "Gasabo", "tel": "No phone number"}, {"name": "Pharmacie Unique", "location": "Gasabo", "tel": "0788309743"}, {"name": "National Pharmacy Council", "location": "Gasabo", "tel": "No phone number"}, {"name": "EZA Pharmacy", "location": "Gasabo", "tel": "0785022763"}, {"name": "Kipharma", "location": "Gasabo", "tel": "No phone number"}, {"name": "Rite Pharmacy", "location": "Gasabo", "tel": "0788304373"}, {"name": "Safecare Pharmacy", "location": "Gasabo", "tel": "0781293423"}, {"name": "Bovan Pharmacy", "location": "Gasabo", "tel": "No phone number"}, {"name": "Pharmacie Shema", "location": "Gasabo", "tel": "No phone number"}, {"name": "Pharmacie Auberge", "location": "Gasabo", "tel": "No phone number"}, {"name": "Pharmacy", "location": "Gasabo", "tel": "No phone number"}, {"name": "Score Pharmacy", "location": "Gasabo", "tel": "No phone number"}, {"name": "Pharmedica", "location": "Gasabo", "tel": "No phone number"}, {"name": "Peace Pharmacy", "location": "Gasabo", "tel": "No phone number"}, {"name": "Jordan Pharmacy", "location": "Gasabo", "tel": "No phone number"}, {"name": "Pharma Plus Pharmacy", "location": "Gasabo", "tel": "No phone number"}, {"name": "Goal Pharmacy", "location": "Gasabo", "tel": "No phone number"}, {"name": "Sanophar Pharmacy", "location": "Gasabo", "tel": "No phone number"}, {"name": "Pharmacie Bora", "location": "Gasabo", "tel": "No phone number"}, {"name": "Medplus Pharmacy ltd", "location": "Gasabo", "tel": "0788533474"}, {"name": "Pharmacy", "location": "Gasabo", "tel": "No phone number"}, {"name": "Health Plus Pharmacy", "location": "Gasabo", "tel": "No phone number"}, {"name": "Abacus Pharma Alam", "location": "Gasabo", "tel": "No phone number"}, {"name": "Pharmacie Agrovet", "location": "Gasabo", "tel": "No phone number"}, {"name": "Tramed pharmacy", "location": "Gasabo", "tel": "No phone number"}, {"name": "Bora Pharmacy", "location": "Gasabo", "tel": "No phone number"}, {"name": "Gilmed Pharmaceutical Wholesale", "location": "Gasabo", "tel": "0788888442"}, {"name": "Pharmacie Royale", "location": "Gasabo", "tel": "No phone number"}, {"name": "Pharmacie Le Normal", "location": "Gasabo", "tel": "No phone number"}, {"name": "Capital Pharmaceutical Supply Ltd", "location": "Gasabo", "tel": "No phone number"}, {"name": "SEMU Pharmacy", "location": "Gasabo", "tel": "0788679787"}, {"name": "Inganji Pharmacy", "location": "Gasabo", "tel": "No phone number"}, {"name": "Dorrie Pharmacy", "location": "Gasabo", "tel": "No phone number"}, {"name": "MULTIPHAR RWANDA LTD", "location": "Gasabo", "tel": "0785158072"}, {"name": "Motley Healthcare Ltd", "location": "Gasabo", "tel": "0784444001"}, {"name": "Iramiro Pharmacy", "location": "Gasabo", "tel": "No phone number"}, {"name": "Keystone Pharmacy", "location": "Gasabo", "tel": "0788352583"}, {"name": "Pharmacie Umurava", "location": "Gasabo", "tel": "0788539713"}, {"name": "GASABO District Pharmacy", "location": "Gasabo", "tel": "No phone number"}, {"name": "Royal Agrovet LTD Rwanda", "location": "Gasabo", "tel": "0782752505"}, {"name": "VIEPHARMA PHARMACY LTD", "location": "Gasabo", "tel": "0788690137"}, {"name": "Sabans Pharmacy", "location": "Gasabo", "tel": "0784296088"}, {"name": "TETA Pharmacy near Chez Lando hotel", "location": "Gasabo", "tel": "No phone number"}, {"name": "INSHUTI PHARMACY", "location": "Gasabo", "tel": "No phone number"}, {"name": "PHARMASAVE", "location": "Gasabo", "tel": "No phone number"}, {"name": "INSHUTI PHARMACY", "location": "Gasabo", "tel": "No phone number"}, {"name": "Kipharma Pharmacy, Giporoso (B3)", "location": "Gasabo", "tel": "No phone number"}, {"name": "KIPHARMA PHARMACY BRANCH B2", "location": "Gasabo", "tel": "No phone number"}]