[{"name": "Sunshine Pharmacy", "location": "Gatsibo", "tel": "No phone number"}, {"name": "Score Pharmacy", "location": "Gatsibo", "tel": "0783410790"}, {"name": "Pharmamed Pharmacy", "location": "Gatsibo", "tel": "0783164306"}, {"name": "Teta Pharmacy Kimironko", "location": "Gatsibo", "tel": "0789771322"}, {"name": "Kipharma Pharmacy, Nyarugenge", "location": "Gatsibo", "tel": "No phone number"}, {"name": "Memia's Pharmacy", "location": "Gatsibo", "tel": "0788310016"}, {"name": "Vine Pharmacy", "location": "Gatsibo", "tel": "No phone number"}, {"name": "National Pharmacy Council", "location": "Gatsibo", "tel": "No phone number"}, {"name": "Umutozo Pharmacy", "location": "Gatsibo", "tel": "No phone number"}, {"name": "Pharmacie Conseil", "location": "Gatsibo", "tel": "0781928457"}, {"name": "Pharmacy Divine", "location": "Gatsibo", "tel": "0789453089"}, {"name": "Pharmacie Unique", "location": "Gatsibo", "tel": "0788309743"}, {"name": "Kipharma Pharmacy, Bridge (B2)", "location": "Gatsibo", "tel": "No phone number"}, {"name": "Pharmacy", "location": "Gatsibo", "tel": "No phone number"}, {"name": "FAMIKAN Pharmacy", "location": "Gatsibo", "tel": "No phone number"}, {"name": "Rite Pharmacy", "location": "Gatsibo", "tel": "0788304373"}, {"name": "Pharmacie Le Normal", "location": "Gatsibo", "tel": "No phone number"}, {"name": "Safecare Pharmacy", "location": "Gatsibo", "tel": "0781293423"}, {"name": "Pharmacie Shema", "location": "Gatsibo", "tel": "No phone number"}, {"name": "Score Pharmacy", "location": "Gatsibo", "tel": "No phone number"}, {"name": "EZA Pharmacy", "location": "Gatsibo", "tel": "0785022763"}, {"name": "Keystone Pharmacy", "location": "Gatsibo", "tel": "0788352583"}, {"name": "Bovan Pharmacy", "location": "Gatsibo", "tel": "No phone number"}, {"name": "Dorrie Pharmacy", "location": "Gatsibo", "tel": "No phone number"}, {"name": "Pharmacie Auberge", "location": "Gatsibo", "tel": "No phone number"}, {"name": "Kipharma", "location": "Gatsibo", "tel": "No phone number"}, {"name": "Tramed pharmacy", "location": "Gatsibo", "tel": "No phone number"}, {"name": "Pharmacie Umurava", "location": "Gatsibo", "tel": "0788539713"}, {"name": "Iramiro Pharmacy", "location": "Gatsibo", "tel": "No phone number"}, {"name": "Peace Pharmacy", "location": "Gatsibo", "tel": "No phone number"}, {"name": "Goal Pharmacy", "location": "Gatsibo", "tel": "No phone number"}, {"name": "Bora Pharmacy", "location": "Gatsibo", "tel": "No phone number"}, {"name": "Pharmacie Bora", "location": "Gatsibo", "tel": "No phone number"}, {"name": "Sanophar Pharmacy", "location": "Gatsibo", "tel": "No phone number"}, {"name": "Jordan Pharmacy", "location": "Gatsibo", "tel": "No phone number"}, {"name": "Pharmedica", "location": "Gatsibo", "tel": "No phone number"}, {"name": "Pharma Plus Pharmacy", "location": "Gatsibo", "tel": "No phone number"}, {"name": "Health Plus Pharmacy", "location": "Gatsibo", "tel": "No phone number"}, {"name": "Medplus Pharmacy ltd", "location": "Gatsibo", "tel": "0788533474"}, {"name": "Abacus Pharma Alam", "location": "Gatsibo", "tel": "No phone number"}, {"name": "EZA Pharmacy", "location": "Gatsibo", "tel": "0785022763"}, {"name": "Keystone Pharmacy", "location": "Gatsibo", "tel": "0788352583"}, {"name": "Bovan Pharmacy", "location": "Gatsibo", "tel": "No phone number"}, {"name": "Dorrie Pharmacy", "location": "Gatsibo", "tel": "No phone number"}, {"name": "Pharmacie Auberge", "location": "Gatsibo", "tel": "No phone number"}, {"name": "Kipharma", "location": "Gatsibo", "tel": "No phone number"}, {"name": "Tramed pharmacy", "location": "Gatsibo", "tel": "No phone number"}, {"name": "Pharmacie Umurava", "location": "Gatsibo", "tel": "0788539713"}, {"name": "Iramiro Pharmacy", "location": "Gatsibo", "tel": "No phone number"}, {"name": "Peace Pharmacy", "location": "Gatsibo", "tel": "No phone number"}, {"name": "Goal Pharmacy", "location": "Gatsibo", "tel": "No phone number"}, {"name": "Bora Pharmacy", "location": "Gatsibo", "tel": "No phone number"}, {"name": "Pharmacie Bora", "location": "Gatsibo", "tel": "No phone number"}, {"name": "Sanophar Pharmacy", "location": "Gatsibo", "tel": "No phone number"}, {"name": "Jordan Pharmacy", "location": "Gatsibo", "tel": "No phone number"}, {"name": "Pharmedica", "location": "Gatsibo", "tel": "No phone number"}, {"name": "Pharma Plus Pharmacy", "location": "Gatsibo", "tel": "No phone number"}, {"name": "Health Plus Pharmacy", "location": "Gatsibo", "tel": "No phone number"}, {"name": "Medplus Pharmacy ltd", "location": "Gatsibo", "tel": "0788533474"}, {"name": "Abacus Pharma Alam", "location": "Gatsibo", "tel": "No phone number"}]