[{"name": "Kipharma Pharmacy, Nyarugenge", "location": "Nyarugenge", "tel": "No phone number"}, {"name": "Pharmacy Divine", "location": "Nyarugenge", "tel": "0789453089"}, {"name": "Pharmacie Shema", "location": "Nyarugenge", "tel": "No phone number"}, {"name": "EZA Pharmacy", "location": "Nyarugenge", "tel": "0785022763"}, {"name": "Safecare Pharmacy", "location": "Nyarugenge", "tel": "0781293423"}, {"name": "Tramed pharmacy", "location": "Nyarugenge", "tel": "No phone number"}, {"name": "Iramiro Pharmacy", "location": "Nyarugenge", "tel": "No phone number"}, {"name": "MULTIPHAR RWANDA LTD", "location": "Nyarugenge", "tel": "0785158072"}, {"name": "Capital Pharmaceutical Supply Ltd", "location": "Nyarugenge", "tel": "No phone number"}, {"name": "Abacus Pharma Alam", "location": "Nyarugenge", "tel": "No phone number"}, {"name": "Kipharma Pharmacy, Bridge (B2)", "location": "Nyarugenge", "tel": "No phone number"}, {"name": "Pharmacie Conseil", "location": "Nyarugenge", "tel": "No phone number"}, {"name": "Score Pharmacy", "location": "Nyarugenge", "tel": "No phone number"}, {"name": "Bora Pharmacy", "location": "Nyarugenge", "tel": "No phone number"}, {"name": "Pharmacie Umurava", "location": "Nyarugenge", "tel": "0788539713"}, {"name": "Peace Pharmacy", "location": "Nyarugenge", "tel": "No phone number"}, {"name": "Pharmacy", "location": "Nyarugenge", "tel": "No phone number"}, {"name": "Keystone Pharmacy", "location": "Nyarugenge", "tel": "0788352583"}, {"name": "Bovan Pharmacy", "location": "Nyarugenge", "tel": "No phone number"}, {"name": "Dorrie Pharmacy", "location": "Nyarugenge", "tel": "No phone number"}, {"name": "Pharmacie Le Normal", "location": "Nyarugenge", "tel": "No phone number"}, {"name": "Motley Healthcare Ltd", "location": "Nyarugenge", "tel": "0784444001"}, {"name": "Agrotech Ltd.", "location": "Nyarugenge", "tel": "No phone number"}, {"name": "Goal Pharmacy", "location": "Nyarugenge", "tel": "No phone number"}]