[{"name": "Butaro Health Center", "location": "Burera", "tel": "No phone number"}, {"name": "Mucaca Health Center", "location": "Burera", "tel": "No phone number"}, {"name": "Gasiza Health Center", "location": "Burera", "tel": "No phone number"}, {"name": "Health Center", "location": "Burera", "tel": "No phone number"}, {"name": "Karwasa Health Center", "location": "Burera", "tel": "No phone number"}, {"name": "Rubaya Health Centre", "location": "Burera", "tel": "No phone number"}, {"name": "Ruhunde Health Centre", "location": "Burera", "tel": "No phone number"}, {"name": "Kinini Health Center", "location": "Burera", "tel": "No phone number"}, {"name": "Kivuye Health Centre", "location": "Burera", "tel": "No phone number"}, {"name": "Rwerere Health Centre", "location": "Burera", "tel": "No phone number"}, {"name": "Karwasa Health Centre", "location": "Burera", "tel": "No phone number"}, {"name": "Kabyiniro Health Centre", "location": "Burera", "tel": "No phone number"}, {"name": "Mutara Health Centre", "location": "Burera", "tel": "No phone number"}, {"name": "Rusasa Health Centre", "location": "Burera", "tel": "No phone number"}, {"name": "Rugarama Health Centre", "location": "Burera", "tel": "No phone number"}, {"name": "Gitare Health Centre", "location": "Burera", "tel": "No phone number"}, {"name": "Kirambo Health Center", "location": "Burera", "tel": "No phone number"}, {"name": "Murandi Health Centre", "location": "Burera", "tel": "No phone number"}, {"name": "Rwaza Health Center", "location": "Burera", "tel": "No phone number"}, {"name": "Mulindi Health Center", "location": "Burera", "tel": "No phone number"}]