[{"name": "Nyange Health Centre", "location": "Gakenke", "tel": "No phone number"}, {"name": "Cyabingo Health Center", "location": "Gakenke", "tel": "No phone number"}, {"name": "Muhondo Health Center", "location": "Gakenke", "tel": "No phone number"}, {"name": "Ruhinga Health Center", "location": "Gakenke", "tel": "No phone number"}, {"name": "Nyakiriba Health Center", "location": "Gakenke", "tel": "0782095560"}, {"name": "Ruli Health Center", "location": "Gakenke", "tel": "No phone number"}, {"name": "Coko Health Centre", "location": "Gakenke", "tel": "No phone number"}, {"name": "Rutake Health Centre", "location": "Gakenke", "tel": "No phone number"}, {"name": "Busengo Health Centre", "location": "Gakenke", "tel": "No phone number"}, {"name": "Mataba Health Centre", "location": "Gakenke", "tel": "No phone number"}, {"name": "Rwahi Health Centre", "location": "Gakenke", "tel": "No phone number"}, {"name": "Gatonde Health Center", "location": "Gakenke", "tel": "No phone number"}, {"name": "Rwankuba Health Centre", "location": "Gakenke", "tel": "No phone number"}, {"name": "Rukura Health Centre", "location": "Gakenke", "tel": "No phone number"}, {"name": "Karangara Health Center", "location": "Gakenke", "tel": "No phone number"}, {"name": "Health Center", "location": "Gakenke", "tel": "No phone number"}, {"name": "Rutenderi Health Centre", "location": "Gakenke", "tel": "No phone number"}, {"name": "Rusororo Health Centre", "location": "Gakenke", "tel": "No phone number"}, {"name": "Nyakinama Health Center", "location": "Gakenke", "tel": "No phone number"}, {"name": "Birehe Health Centre", "location": "Gakenke", "tel": "No phone number"}, {"name": "Byakiriba Health Centre", "location": "Gakenke", "tel": "No phone number"}, {"name": "Mucaca Health Center", "location": "Gakenke", "tel": "No phone number"}, {"name": "Nyundo Health Centre", "location": "Gakenke", "tel": "No phone number"}, {"name": "Kayenzi Health Center", "location": "Gakenke", "tel": "No phone number"}, {"name": "Rushashi Health Centre", "location": "Gakenke", "tel": "No phone number"}, {"name": "Kabuga Health Center", "location": "Gakenke", "tel": "No phone number"}, {"name": "Nyabindi Health Center", "location": "Gakenke", "tel": "No phone number"}, {"name": "Rwaza Health Center", "location": "Gakenke", "tel": "No phone number"}]