[{"name": "Cyamuhinda Health Center", "location": "Gatsibo", "tel": "No phone number"}, {"name": "Muhura Health Center", "location": "Gatsibo", "tel": "0782548096"}, {"name": "KABARORE Health center", "location": "Gatsibo", "tel": "No phone number"}, {"name": "Muko Health Center", "location": "Gatsibo", "tel": "No phone number"}, {"name": "Gasange Health Center", "location": "Gatsibo", "tel": "No phone number"}, {"name": "Rugarama Health Center", "location": "Gatsibo", "tel": "No phone number"}, {"name": "Gakenke Health Center", "location": "Gatsibo", "tel": "No phone number"}, {"name": "Nyabiheke Health Centre", "location": "Gatsibo", "tel": "No phone number"}, {"name": "Nyamatete Health Centre", "location": "Gatsibo", "tel": "No phone number"}, {"name": "Humure Health Centre", "location": "Gatsibo", "tel": "No phone number"}, {"name": "Karambi Health Center", "location": "Gatsibo", "tel": "No phone number"}, {"name": "Rwimbogo Health Centre", "location": "Gatsibo", "tel": "No phone number"}, {"name": "Kibondo Health Centre", "location": "Gatsibo", "tel": "No phone number"}, {"name": "Gitoki Health Centre", "location": "Gatsibo", "tel": "No phone number"}, {"name": "Gituza Health Centre", "location": "Gatsibo", "tel": "No phone number"}, {"name": "Nyagahanga Health Centre", "location": "Gatsibo", "tel": "No phone number"}, {"name": "Mimuli Health Centre", "location": "Gatsibo", "tel": "No phone number"}, {"name": "Gatsibo Health Centre", "location": "Gatsibo", "tel": "No phone number"}, {"name": "Rutare Health Centre", "location": "Gatsibo", "tel": "No phone number"}, {"name": "Nyagihita Health Centre", "location": "Gatsibo", "tel": "No phone number"}, {"name": "Humura Health Centre", "location": "Gatsibo", "tel": "No phone number"}, {"name": "Nyagasambu Health Centre", "location": "Gatsibo", "tel": "No phone number"}]