[{"name": "Nyabikenke Health Center", "location": "Muhanga", "tel": "No phone number"}, {"name": "Nyabindi Health Center", "location": "Muhanga", "tel": "No phone number"}, {"name": "Mushishiro Health Centre", "location": "Muhanga", "tel": "No phone number"}, {"name": "Kabgayi Health Centre", "location": "Muhanga", "tel": "No phone number"}, {"name": "Gasagara Health Centre", "location": "Muhanga", "tel": "No phone number"}, {"name": "Gasovu Health Centre", "location": "Muhanga", "tel": "No phone number"}, {"name": "Shyogwe Health Centre", "location": "Muhanga", "tel": "No phone number"}, {"name": "Kibyimba Health Centre", "location": "Muhanga", "tel": "No phone number"}, {"name": "Gitega Health Centre", "location": "Muhanga", "tel": "No phone number"}, {"name": "Birehe Health Centre", "location": "Muhanga", "tel": "No phone number"}, {"name": "Nyange Health Centre", "location": "Muhanga", "tel": "No phone number"}, {"name": "Buramba Health Centre", "location": "Muhanga", "tel": "No phone number"}, {"name": "Cyanza Health Centre", "location": "Muhanga", "tel": "No phone number"}, {"name": "Gishweru Health Centre", "location": "Muhanga", "tel": "No phone number"}, {"name": "Health Center De Cyakabiri", "location": "Muhanga", "tel": "No phone number"}, {"name": "Buhoro Health Centre", "location": "Muhanga", "tel": "No phone number"}, {"name": "Kiziguro Health Centre", "location": "Muhanga", "tel": "No phone number"}, {"name": "Kayenzi Health Center", "location": "Muhanga", "tel": "No phone number"}, {"name": "Nyagahimba Health Center", "location": "Muhanga", "tel": "No phone number"}, {"name": "Gitarama Health Centre", "location": "Muhanga", "tel": "No phone number"}, {"name": "Ruli Health Center", "location": "Muhanga", "tel": "No phone number"}, {"name": "Mbuye Health Centre", "location": "Muhanga", "tel": "No phone number"}]