[{"name": "Birembo Health Center", "location": "Nyabihu", "tel": "No phone number"}, {"name": "Nyakiriba Health Center", "location": "Nyabihu", "tel": "0782095560"}, {"name": "Rambura Health Center", "location": "Nyabihu", "tel": "No phone number"}, {"name": "Nyakinama Health Center", "location": "Nyabihu", "tel": "No phone number"}, {"name": "Mwiyanike Health Center", "location": "Nyabihu", "tel": "No phone number"}, {"name": "Gakamba Health Center", "location": "Nyabihu", "tel": "No phone number"}, {"name": "Kabatwa Health Center", "location": "Nyabihu", "tel": "No phone number"}, {"name": "Rurembo Health Centre", "location": "Nyabihu", "tel": "No phone number"}, {"name": "Jomba Health Center", "location": "Nyabihu", "tel": "No phone number"}, {"name": "Rwankeri Health Centre", "location": "Nyabihu", "tel": "No phone number"}, {"name": "Kora Health Center", "location": "Nyabihu", "tel": "No phone number"}, {"name": "Rubaya Health Centre", "location": "Nyabihu", "tel": "No phone number"}, {"name": "Byakiriba Health Centre", "location": "Nyabihu", "tel": "No phone number"}, {"name": "Arusha Health Center", "location": "Nyabihu", "tel": "No phone number"}, {"name": "Bugeshi Health Center", "location": "Nyabihu", "tel": "No phone number"}, {"name": "Busogo Health Center", "location": "Nyabihu", "tel": "No phone number"}, {"name": "Kareba Health Centre", "location": "Nyabihu", "tel": "No phone number"}, {"name": "Nyakigezi Health Centre", "location": "Nyabihu", "tel": "No phone number"}, {"name": "Kabere Health Center", "location": "Nyabihu", "tel": "No phone number"}, {"name": "Gatonde Health Center", "location": "Nyabihu", "tel": "No phone number"}, {"name": "Mudende Health Centre", "location": "Nyabihu", "tel": "No phone number"}, {"name": "Gataraga Health Center", "location": "Nyabihu", "tel": "No phone number"}, {"name": "Jomba Health Centre", "location": "Nyabihu", "tel": "No phone number"}]