[
  {
    "name": "Nyagatare Health Center",
    "location": "Nyagatare",
    "tel": "No phone number"
  },
  {
    "name": "Cyabayaga Health Centre",
    "location": "Nyagatare",
    "tel": "No phone number"
  },
  {
    "name": "Nyakigando Health Centre",
    "location": "Nyagatare",
    "tel": "No phone number"
  },
  {
    "name": "Nyendo Health Centre",
    "location": "Nyagatare",
    "tel": "No phone number"
  },
  {
    "name": "Karambi Health Center",
    "location": "Nyagatare",
    "tel": "No phone number"
  },
  {
    "name": "Kagitumba Health Center",
    "location": "Nyagatare",
    "tel": "No phone number"
  },
  {
    "name": "Kabuga Health Centre",
    "location": "Nyagatare",
    "tel": "No phone number"
  },
  {
    "name": "Kanyundo Health Center",
    "location": "Nyagatare",
    "tel": "No phone number"
  },
  {
    "name": "Muhambo Health Centre",
    "location": "Nyagatare",
    "tel": "No phone number"
  },
  {
    "name": "Ndama Health Center",
    "location": "Nyagatare",
    "tel": "No phone number"
  },
  {
    "name": "Nyagihita Health Centre",
    "location": "Nyagatare",
    "tel": "No phone number"
  },
  {
    "name": "Rwenjara Health Center",
    "location": "Nyagatare",
    "tel": "No phone number"
  },
  {
    "name": "Katabagemu Health Centre",
    "location": "Nyagatare",
    "tel": "No phone number"
  }
]
