[{"name": "Nyanza health center", "location": "Nyanza", "tel": "No phone number"}, {"name": "Gishike Health Centre", "location": "Nyanza", "tel": "No phone number"}, {"name": "Nyamure Health Centre", "location": "Nyanza", "tel": "No phone number"}, {"name": "Gashikiri Health Centre", "location": "Nyanza", "tel": "No phone number"}, {"name": "Mucubira Health Centre", "location": "Nyanza", "tel": "No phone number"}, {"name": "Gitwe Health Centre", "location": "Nyanza", "tel": "No phone number"}, {"name": "Nyarurama Health Centre", "location": "Nyanza", "tel": "No phone number"}, {"name": "Muyunzwe Health Centre", "location": "Nyanza", "tel": "No phone number"}, {"name": "Busoro Health Centre", "location": "Nyanza", "tel": "No phone number"}, {"name": "Mweya Health Centre", "location": "Nyanza", "tel": "No phone number"}, {"name": "Kizibere Health Centre", "location": "Nyanza", "tel": "No phone number"}, {"name": "Kinazi Health Centre", "location": "Nyanza", "tel": "No phone number"}, {"name": "Gishweru Health Centre", "location": "Nyanza", "tel": "No phone number"}, {"name": "Mukoma Health Centre", "location": "Nyanza", "tel": "No phone number"}, {"name": "Cyeru Health Centre", "location": "Nyanza", "tel": "No phone number"}, {"name": "Muremure Health Centre", "location": "Nyanza", "tel": "No phone number"}, {"name": "Ruhuka Health Post", "location": "Nyanza", "tel": "No phone number"}]