[{"name": "Rutonde Health Center", "location": "Rulindo", "tel": "No phone number"}, {"name": "Buyoga Health Center", "location": "Rulindo", "tel": "No phone number"}, {"name": "Muyanza Health Center", "location": "Rulindo", "tel": "No phone number"}, {"name": "Shyorongi Health Center", "location": "Rulindo", "tel": "No phone number"}, {"name": "Kanyinya Health Centre", "location": "Rulindo", "tel": "No phone number"}, {"name": "Masoro Health Centre", "location": "Rulindo", "tel": "No phone number"}, {"name": "Muhondo Health Center", "location": "Rulindo", "tel": "No phone number"}, {"name": "Kabuga Health Center", "location": "Rulindo", "tel": "No phone number"}, {"name": "UBUVUZI GAKONDO", "location": "Rulindo", "tel": "0782506955"}, {"name": "Health Center", "location": "Rulindo", "tel": "No phone number"}, {"name": "Byumba Health Centre", "location": "Rulindo", "tel": "No phone number"}, {"name": "Rwahi Health Centre", "location": "Rulindo", "tel": "No phone number"}, {"name": "Kiyanza Health Centre", "location": "Rulindo", "tel": "No phone number"}, {"name": "Centre de Sant\u00e9 de Remera", "location": "Rulindo", "tel": "0785119102"}, {"name": "Karangara Health Center", "location": "Rulindo", "tel": "No phone number"}, {"name": "Kinihira Health Centre", "location": "Rulindo", "tel": "No phone number"}, {"name": "Kajevuba Health Centre", "location": "Rulindo", "tel": "No phone number"}, {"name": "Jali Health Centre", "location": "Rulindo", "tel": "No phone number"}, {"name": "Muyove Health Centre", "location": "Rulindo", "tel": "No phone number"}, {"name": "Murambi Health Centre", "location": "Rulindo", "tel": "No phone number"}, {"name": "Tumba Health Centre", "location": "Rulindo", "tel": "No phone number"}, {"name": "Base Health Centre", "location": "Rulindo", "tel": "No phone number"}, {"name": "Nyacyonga Health Centre", "location": "Rulindo", "tel": "No phone number"}, {"name": "Gihara Health Center", "location": "Rulindo", "tel": "No phone number"}]