[{"name": "Rusizi Health Centre", "location": "Rusizi", "tel": "No phone number"}, {"name": "Nkanka Health Center", "location": "Rusizi", "tel": "No phone number"}, {"name": "Nyabitimbo Health Centre", "location": "Rusizi", "tel": "No phone number"}, {"name": "Bweyeye Health Centre", "location": "Rusizi", "tel": "No phone number"}, {"name": "Nkungu Health Centre", "location": "Rusizi", "tel": "No phone number"}, {"name": "Gihundwe Health Centre", "location": "Rusizi", "tel": "No phone number"}, {"name": "Mashesha Health Centre", "location": "Rusizi", "tel": "No phone number"}, {"name": "Nkombo Health Centre", "location": "Rusizi", "tel": "No phone number"}, {"name": "Nyakarenzo Health Centre", "location": "Rusizi", "tel": "No phone number"}, {"name": "Bugarama Health Centre", "location": "Rusizi", "tel": "No phone number"}, {"name": "Rasano Health Centre", "location": "Rusizi", "tel": "No phone number"}, {"name": "Gasumo Health Centre", "location": "Rusizi", "tel": "No phone number"}, {"name": "Kamatita Health Centre", "location": "Rusizi", "tel": "No phone number"}, {"name": "Mubirizi Health Centre", "location": "Rusizi", "tel": "No phone number"}, {"name": "Tara Health Centre", "location": "Rusizi", "tel": "No phone number"}, {"name": "Gahungeri Health Centre", "location": "Rusizi", "tel": "No phone number"}, {"name": "Mwenzi Health Centre", "location": "Rusizi", "tel": "No phone number"}, {"name": "Mushaka Health Center", "location": "Rusizi", "tel": "0783188102"}, {"name": "Health Center De Kalagane", "location": "Rusizi", "tel": "No phone number"}, {"name": "Gisakura Health Centre", "location": "Rusizi", "tel": "No phone number"}, {"name": "Cimerwa Health Centre", "location": "Rusizi", "tel": "No phone number"}]