[{"name": "Bugesera District Hospital\"ADEPR Hospital\"", "location": "Bugesera", "tel": "No phone number"}, {"name": "Nyamata Hospital", "location": "Bugesera", "tel": "No phone number"}, {"name": "Kibenga Health Post", "location": "Bugesera", "tel": "No phone number"}, {"name": "Mareba Health Centre", "location": "Bugesera", "tel": "No phone number"}, {"name": "Muyange Health Centre", "location": "Bugesera", "tel": "No phone number"}, {"name": "Mazane Health Center", "location": "Bugesera", "tel": "No phone number"}, {"name": "Centre Chirurgie Orthop\u00e9dique P\u00e9diatrique Et R\u00e9habilitation, Sainte Marie Rilima", "location": "Bugesera", "tel": "0783312831"}, {"name": "Gihinga Health Centre", "location": "Bugesera", "tel": "No phone number"}, {"name": "Rango Health Post", "location": "Bugesera", "tel": "No phone number"}, {"name": "Rwanda Military Hospital", "location": "Bugesera", "tel": "No phone number"}, {"name": "University Teaching Hospital of Kigali", "location": "Bugesera", "tel": "No phone number"}, {"name": "La Croix du Sud Hospital", "location": "Bugesera", "tel": "0785246882"}, {"name": "Masaka Hospital", "location": "Bugesera", "tel": "0728878194"}, {"name": "Inkuru Nziza Orthopedic Hospital", "location": "Bugesera", "tel": "0788528238"}, {"name": "Rwanda Military Hospital", "location": "Bugesera", "tel": "No phone number"}, {"name": "King Faisal Hospital", "location": "Bugesera", "tel": "0788384877"}, {"name": "Yashoda Hospitals Medical Information Centre", "location": "Bugesera", "tel": "No phone number"}]