[{"name": "Burera District Hospital", "location": "Burera", "tel": "No phone number"}, {"name": "Poste De Sant\u00e9 De Birwa", "location": "Burera", "tel": "No phone number"}, {"name": "Gaseke Health Post", "location": "Burera", "tel": "No phone number"}, {"name": "Bungwe Health Post", "location": "Burera", "tel": "No phone number"}, {"name": "Karwasa Health Centre", "location": "Burera", "tel": "No phone number"}, {"name": "Gasakuza Health Post", "location": "Burera", "tel": "No phone number"}, {"name": "Musenda Health Post", "location": "Burera", "tel": "No phone number"}, {"name": "Kivuye Health Centre", "location": "Burera", "tel": "No phone number"}, {"name": "Ruhunde Health Centre", "location": "Burera", "tel": "No phone number"}, {"name": "Gaseke Health Post", "location": "Burera", "tel": "No phone number"}, {"name": "Gitare Health Centre", "location": "Burera", "tel": "No phone number"}, {"name": "Kinyababa Health Center", "location": "Burera", "tel": "No phone number"}, {"name": "Kabyiniro Health Centre", "location": "Burera", "tel": "No phone number"}, {"name": "Rwerere Health Centre", "location": "Burera", "tel": "No phone number"}, {"name": "Ntaruka Health Centre", "location": "Burera", "tel": "No phone number"}, {"name": "Kamubuga Health Post", "location": "Burera", "tel": "No phone number"}, {"name": "Nyamuguri Health Centre", "location": "Burera", "tel": "No phone number"}, {"name": "Rugarama Health Centre", "location": "Burera", "tel": "No phone number"}, {"name": "Mutara Health Centre", "location": "Burera", "tel": "No phone number"}, {"name": "Kumaya heath center", "location": "Burera", "tel": "No phone number"}]