[{"name": "Nemba Hospital", "location": "Gakenke", "tel": "No phone number"}, {"name": "Ruli District Hospital", "location": "Gakenke", "tel": "No phone number"}, {"name": "Shyira Hospital", "location": "Gakenke", "tel": "0788561751"}, {"name": "Rwankuba Health Centre", "location": "Gakenke", "tel": "No phone number"}, {"name": "Rutake Health Centre", "location": "Gakenke", "tel": "No phone number"}, {"name": "Nemba hospital", "location": "Gakenke", "tel": "No phone number"}, {"name": "Karambo Health Centre", "location": "Gakenke", "tel": "No phone number"}, {"name": "Minazi Health Post", "location": "Gakenke", "tel": "No phone number"}, {"name": "Birehe Health Centre", "location": "Gakenke", "tel": "No phone number"}, {"name": "Rushoka Health Centre", "location": "Gakenke", "tel": "No phone number"}, {"name": "SHYIRA HOSPITAL", "location": "Gakenke", "tel": "No phone number"}, {"name": "Rutenderi Health Centre", "location": "Gakenke", "tel": "No phone number"}, {"name": "Rwahi Health Centre", "location": "Gakenke", "tel": "No phone number"}, {"name": "Busengo Health Centre", "location": "Gakenke", "tel": "No phone number"}, {"name": "Butare Health Post", "location": "Gakenke", "tel": "No phone number"}, {"name": "Mataba Health Centre", "location": "Gakenke", "tel": "No phone number"}, {"name": "Buyange Health Post", "location": "Gakenke", "tel": "No phone number"}, {"name": "Maternity building", "location": "Gakenke", "tel": "No phone number"}, {"name": "Kamubuga Health Post", "location": "Gakenke", "tel": "No phone number"}, {"name": "Bumba Health Post", "location": "Gakenke", "tel": "No phone number"}, {"name": "Byakiriba Health Centre", "location": "Gakenke", "tel": "No phone number"}, {"name": "Vunga Health Post", "location": "Gakenke", "tel": "No phone number"}, {"name": "Nganzo Health Post", "location": "Gakenke", "tel": "No phone number"}, {"name": "Nyundo Health Centre", "location": "Gakenke", "tel": "No phone number"}, {"name": "Rusororo Health Centre", "location": "Gakenke", "tel": "No phone number"}, {"name": "Tare Hospital", "location": "Gakenke", "tel": "No phone number"}, {"name": "Ngeru Health Post", "location": "Gakenke", "tel": "No phone number"}, {"name": "Janja Health Centre", "location": "Gakenke", "tel": "No phone number"}, {"name": "Rukura Health Centre", "location": "Gakenke", "tel": "No phone number"}, {"name": "Rushashi Health Centre", "location": "Gakenke", "tel": "No phone number"}, {"name": "Nyakigezi Health Centre", "location": "Gakenke", "tel": "No phone number"}, {"name": "New Vision Veterinary Hospital", "location": "Gakenke", "tel": "0781204364"}, {"name": "Nyamuguri Health Centre", "location": "Gakenke", "tel": "No phone number"}, {"name": "Gasagara Health Centre", "location": "Gakenke", "tel": "No phone number"}]