[{"name": "University Teaching Hospital of Kigali", "location": "Gasabo", "tel": "No phone number"}, {"name": "King Faisal Hospital", "location": "Gasabo", "tel": "0788384877"}, {"name": "Kibagabaga Hospital", "location": "Gasabo", "tel": "0788732945"}, {"name": "Ejo Heza Clinic", "location": "Gasabo", "tel": "0785845994"}, {"name": "La Croix du Sud Hospital", "location": "Gasabo", "tel": "0785246882"}, {"name": "Baho International Hospital", "location": "Gasabo", "tel": "0782343710"}, {"name": "Baho Medical Center", "location": "Gasabo", "tel": "0788564753"}, {"name": "Muhima Hospital", "location": "Gasabo", "tel": "0728283887"}, {"name": "Rwanda Military Hospital", "location": "Gasabo", "tel": "No phone number"}, {"name": "Deva Medical Center", "location": "Gasabo", "tel": "0788333111"}, {"name": "Omega Hospital", "location": "Gasabo", "tel": "No phone number"}, {"name": "TTP hospital", "location": "Gasabo", "tel": "0786317897"}, {"name": "Ivuriro Polyfam", "location": "Gasabo", "tel": "0784161745"}, {"name": "Polyclinique La Medicale (Dr Kanimba Hospital)", "location": "Gasabo", "tel": "0788305661"}, {"name": "Kacyiru Hospital", "location": "Gasabo", "tel": "0785061906"}, {"name": "Advanced Dental Centre Remera", "location": "Gasabo", "tel": "0783013034"}, {"name": "Avega Kigali", "location": "Gasabo", "tel": "No phone number"}, {"name": "NEW VISION Veterinary Hospital Outpost", "location": "Gasabo", "tel": "0780836952"}, {"name": "Yashoda Hospitals Medical Information Centre", "location": "Gasabo", "tel": "No phone number"}, {"name": "Nyiranuma Healthcentre", "location": "Gasabo", "tel": "No phone number"}, {"name": "HOPITAL LA CROIX DU SUD KWA NYIRINKWAYA", "location": "Gasabo", "tel": "0785246882"}, {"name": "Muslims New Hospital", "location": "Gasabo", "tel": "No phone number"}, {"name": "Hospital", "location": "Gasabo", "tel": "No phone number"}, {"name": "Le Bon Samaritan Polyclinique", "location": "Gasabo", "tel": "No phone number"}, {"name": "Rwanda Military Hospital", "location": "Gasabo", "tel": "No phone number"}, {"name": "Centre de Sante Kimirono", "location": "Gasabo", "tel": "No phone number"}, {"name": "Masaka Hospital", "location": "Gasabo", "tel": "0728878194"}, {"name": "Icyizere Psychotherapeutic Center", "location": "Gasabo", "tel": "0783375550"}, {"name": "PET VETERINARY AND PET SHOP KIGALI RWANDA", "location": "Gasabo", "tel": "0788843318"}, {"name": "Legacy Clinics", "location": "Gasabo", "tel": "0788382000"}, {"name": "RAPHA Medical Clinic", "location": "Gasabo", "tel": "0788679290"}, {"name": "Medicus, Humunus", "location": "Gasabo", "tel": "No phone number"}, {"name": "HOSPITAL -UBUZIMA POLYCLINIC", "location": "Gasabo", "tel": "No phone number"}, {"name": "Centre Medical Orkide", "location": "Gasabo", "tel": "No phone number"}, {"name": "Kigali Ivf And Fertility Clinic", "location": "Gasabo", "tel": "No phone number"}, {"name": "Neza Health Post", "location": "Gasabo", "tel": "No phone number"}, {"name": "PRIMO Clinic", "location": "Gasabo", "tel": "No phone number"}, {"name": "Medicus Humanus Clinic", "location": "Gasabo", "tel": "0788340264"}, {"name": "Inkuru Nziza Orthopedic Hospital", "location": "Gasabo", "tel": "0788528238"}, {"name": "Kigali Dermatology Center", "location": "Gasabo", "tel": "0782742943"}, {"name": "Gikomero Health Centre", "location": "Gasabo", "tel": "No phone number"}, {"name": "Rubungo Health Centre", "location": "Gasabo", "tel": "No phone number"}, {"name": "Ngiryi Health Post", "location": "Gasabo", "tel": "No phone number"}, {"name": "Polyclinique du Carrefour", "location": "Gasabo", "tel": "0784840500"}, {"name": "Polyclinique M\u00e9dico-Sociale", "location": "Gasabo", "tel": "No phone number"}, {"name": "Karuruma Hospital", "location": "Gasabo", "tel": "No phone number"}, {"name": "Silowamu Medical Clinic", "location": "Gasabo", "tel": "0789403022"}, {"name": "Veterinary", "location": "Gasabo", "tel": "0788843318"}, {"name": "Gikondo Health Centre", "location": "Gasabo", "tel": "No phone number"}, {"name": "PolyClinique du carrefour", "location": "Gasabo", "tel": "0784840500"}, {"name": "Dr. Jhon Cloths,", "location": "Gasabo", "tel": "No phone number"}, {"name": "BETSAIDA Clinic", "location": "Gasabo", "tel": "No phone number"}, {"name": "HVP/Gatenga-Gikondo", "location": "Gasabo", "tel": "No phone number"}, {"name": "Asha Medical Services (Manipal Group of Hospitals)", "location": "Gasabo", "tel": "No phone number"}, {"name": "HEALTHCARE PHARMACY", "location": "Gasabo", "tel": "0788872220"}, {"name": "Bweramvura Health Post", "location": "Gasabo", "tel": "No phone number"}, {"name": "Izere Health Post", "location": "Gasabo", "tel": "No phone number"}, {"name": "St peter biomedical laboratories clinic", "location": "Gasabo", "tel": "0788672818"}, {"name": "Kajevuba Health Centre", "location": "Gasabo", "tel": "No phone number"}, {"name": "Nanuri Medical Center", "location": "Gasabo", "tel": "0782720337"}, {"name": "Projet San Francisco", "location": "Gasabo", "tel": "No phone number"}, {"name": "BEATRICE POLYCLINIC", "location": "Gasabo", "tel": "No phone number"}, {"name": "Dynapharm Rwanda", "location": "Gasabo", "tel": "0782816888"}, {"name": "Jali Health Centre", "location": "Gasabo", "tel": "No phone number"}, {"name": "Impuhwe Health Post", "location": "Gasabo", "tel": "No phone number"}, {"name": "IBN-Sinai", "location": "Gasabo", "tel": "No phone number"}, {"name": "Heritage Medical Park", "location": "Gasabo", "tel": "0788344613"}, {"name": "Imirasire Youth Clinic Laboratory", "location": "Gasabo", "tel": "No phone number"}, {"name": "Polyclinic Du Bon Berger", "location": "Gasabo", "tel": "No phone number"}, {"name": "King Faisal Hospital - Kigali", "location": "Gasabo", "tel": "0788384877"}, {"name": "Polyclinique Saint Jean", "location": "Gasabo", "tel": "0786635315"}, {"name": "Soeurs Des Anges", "location": "Gasabo", "tel": "No phone number"}, {"name": "NKOTO HP", "location": "Gasabo", "tel": "No phone number"}, {"name": "LEGACY DIAGNOSTICS LAB", "location": "Gasabo", "tel": "No phone number"}, {"name": "WIWO Hospital", "location": "Gasabo", "tel": "0733444444"}, {"name": "Nyampeta Ladislas", "location": "Gasabo", "tel": "No phone number"}, {"name": "VPDD", "location": "Gasabo", "tel": "No phone number"}, {"name": "Sainte Cecile Health Post", "location": "Gasabo", "tel": "No phone number"}, {"name": "Rutongo Hospital", "location": "Gasabo", "tel": "0784085503"}, {"name": "Impuhwe Health Pussy", "location": "Gasabo", "tel": "No phone number"}, {"name": "BAZA MUGANGA", "location": "Gasabo", "tel": "0722198296"}, {"name": "La Divine", "location": "Gasabo", "tel": "No phone number"}, {"name": "Minas Medical Center", "location": "Gasabo", "tel": "No phone number"}, {"name": "Proposed General hospital", "location": "Gasabo", "tel": "No phone number"}, {"name": "Muyumba Health Centre", "location": "Gasabo", "tel": "No phone number"}, {"name": "Dr. Agarwal's Eye Hospital, Kigali", "location": "Gasabo", "tel": "0787303743"}, {"name": "Kanombe Hospital", "location": "Gasabo", "tel": "No phone number"}, {"name": "VIVA CLINIC Masaka", "location": "Gasabo", "tel": "0788357735"}, {"name": "Rwesero Health Centre", "location": "Gasabo", "tel": "No phone number"}, {"name": "Village Amahumbezi", "location": "Gasabo", "tel": "No phone number"}, {"name": "Remera-Rukoma Hospital", "location": "Gasabo", "tel": "No phone number"}, {"name": "Ejo Heza Surgical Center", "location": "Gasabo", "tel": "No phone number"}, {"name": "Nzove Health Post", "location": "Gasabo", "tel": "No phone number"}, {"name": "Horebu Medical Clinic", "location": "Gasabo", "tel": "No phone number"}, {"name": "Caraes Neuropsychiatric Hospital Ndera", "location": "Gasabo", "tel": "0788827364"}, {"name": "Kiyanza Health Centre", "location": "Gasabo", "tel": "No phone number"}, {"name": "Rukoma Health Centre", "location": "Gasabo", "tel": "No phone number"}, {"name": "Giti Health Centre", "location": "Gasabo", "tel": "No phone number"}, {"name": "Masaka Hospital", "location": "Gasabo", "tel": "No phone number"}, {"name": "Nyarugenge Health Center", "location": "Gasabo", "tel": "No phone number"}]