[{"name": "Kiziguro Hospital", "location": "Gatsibo", "tel": "No phone number"}, {"name": "Ngarama Hospital", "location": "Gatsibo", "tel": "No phone number"}, {"name": "Gitoki Health Centre", "location": "Gatsibo", "tel": "No phone number"}, {"name": "Nyabiheke Health Centre", "location": "Gatsibo", "tel": "No phone number"}, {"name": "Cyamuhanda", "location": "Gatsibo", "tel": "No phone number"}, {"name": "Nyabisindu Health Post", "location": "Gatsibo", "tel": "No phone number"}, {"name": "Kibondo Health Centre", "location": "Gatsibo", "tel": "No phone number"}, {"name": "Humure Health Centre", "location": "Gatsibo", "tel": "No phone number"}, {"name": "Nyamatete Health Centre", "location": "Gatsibo", "tel": "No phone number"}, {"name": "Urukundo Health Post", "location": "Gatsibo", "tel": "No phone number"}, {"name": "Ryamanyoni Health Center", "location": "Gatsibo", "tel": "No phone number"}, {"name": "Mayange Health Post", "location": "Gatsibo", "tel": "No phone number"}, {"name": "Musenyi Health Post", "location": "Gatsibo", "tel": "No phone number"}, {"name": "Nyagahanga Health Centre", "location": "Gatsibo", "tel": "No phone number"}, {"name": "Hunga Health Post", "location": "Gatsibo", "tel": "No phone number"}, {"name": "Nyagihita Health Centre", "location": "Gatsibo", "tel": "No phone number"}, {"name": "Mimuli Health Centre", "location": "Gatsibo", "tel": "No phone number"}, {"name": "Muhambo Health Center", "location": "Gatsibo", "tel": "No phone number"}, {"name": "Ruhunda Health Center", "location": "Gatsibo", "tel": "No phone number"}, {"name": "gitoki health centre", "location": "Gatsibo", "tel": "No phone number"}, {"name": "Bataba Health Centre", "location": "Gatsibo", "tel": "No phone number"}, {"name": "Murambi Health Centre", "location": "Gatsibo", "tel": "No phone number"}, {"name": "Gisiza Health Centre", "location": "Gatsibo", "tel": "No phone number"}, {"name": "Giti Health Centre", "location": "Gatsibo", "tel": "No phone number"}]