[{"name": "University Teaching Hospital of Butare (CHUB)", "location": "Huye", "tel": "0788300952"}, {"name": "Matyazo Health Centre", "location": "Huye", "tel": "0788000000"}, {"name": "Kabutare Hospital", "location": "Huye", "tel": "No phone number"}, {"name": "Rukira Health Centre", "location": "Huye", "tel": "No phone number"}, {"name": "University Central Hospital of Butare", "location": "Huye", "tel": "No phone number"}, {"name": "Surgery dept.", "location": "Huye", "tel": "No phone number"}, {"name": "Police Clinic", "location": "Huye", "tel": "No phone number"}, {"name": "Kabutare", "location": "Huye", "tel": "No phone number"}, {"name": "Maternity", "location": "Huye", "tel": "No phone number"}, {"name": "National Centre for Blood Transfusion", "location": "Huye", "tel": "0722201309"}, {"name": "Laboratoire Universitaire", "location": "Huye", "tel": "No phone number"}, {"name": "Pediatrics Dept", "location": "Huye", "tel": "No phone number"}, {"name": "Simbi Health Centre", "location": "Huye", "tel": "No phone number"}, {"name": "Ruhashya Health Post", "location": "Huye", "tel": "No phone number"}, {"name": "Bukomeye Health Post", "location": "Huye", "tel": "No phone number"}, {"name": "Kinyamakara Health Centre", "location": "Huye", "tel": "No phone number"}, {"name": "Edson Gidion", "location": "Huye", "tel": "No phone number"}, {"name": "Ngera Health Centre", "location": "Huye", "tel": "No phone number"}, {"name": "Rwaniro Health Center", "location": "Huye", "tel": "No phone number"}, {"name": "MUKURA HEALTH CENTER/HUYE", "location": "Huye", "tel": "0785152912"}]