[{"name": "Remera-Rukoma Hospital", "location": "Kamonyi", "tel": "No phone number"}, {"name": "Rukoma Health Centre", "location": "Kamonyi", "tel": "No phone number"}, {"name": "Ruli District Hospital", "location": "Kamonyi", "tel": "No phone number"}, {"name": "Musumbira Health Center", "location": "Kamonyi", "tel": "No phone number"}, {"name": "Kivumu Health Center", "location": "Kamonyi", "tel": "No phone number"}, {"name": "Nyamiyaga Health Centre", "location": "Kamonyi", "tel": "No phone number"}, {"name": "Rutobwe Health Post", "location": "Kamonyi", "tel": "No phone number"}, {"name": "Ngoma Health Post", "location": "Kamonyi", "tel": "No phone number"}, {"name": "Rwahi Health Centre", "location": "Kamonyi", "tel": "No phone number"}, {"name": "Bugoba Health Post", "location": "Kamonyi", "tel": "No phone number"}, {"name": "Rwanda Charity Eye Hospital", "location": "Kamonyi", "tel": "0782256252"}, {"name": "Mbuye Health Centre", "location": "Kamonyi", "tel": "No phone number"}, {"name": "Nzove Health Post", "location": "Kamonyi", "tel": "No phone number"}, {"name": "Jali Health Centre", "location": "Kamonyi", "tel": "No phone number"}, {"name": "University Teaching Hospital of Kigali", "location": "Kamonyi", "tel": "No phone number"}, {"name": "Kabgayi Hospital", "location": "Kamonyi", "tel": "No phone number"}, {"name": "Muhima Hospital", "location": "Kamonyi", "tel": "0728283887"}, {"name": "Gitarama Health Centre", "location": "Kamonyi", "tel": "No phone number"}, {"name": "Cyanza Health Centre", "location": "Kamonyi", "tel": "No phone number"}, {"name": "Polyclinique La Medicale (Dr Kanimba Hospital)", "location": "Kamonyi", "tel": "0788305661"}, {"name": "King Faisal Hospital", "location": "Kamonyi", "tel": "0788384877"}, {"name": "Inkuru Nziza Orthopedic Hospital", "location": "Kamonyi", "tel": "0788528238"}, {"name": "Ejo Heza Clinic", "location": "Kamonyi", "tel": "0785845994"}]