[{"name": "Karongi Hospital", "location": "Karongi", "tel": "No phone number"}, {"name": "Mpembe health centre", "location": "Karongi", "tel": "No phone number"}, {"name": "Mugonero Hospital", "location": "Karongi", "tel": "No phone number"}, {"name": "Kirinda District Hospital", "location": "Karongi", "tel": "0788394927"}, {"name": "Mubuga Health Centre", "location": "Karongi", "tel": "No phone number"}, {"name": "Gatwaro Health Centre", "location": "Karongi", "tel": "No phone number"}, {"name": "Munzanga Health Centre", "location": "Karongi", "tel": "No phone number"}, {"name": "Bubazi Health Centre", "location": "Karongi", "tel": "No phone number"}, {"name": "Gisovu Health Centre", "location": "Karongi", "tel": "No phone number"}, {"name": "Mahembe Health Centre", "location": "Karongi", "tel": "No phone number"}, {"name": "Karambo Health Centre", "location": "Karongi", "tel": "No phone number"}, {"name": "Muremure Health Centre", "location": "Karongi", "tel": "No phone number"}, {"name": "Birambo Health Centre", "location": "Karongi", "tel": "No phone number"}, {"name": "Rugabano Health Centre", "location": "Karongi", "tel": "No phone number"}, {"name": "E.S. Mubuga", "location": "Karongi", "tel": "No phone number"}, {"name": "Bisesero Health Centre", "location": "Karongi", "tel": "No phone number"}, {"name": "Police Clinic", "location": "Karongi", "tel": "No phone number"}, {"name": "Mwendo Health Centre", "location": "Karongi", "tel": "No phone number"}, {"name": "Mugano Health Centre", "location": "Karongi", "tel": "No phone number"}, {"name": "Kavumu Health Post", "location": "Karongi", "tel": "No phone number"}, {"name": "Mukungu Health Centre", "location": "Karongi", "tel": "No phone number"}, {"name": "Nyange II Health Centre", "location": "Karongi", "tel": "No phone number"}, {"name": "Karora Health Centre", "location": "Karongi", "tel": "No phone number"}, {"name": "Rufungo Health Centre", "location": "Karongi", "tel": "No phone number"}, {"name": "Biguhu Health Centre", "location": "Karongi", "tel": "No phone number"}, {"name": "Nyarwungo Health Centre", "location": "Karongi", "tel": "No phone number"}, {"name": "Mukura Health Centre", "location": "Karongi", "tel": "No phone number"}, {"name": "Buhoro Health Centre", "location": "Karongi", "tel": "No phone number"}, {"name": "Mushubati Health Centre", "location": "Karongi", "tel": "No phone number"}, {"name": "Murambi Health Centre", "location": "Karongi", "tel": "No phone number"}, {"name": "Bigugu Health Center", "location": "Karongi", "tel": "No phone number"}, {"name": "Musango Health Centre", "location": "Karongi", "tel": "No phone number"}, {"name": "Muyunzwe Health Centre", "location": "Karongi", "tel": "No phone number"}, {"name": "Gishweru Health Centre", "location": "Karongi", "tel": "No phone number"}]