[{"name": "Rwinkwavu Hospital", "location": "Kayonza", "tel": "0785287160"}, {"name": "Nyamirama Health Center", "location": "Kayonza", "tel": "No phone number"}, {"name": "Rutare Health Center", "location": "Kayonza", "tel": "No phone number"}, {"name": "Rwamagana Hospital", "location": "Kayonza", "tel": "No phone number"}, {"name": "Ruramira Health Center", "location": "Kayonza", "tel": "No phone number"}, {"name": "Rwamagana Health Centre", "location": "Kayonza", "tel": "No phone number"}, {"name": "Nyakabungo Health Center", "location": "Kayonza", "tel": "No phone number"}, {"name": "Rundu Health Post", "location": "Kayonza", "tel": "No phone number"}, {"name": "Ryamanyoni Health Center", "location": "Kayonza", "tel": "No phone number"}, {"name": "Buhabwa Health Center", "location": "Kayonza", "tel": "No phone number"}, {"name": "Nyamirama Health Center", "location": "Kayonza", "tel": "No phone number"}, {"name": "Gahini Health Centre", "location": "Kayonza", "tel": "No phone number"}, {"name": "Karama Health Centre", "location": "Kayonza", "tel": "No phone number"}, {"name": "Gishanda Health Post", "location": "Kayonza", "tel": "No phone number"}, {"name": "Bahubwa Health Centre", "location": "Kayonza", "tel": "No phone number"}]