[{"name": "Icyizere Psychotherapeutic Center", "location": "Kicukiro", "tel": "0783375550"}, {"name": "Impuhwe Health Post", "location": "Kicukiro", "tel": "No phone number"}, {"name": "BETSAIDA Clinic", "location": "Kicukiro", "tel": "No phone number"}, {"name": "Izere Health Post", "location": "Kicukiro", "tel": "No phone number"}, {"name": "Yashoda Hospitals Medical Information Centre", "location": "Kicukiro", "tel": "No phone number"}, {"name": "PolyClinique du carrefour", "location": "Kicukiro", "tel": "0784840500"}, {"name": "La Croix du Sud Hospital", "location": "Kicukiro", "tel": "0785246882"}, {"name": "Polyclinique du Carrefour", "location": "Kicukiro", "tel": "0784840500"}, {"name": "King Faisal Hospital", "location": "Kicukiro", "tel": "0788384877"}, {"name": "Projet San Francisco", "location": "Kicukiro", "tel": "No phone number"}, {"name": "University Teaching Hospital of Kigali", "location": "Kicukiro", "tel": "No phone number"}, {"name": "Inkuru Nziza Orthopedic Hospital", "location": "Kicukiro", "tel": "0788528238"}, {"name": "Ivuriro Polyfam", "location": "Kicukiro", "tel": "0784161745"}, {"name": "Gikondo Health Centre", "location": "Kicukiro", "tel": "No phone number"}, {"name": "Le Bon Samaritan Polyclinique", "location": "Kicukiro", "tel": "No phone number"}, {"name": "TTP hospital", "location": "Kicukiro", "tel": "0786317897"}, {"name": "VPDD", "location": "Kicukiro", "tel": "No phone number"}, {"name": "NEW VISION Veterinary Hospital Outpost", "location": "Kicukiro", "tel": "0780836952"}, {"name": "Avega Kigali", "location": "Kicukiro", "tel": "No phone number"}, {"name": "Baho International Hospital", "location": "Kicukiro", "tel": "0782343710"}, {"name": "HOPITAL LA CROIX DU SUD KWA NYIRINKWAYA", "location": "Kicukiro", "tel": "0785246882"}, {"name": "Kibagabaga Hospital", "location": "Kicukiro", "tel": "0788732945"}, {"name": "Deva Medical Center", "location": "Kicukiro", "tel": "0788333111"}, {"name": "Muslims New Hospital", "location": "Kicukiro", "tel": "No phone number"}, {"name": "Advanced Dental Centre Remera", "location": "Kicukiro", "tel": "0783013034"}, {"name": "Polyclinique La Medicale (Dr Kanimba Hospital)", "location": "Kicukiro", "tel": "0788305661"}, {"name": "Centre Medical Orkide", "location": "Kicukiro", "tel": "No phone number"}, {"name": "HVP/Gatenga-Gikondo", "location": "Kicukiro", "tel": "No phone number"}, {"name": "Muhima Hospital", "location": "Kicukiro", "tel": "0728283887"}, {"name": "Ejo Heza Clinic", "location": "Kicukiro", "tel": "0785845994"}]