[{"name": "Kabgayi Hospital", "location": "Muhanga", "tel": "No phone number"}, {"name": "Kabgayi District Hospital", "location": "Muhanga", "tel": "No phone number"}, {"name": "Muhororo Hospital", "location": "Muhanga", "tel": "No phone number"}, {"name": "Birehe Health Centre", "location": "Muhanga", "tel": "No phone number"}, {"name": "Ruhango Health Post", "location": "Muhanga", "tel": "No phone number"}, {"name": "Mushishiro Health Centre", "location": "Muhanga", "tel": "No phone number"}, {"name": "Kabgayi Health Centre", "location": "Muhanga", "tel": "No phone number"}, {"name": "Nyarusange Health Post", "location": "Muhanga", "tel": "No phone number"}, {"name": "Mount Ndiza", "location": "Muhanga", "tel": "No phone number"}, {"name": "Kibyimba Health Centre", "location": "Muhanga", "tel": "No phone number"}, {"name": "Cyeza Health Post", "location": "Muhanga", "tel": "No phone number"}, {"name": "Ngoma Health Post", "location": "Muhanga", "tel": "No phone number"}, {"name": "Kavumu Health Post", "location": "Muhanga", "tel": "No phone number"}, {"name": "Gasovu Health Centre", "location": "Muhanga", "tel": "No phone number"}, {"name": "Rutongo Health Post", "location": "Muhanga", "tel": "No phone number"}, {"name": "Gitarama Health Centre", "location": "Muhanga", "tel": "No phone number"}, {"name": "Cyanza Health Centre", "location": "Muhanga", "tel": "No phone number"}, {"name": "Shyogwe Health Centre", "location": "Muhanga", "tel": "No phone number"}, {"name": "Buhoro Health Centre", "location": "Muhanga", "tel": "No phone number"}, {"name": "Rutobwe Health Post", "location": "Muhanga", "tel": "No phone number"}, {"name": "Rubona Health Center", "location": "Muhanga", "tel": "No phone number"}, {"name": "Ngeru Health Post", "location": "Muhanga", "tel": "No phone number"}, {"name": "Kiziguro Health Centre", "location": "Muhanga", "tel": "No phone number"}, {"name": "Muhororo Health Center", "location": "Muhanga", "tel": "No phone number"}, {"name": "Kivumu Health Center", "location": "Muhanga", "tel": "No phone number"}, {"name": "Beula Health Post", "location": "Muhanga", "tel": "No phone number"}, {"name": "Gishweru Health Centre", "location": "Muhanga", "tel": "No phone number"}, {"name": "Ruli District Hospital", "location": "Muhanga", "tel": "No phone number"}, {"name": "Busoro Health Clinic", "location": "Muhanga", "tel": "No phone number"}, {"name": "Nyange I Health Centre", "location": "Muhanga", "tel": "No phone number"}, {"name": "Musumbira Health Center", "location": "Muhanga", "tel": "No phone number"}, {"name": "Bitabage Health Post", "location": "Muhanga", "tel": "No phone number"}, {"name": "Nyange II Health Centre", "location": "Muhanga", "tel": "No phone number"}, {"name": "Gatumba Health Centre", "location": "Muhanga", "tel": "No phone number"}, {"name": "Mbuye Health Centre", "location": "Muhanga", "tel": "No phone number"}, {"name": "Shyira Hospital", "location": "Muhanga", "tel": "0788561751"}, {"name": "Mataba Health Centre", "location": "Muhanga", "tel": "No phone number"}, {"name": "Clinic La providences", "location": "Muhanga", "tel": "No phone number"}]