[{"name": "Musanze Hospital", "location": "Musanze", "tel": "0788294727"}, {"name": "Karwasa Health Centre", "location": "Musanze", "tel": "No phone number"}, {"name": "Pro Omnibus Polyclinic", "location": "Musanze", "tel": "0783739549"}, {"name": "Gasakuza Health Post", "location": "Musanze", "tel": "No phone number"}, {"name": "Musanze District HIV Stop Center", "location": "Musanze", "tel": "No phone number"}, {"name": "Rwankeri Hospital", "location": "Musanze", "tel": "No phone number"}, {"name": "Nyundo Health Centre", "location": "Musanze", "tel": "No phone number"}, {"name": "Musanze Hospital", "location": "Musanze", "tel": "No phone number"}, {"name": "Shingiro Hospital", "location": "Musanze", "tel": "No phone number"}, {"name": "Kamubuga Health Post", "location": "Musanze", "tel": "No phone number"}, {"name": "Rushoka Health Centre", "location": "Musanze", "tel": "No phone number"}, {"name": "Ntaruka Health Centre", "location": "Musanze", "tel": "No phone number"}, {"name": "Mutara Health Centre", "location": "Musanze", "tel": "No phone number"}, {"name": "Busengo Health Centre", "location": "Musanze", "tel": "No phone number"}, {"name": "Kintobo Health Post", "location": "Musanze", "tel": "No phone number"}, {"name": "Shyira Hospital", "location": "Musanze", "tel": "0788561751"}, {"name": "New Vision Veterinary Hospital", "location": "Musanze", "tel": "0781204364"}, {"name": "Kareba Health Centre", "location": "Musanze", "tel": "No phone number"}, {"name": "Nemba Hospital", "location": "Musanze", "tel": "No phone number"}, {"name": "Gasiza Health Centre", "location": "Musanze", "tel": "No phone number"}, {"name": "Kimonyi Health Center", "location": "Musanze", "tel": "No phone number"}, {"name": "Poste De Sant\u00e9 De Birwa", "location": "Musanze", "tel": "No phone number"}, {"name": "Burera District Hospital", "location": "Musanze", "tel": "No phone number"}, {"name": "Kabyiniro Health Centre", "location": "Musanze", "tel": "No phone number"}, {"name": "Rwaza Health Center", "location": "Musanze", "tel": "No phone number"}, {"name": "Nyakigezi Health Centre", "location": "Musanze", "tel": "No phone number"}, {"name": "Byakiriba Health Centre", "location": "Musanze", "tel": "No phone number"}, {"name": "Busogo Health Center", "location": "Musanze", "tel": "No phone number"}, {"name": "Rugarama Health Centre", "location": "Musanze", "tel": "No phone number"}, {"name": "Shingiro Health Center", "location": "Musanze", "tel": "No phone number"}, {"name": "Rutake Health Centre", "location": "Musanze", "tel": "No phone number"}, {"name": "Nemba hospital", "location": "Musanze", "tel": "No phone number"}]