[{"name": "Muhororo Hospital", "location": "Ngororero", "tel": "No phone number"}, {"name": "Ngororero Health Post", "location": "Ngororero", "tel": "No phone number"}, {"name": "Nyange I Health Centre", "location": "Ngororero", "tel": "No phone number"}, {"name": "Ntaganzwa Health Centre", "location": "Ngororero", "tel": "No phone number"}, {"name": "Hindiro Health Post", "location": "Ngororero", "tel": "No phone number"}, {"name": "Gitwa Health Post", "location": "Ngororero", "tel": "No phone number"}, {"name": "Gatumba Health Centre", "location": "Ngororero", "tel": "No phone number"}, {"name": "Muhororo Health Center", "location": "Ngororero", "tel": "No phone number"}, {"name": "Kiziguro Health Centre", "location": "Ngororero", "tel": "No phone number"}, {"name": "Iwacu Health Centre", "location": "Ngororero", "tel": "No phone number"}, {"name": "Muramba Health Centre", "location": "Ngororero", "tel": "No phone number"}, {"name": "Ramba Health Center", "location": "Ngororero", "tel": "No phone number"}, {"name": "Buhoro Health Centre", "location": "Ngororero", "tel": "No phone number"}, {"name": "Ruhango Health Post", "location": "Ngororero", "tel": "No phone number"}]