[{"name": "Shyira Hospital", "location": "Nyabihu", "tel": "0788561751"}, {"name": "SHYIRA HOSPITAL", "location": "Nyabihu", "tel": "No phone number"}, {"name": "Rwankeri Hospital", "location": "Nyabihu", "tel": "No phone number"}, {"name": "Kintobo Health Post", "location": "Nyabihu", "tel": "No phone number"}, {"name": "Rurembo Health Centre", "location": "Nyabihu", "tel": "No phone number"}, {"name": "Vunga Health Post", "location": "Nyabihu", "tel": "No phone number"}, {"name": "Maternity building", "location": "Nyabihu", "tel": "No phone number"}, {"name": "Byakiriba Health Centre", "location": "Nyabihu", "tel": "No phone number"}, {"name": "Rwankeri Health Centre", "location": "Nyabihu", "tel": "No phone number"}, {"name": "Nyakigezi Health Centre", "location": "Nyabihu", "tel": "No phone number"}, {"name": "Kareba Health Centre", "location": "Nyabihu", "tel": "No phone number"}, {"name": "Kabaya Hospital", "location": "Nyabihu", "tel": "No phone number"}, {"name": "Nyiragikokora Health Post", "location": "Nyabihu", "tel": "No phone number"}, {"name": "Bugeshi Health Post", "location": "Nyabihu", "tel": "No phone number"}, {"name": "Janja Health Centre", "location": "Nyabihu", "tel": "No phone number"}, {"name": "Mudende Health Centre", "location": "Nyabihu", "tel": "No phone number"}, {"name": "Iwacu Health Centre", "location": "Nyabihu", "tel": "No phone number"}, {"name": "Jomba Health Centre", "location": "Nyabihu", "tel": "No phone number"}, {"name": "Nyundo Health Centre", "location": "Nyabihu", "tel": "No phone number"}, {"name": "Musanze Hospital", "location": "Nyabihu", "tel": "No phone number"}]