[{"name": "Nyagatare Hospital", "location": "Nyagatare", "tel": "No phone number"}, {"name": "Nyagatare Hospital", "location": "Nyagatare", "tel": "No phone number"}, {"name": "Nyagatare Health Center", "location": "Nyagatare", "tel": "No phone number"}, {"name": "Cyabayaga Health Centre", "location": "Nyagatare", "tel": "No phone number"}, {"name": "Nyendo Health Centre", "location": "Nyagatare", "tel": "No phone number"}, {"name": "Kabuga Health Centre", "location": "Nyagatare", "tel": "No phone number"}, {"name": "Nyakigando Health Centre", "location": "Nyagatare", "tel": "No phone number"}, {"name": "Ntoma Health Center", "location": "Nyagatare", "tel": "No phone number"}, {"name": "Muhambo Health Centre", "location": "Nyagatare", "tel": "No phone number"}, {"name": "Kanyundo Health Center", "location": "Nyagatare", "tel": "No phone number"}, {"name": "Ndama Health Center", "location": "Nyagatare", "tel": "No phone number"}, {"name": "Rwenjara Health Center", "location": "Nyagatare", "tel": "No phone number"}, {"name": "Hunga Health Post", "location": "Nyagatare", "tel": "No phone number"}, {"name": "Nyagihita Health Centre", "location": "Nyagatare", "tel": "No phone number"}, {"name": "Rwembasha Health Center", "location": "Nyagatare", "tel": "No phone number"}, {"name": "KARANGAZI Health center", "location": "Nyagatare", "tel": "No phone number"}, {"name": "Ngarama Hospital", "location": "Nyagatare", "tel": "No phone number"}, {"name": "Rurenge Health Centre", "location": "Nyagatare", "tel": "No phone number"}, {"name": "Bugaragara Health Centre", "location": "Nyagatare", "tel": "No phone number"}, {"name": "Burera District Hospital", "location": "Nyagatare", "tel": "No phone number"}, {"name": "Musenyi Health Post", "location": "Nyagatare", "tel": "No phone number"}, {"name": "Nyagihanga Health Center", "location": "Nyagatare", "tel": "No phone number"}, {"name": "Muhambo Health Center", "location": "Nyagatare", "tel": "No phone number"}, {"name": "Ineza Clinic", "location": "Nyagatare", "tel": "No phone number"}, {"name": "Mimuli Health Centre", "location": "Nyagatare", "tel": "No phone number"}, {"name": "Mayange Health Post", "location": "Nyagatare", "tel": "No phone number"}, {"name": "Rushaki Health Center", "location": "Nyagatare", "tel": "No phone number"}, {"name": "Kibondo Health Centre", "location": "Nyagatare", "tel": "No phone number"}, {"name": "Matimba Health Center", "location": "Nyagatare", "tel": "No phone number"}, {"name": "Cyondo Health Centre", "location": "Nyagatare", "tel": "No phone number"}, {"name": "Bungwe Health Post", "location": "Nyagatare", "tel": "No phone number"}, {"name": "Kiziguro Hospital", "location": "Nyagatare", "tel": "No phone number"}, {"name": "Musenda Health Post", "location": "Nyagatare", "tel": "No phone number"}, {"name": "COU Kisui Hospital", "location": "Nyagatare", "tel": "No phone number"}, {"name": "Gaseke Health Post", "location": "Nyagatare", "tel": "No phone number"}, {"name": "Nyagatare", "location": "Nyagatare", "tel": "No phone number"}, {"name": "Bukinda HC IV", "location": "Nyagatare", "tel": "No phone number"}, {"name": "Rugarama Hospital", "location": "Nyagatare", "tel": "No phone number"}]