[{"name": "Nyamasheke Health Centre", "location": "Nyamasheke", "tel": "0722753776"}, {"name": "Kibogora Hospital", "location": "Nyamasheke", "tel": "0788256602"}, {"name": "Gisakura Health Center", "location": "Nyamasheke", "tel": "No phone number"}, {"name": "Mugonero Hospital", "location": "Nyamasheke", "tel": "No phone number"}, {"name": "Bushenge Hospital", "location": "Nyamasheke", "tel": "No phone number"}, {"name": "Bushenge Hospital", "location": "Nyamasheke", "tel": "No phone number"}, {"name": "Mibirizi Hospital", "location": "Nyamasheke", "tel": "No phone number"}, {"name": "Kibogora District Hospital", "location": "Nyamasheke", "tel": "No phone number"}, {"name": "Karambi Health Centre", "location": "Nyamasheke", "tel": "No phone number"}, {"name": "Rangiro Health Centre", "location": "Nyamasheke", "tel": "No phone number"}, {"name": "Shara Health Centre", "location": "Nyamasheke", "tel": "No phone number"}, {"name": "Muyange Health Center", "location": "Nyamasheke", "tel": "No phone number"}, {"name": "Mahembe Health Centre", "location": "Nyamasheke", "tel": "No phone number"}, {"name": "Kibingo Health Centre", "location": "Nyamasheke", "tel": "No phone number"}, {"name": "Banda Health Post", "location": "Nyamasheke", "tel": "No phone number"}, {"name": "Nyabitimbo Health Centre", "location": "Nyamasheke", "tel": "No phone number"}, {"name": "Mukoma Health Centre", "location": "Nyamasheke", "tel": "No phone number"}, {"name": "Kizibira Health Centre", "location": "Nyamasheke", "tel": "No phone number"}, {"name": "Shangi Health Centre", "location": "Nyamasheke", "tel": "No phone number"}, {"name": "Mwito Health Center", "location": "Nyamasheke", "tel": "No phone number"}, {"name": "Ruheru Health Centre", "location": "Nyamasheke", "tel": "No phone number"}, {"name": "Gihundwe Health Centre", "location": "Nyamasheke", "tel": "No phone number"}, {"name": "Mugera Health Centre", "location": "Nyamasheke", "tel": "No phone number"}, {"name": "Mubirizi Health Centre", "location": "Nyamasheke", "tel": "No phone number"}, {"name": "Nkungu Health Centre", "location": "Nyamasheke", "tel": "No phone number"}, {"name": "Murambi Health Post", "location": "Nyamasheke", "tel": "No phone number"}, {"name": "Mwenzi Health Centre", "location": "Nyamasheke", "tel": "No phone number"}, {"name": "Nyakabuye Health Post", "location": "Nyamasheke", "tel": "No phone number"}, {"name": "Jarama Health Centre", "location": "Nyamasheke", "tel": "No phone number"}, {"name": "Mubuga Health Centre", "location": "Nyamasheke", "tel": "No phone number"}]