[{"name": "Kigeme Hospital", "location": "Nyamagabe", "tel": "No phone number"}, {"name": "Kaduha Hospital", "location": "Nyamagabe", "tel": "No phone number"}, {"name": "Kigeme Hospital", "location": "Nyamagabe", "tel": "No phone number"}, {"name": "Cyanika Health Centre", "location": "Nyamagabe", "tel": "No phone number"}, {"name": "Bamba Health Centre", "location": "Nyamagabe", "tel": "No phone number"}, {"name": "Kirambi Health Centre", "location": "Nyamagabe", "tel": "No phone number"}, {"name": "Cyinyonza Health Post", "location": "Nyamagabe", "tel": "No phone number"}, {"name": "Kinyamakara Health Centre", "location": "Nyamagabe", "tel": "No phone number"}, {"name": "Nyarusiza Health Centre", "location": "Nyamagabe", "tel": "No phone number"}, {"name": "Bugarama Health Post", "location": "Nyamagabe", "tel": "No phone number"}, {"name": "Mucubira Health Centre", "location": "Nyamagabe", "tel": "No phone number"}, {"name": "Mushubi Health Centre", "location": "Nyamagabe", "tel": "No phone number"}, {"name": "Gatare Health Centre", "location": "Nyamagabe", "tel": "No phone number"}, {"name": "Mugano Health Centre", "location": "Nyamagabe", "tel": "No phone number"}, {"name": "Kitabi Health Centre", "location": "Nyamagabe", "tel": "No phone number"}, {"name": "Cyahafi Health Centre", "location": "Nyamagabe", "tel": "No phone number"}, {"name": "Mukungu Health Centre", "location": "Nyamagabe", "tel": "No phone number"}, {"name": "Ngara Health Centre", "location": "Nyamagabe", "tel": "No phone number"}, {"name": "Gishike Health Centre", "location": "Nyamagabe", "tel": "No phone number"}, {"name": "Rugege Health Centre", "location": "Nyamagabe", "tel": "No phone number"}, {"name": "Uwinkinji Health Centre", "location": "Nyamagabe", "tel": "No phone number"}, {"name": "Biguhu Health Centre", "location": "Nyamagabe", "tel": "No phone number"}, {"name": "Nyarwungo Health Centre", "location": "Nyamagabe", "tel": "No phone number"}, {"name": "Jenda Health Centre", "location": "Nyamagabe", "tel": "No phone number"}, {"name": "Mbuga Health Centre", "location": "Nyamagabe", "tel": "No phone number"}, {"name": "Health Center De Musebeya", "location": "Nyamagabe", "tel": "No phone number"}, {"name": "Kivu Health Centre", "location": "Nyamagabe", "tel": "No phone number"}, {"name": "Nyamagabe Health Centre", "location": "Nyamagabe", "tel": "No phone number"}, {"name": "Kirinda District Hospital", "location": "Nyamagabe", "tel": "0788394927"}]