[{"name": "Kibagabaga Hospital", "location": "Nyanza", "tel": "0788732945"}, {"name": "King Faisal Hospital", "location": "Nyanza", "tel": "0788384877"}, {"name": "Muhima Hospital", "location": "Nyanza", "tel": "0728283887"}, {"name": "University Teaching Hospital of Kigali", "location": "Nyanza", "tel": "No phone number"}, {"name": "Polyclinique La Medicale (Dr Kanimba Hospital)", "location": "Nyanza", "tel": "0788305661"}, {"name": "Ejo Heza Clinic", "location": "Nyanza", "tel": "0785845994"}, {"name": "Dream Medical Center Hospital", "location": "Nyanza", "tel": "0782749660"}, {"name": "King Faisal Hospital - Kigali", "location": "Nyanza", "tel": "0788384877"}, {"name": "Rutongo Hospital", "location": "Nyanza", "tel": "0784085503"}, {"name": "Muyunzwe Health Centre", "location": "Nyanza", "tel": "No phone number"}, {"name": "Nyamata Hospital", "location": "Nyanza", "tel": "No phone number"}, {"name": "Hvp Gatagara", "location": "Nyanza", "tel": "No phone number"}, {"name": "Masaka Hospital", "location": "Nyanza", "tel": "No phone number"}, {"name": "Ruli District Hospital", "location": "Nyanza", "tel": "No phone number"}, {"name": "Kiziguro Hospital", "location": "Nyanza", "tel": "No phone number"}, {"name": "Kabgayi Hospital", "location": "Nyanza", "tel": "No phone number"}, {"name": "Rwamagana Hospital", "location": "Nyanza", "tel": "No phone number"}, {"name": "Ngarama Hospital", "location": "Nyanza", "tel": "No phone number"}, {"name": "Nemba Hospital", "location": "Nyanza", "tel": "No phone number"}, {"name": "Gitwe Hospital", "location": "Nyanza", "tel": "No phone number"}, {"name": "Gakoma Hospital", "location": "Nyanza", "tel": "No phone number"}, {"name": "Shyira Hospital", "location": "Nyanza", "tel": "0788561751"}, {"name": "Rwinkwavu Hospital", "location": "Nyanza", "tel": "0785287160"}, {"name": "Kirehe Hospital", "location": "Nyanza", "tel": "No phone number"}, {"name": "Kaduha Hospital", "location": "Nyanza", "tel": "No phone number"}, {"name": "Kigeme Hospital", "location": "Nyanza", "tel": "No phone number"}, {"name": "Burera District Hospital", "location": "Nyanza", "tel": "No phone number"}, {"name": "Kabutare Hospital", "location": "Nyanza", "tel": "No phone number"}, {"name": "Murunda Hospital", "location": "Nyanza", "tel": "No phone number"}, {"name": "Kabaya Hospital", "location": "Nyanza", "tel": "No phone number"}, {"name": "Mugonero Hospital", "location": "Nyanza", "tel": "No phone number"}, {"name": "Gisenyi Hospital", "location": "Nyanza", "tel": "No phone number"}, {"name": "Kigeme Hospital", "location": "Nyanza", "tel": "No phone number"}, {"name": "Hospital Nyanza-Lac", "location": "Nyanza", "tel": "No phone number"}, {"name": "Gihundwe District Hospital", "location": "Nyanza", "tel": "No phone number"}]