[{"name": "Munini Hospital", "location": "Nyaruguru", "tel": "No phone number"}, {"name": "Centre De SANTE DE NYABIMATA", "location": "Nyaruguru", "tel": "No phone number"}, {"name": "Ruheru Health Center", "location": "Nyaruguru", "tel": "No phone number"}, {"name": "Ngoma Health Centre", "location": "Nyaruguru", "tel": "No phone number"}, {"name": "Coko Health Centre", "location": "Nyaruguru", "tel": "No phone number"}, {"name": "Bukomeye Health Post", "location": "Nyaruguru", "tel": "No phone number"}, {"name": "Kansi Health Centre", "location": "Nyaruguru", "tel": "No phone number"}, {"name": "Runyombyi Health Centre", "location": "Nyaruguru", "tel": "No phone number"}, {"name": "Gakaranka Health Centre", "location": "Nyaruguru", "tel": "No phone number"}, {"name": "Cyahinda Health Centre", "location": "Nyaruguru", "tel": "No phone number"}, {"name": "Busoro-Gishamvu Health Centre", "location": "Nyaruguru", "tel": "No phone number"}, {"name": "Nyantanga Health Centre", "location": "Nyaruguru", "tel": "No phone number"}, {"name": "Kabilizi Health Centre", "location": "Nyaruguru", "tel": "No phone number"}, {"name": "Nyabimata Health Center", "location": "Nyaruguru", "tel": "No phone number"}, {"name": "Ngera Health Centre", "location": "Nyaruguru", "tel": "No phone number"}, {"name": "Kigembe Health Centre", "location": "Nyaruguru", "tel": "No phone number"}, {"name": "Maraba Health Centre", "location": "Nyaruguru", "tel": "No phone number"}, {"name": "Kivu Health Centre", "location": "Nyaruguru", "tel": "No phone number"}, {"name": "Muganza Health Centre", "location": "Nyaruguru", "tel": "No phone number"}, {"name": "Rubamba Health Centre", "location": "Nyaruguru", "tel": "No phone number"}, {"name": "Nyamyumba Health Centre", "location": "Nyaruguru", "tel": "No phone number"}]