[{"name": "Muslims New Hospital", "location": "Nyarugenge", "tel": "No phone number"}, {"name": "University Teaching Hospital of Kigali", "location": "Nyarugenge", "tel": "No phone number"}, {"name": "Biryogo Health centre", "location": "Nyarugenge", "tel": "No phone number"}, {"name": "Ejo Heza Clinic", "location": "Nyarugenge", "tel": "0785845994"}, {"name": "Soeurs Bernadine", "location": "Nyarugenge", "tel": "No phone number"}, {"name": "Baho Medical Center", "location": "Nyarugenge", "tel": "0788564753"}, {"name": "Muhima Hospital", "location": "Nyarugenge", "tel": "0728283887"}, {"name": "Polyclinique La Medicale (Dr Kanimba Hospital)", "location": "Nyarugenge", "tel": "0788305661"}, {"name": "Asha Medical Services (Manipal Group of Hospitals)", "location": "Nyarugenge", "tel": "No phone number"}, {"name": "St peter biomedical laboratories clinic", "location": "Nyarugenge", "tel": "0788672818"}, {"name": "Dynapharm Rwanda", "location": "Nyarugenge", "tel": "0782816888"}, {"name": "King Faisal Hospital", "location": "Nyarugenge", "tel": "0788384877"}, {"name": "Inkuru Nziza Orthopedic Hospital", "location": "Nyarugenge", "tel": "0788528238"}, {"name": "Dr. Jhon Cloths,", "location": "Nyarugenge", "tel": "No phone number"}, {"name": "Kacyiru Hospital", "location": "Nyarugenge", "tel": "0785061906"}, {"name": "Polyclinique Saint Jean", "location": "Nyarugenge", "tel": "0786635315"}, {"name": "Gikondo Health Centre", "location": "Nyarugenge", "tel": "No phone number"}, {"name": "TTP hospital", "location": "Nyarugenge", "tel": "0786317897"}, {"name": "La Croix du Sud Hospital", "location": "Nyarugenge", "tel": "0785246882"}, {"name": "Baho International Hospital", "location": "Nyarugenge", "tel": "0782343710"}, {"name": "Polyclinique M\u00e9dico-Sociale", "location": "Nyarugenge", "tel": "No phone number"}, {"name": "Kibagabaga Hospital", "location": "Nyarugenge", "tel": "0788732945"}, {"name": "Polyclinic Du Bon Berger", "location": "Nyarugenge", "tel": "No phone number"}, {"name": "Nyarugenge Health Center", "location": "Nyarugenge", "tel": "No phone number"}]