[{"name": "Ruhango Health Centre", "location": "Ruhango", "tel": "No phone number"}, {"name": "Ihumure", "location": "Ruhango", "tel": "No phone number"}, {"name": "Ruhango Provincial Hospital", "location": "Ruhango", "tel": "No phone number"}, {"name": "Gitwe Hospital", "location": "Ruhango", "tel": "No phone number"}, {"name": "Kabgayi Hospital", "location": "Ruhango", "tel": "No phone number"}, {"name": "Hvp Gatagara", "location": "Ruhango", "tel": "No phone number"}, {"name": "Kigoma Health Centre", "location": "Ruhango", "tel": "No phone number"}, {"name": "Gitwe Hospital", "location": "Ruhango", "tel": "No phone number"}, {"name": "Kabgayi District Hospital", "location": "Ruhango", "tel": "No phone number"}, {"name": "Umufasha", "location": "Ruhango", "tel": "No phone number"}, {"name": "Kizibere Health Centre", "location": "Ruhango", "tel": "No phone number"}, {"name": "Muhima Hospital", "location": "Ruhango", "tel": "0728283887"}, {"name": "King Faisal Hospital", "location": "Ruhango", "tel": "0788384877"}, {"name": "Kibagabaga Hospital", "location": "Ruhango", "tel": "0788732945"}, {"name": "Cyanza Health Centre", "location": "Ruhango", "tel": "No phone number"}, {"name": "Kaduha Hospital", "location": "Ruhango", "tel": "No phone number"}, {"name": "Gakoma Hospital", "location": "Ruhango", "tel": "No phone number"}, {"name": "Shyogwe Health Centre", "location": "Ruhango", "tel": "No phone number"}, {"name": "Gitwe Health Centre", "location": "Ruhango", "tel": "No phone number"}, {"name": "Kigeme Hospital", "location": "Ruhango", "tel": "No phone number"}, {"name": "Ruhango Health Centre", "location": "Ruhango", "tel": "No phone number"}, {"name": "Ihumure", "location": "Ruhango", "tel": "No phone number"}]