[{"name": "Rutongo Hospital", "location": "Rulindo", "tel": "0784085503"}, {"name": "Kinihira Provincial Hospital", "location": "Rulindo", "tel": "0783455576"}, {"name": "Ngiryi Health Post", "location": "Rulindo", "tel": "No phone number"}, {"name": "Tare Hospital", "location": "Rulindo", "tel": "No phone number"}, {"name": "Kajevuba Health Centre", "location": "Rulindo", "tel": "No phone number"}, {"name": "Rutongo Ditsrict Hospital", "location": "Rulindo", "tel": "No phone number"}, {"name": "Jali Health Centre", "location": "Rulindo", "tel": "No phone number"}, {"name": "Kiyanza Health Centre", "location": "Rulindo", "tel": "No phone number"}, {"name": "Murambi Health Centre", "location": "Rulindo", "tel": "No phone number"}, {"name": "Rwahi Health Centre", "location": "Rulindo", "tel": "No phone number"}, {"name": "Nyabuko Health Post", "location": "Rulindo", "tel": "No phone number"}, {"name": "Bumba Health Post", "location": "Rulindo", "tel": "No phone number"}, {"name": "Tumba Health Centre", "location": "Rulindo", "tel": "No phone number"}, {"name": "Base Health Centre", "location": "Rulindo", "tel": "No phone number"}, {"name": "Bweramvura Health Post", "location": "Rulindo", "tel": "No phone number"}, {"name": "Hospital", "location": "Rulindo", "tel": "No phone number"}, {"name": "University Teaching Hospital of Kigali", "location": "Rulindo", "tel": "No phone number"}, {"name": "Kinihira District Hospital (Rulindo)", "location": "Rulindo", "tel": "No phone number"}, {"name": "Muhima Hospital", "location": "Rulindo", "tel": "0728283887"}, {"name": "Ruli District Hospital", "location": "Rulindo", "tel": "No phone number"}, {"name": "Musenyi Health Centre", "location": "Rulindo", "tel": "No phone number"}, {"name": "King Faisal Hospital", "location": "Rulindo", "tel": "0788384877"}, {"name": "Polyclinique La Medicale (Dr Kanimba Hospital)", "location": "Rulindo", "tel": "0788305661"}, {"name": "Rwankuba Health Centre", "location": "Rulindo", "tel": "No phone number"}, {"name": "Muhondo Health Centre", "location": "Rulindo", "tel": "No phone number"}]