[{"name": "Gihundwe District Hospital", "location": "Rusizi", "tel": "No phone number"}, {"name": "Mibirizi Hospital", "location": "Rusizi", "tel": "No phone number"}, {"name": "Rusizi Health Centre", "location": "Rusizi", "tel": "No phone number"}, {"name": "Bushenge Hospital", "location": "Rusizi", "tel": "No phone number"}, {"name": "Bushenge provincial hospital", "location": "Rusizi", "tel": "No phone number"}, {"name": "Hospital Military Fac", "location": "Rusizi", "tel": "No phone number"}, {"name": "Nyabitimbo Health Centre", "location": "Rusizi", "tel": "No phone number"}, {"name": "Bweyeye Health Centre", "location": "Rusizi", "tel": "No phone number"}, {"name": "Skyborne Hospital", "location": "Rusizi", "tel": "No phone number"}, {"name": "Nkanka Health Center", "location": "Rusizi", "tel": "No phone number"}, {"name": "Bugarama Health Center", "location": "Rusizi", "tel": "No phone number"}, {"name": "EAR Hospital", "location": "Rusizi", "tel": "No phone number"}, {"name": "Panzi Hospital", "location": "Rusizi", "tel": "No phone number"}, {"name": "Nkombo Health Centre", "location": "Rusizi", "tel": "No phone number"}, {"name": "New Hope Hospital Bukavu", "location": "Rusizi", "tel": "No phone number"}, {"name": "Gasumo Health Centre", "location": "Rusizi", "tel": "No phone number"}, {"name": "Nkungu Health Centre", "location": "Rusizi", "tel": "No phone number"}, {"name": "Nyantende Hospital", "location": "Rusizi", "tel": "No phone number"}, {"name": "Gihundwe Health Centre", "location": "Rusizi", "tel": "No phone number"}, {"name": "Mashesha Health Centre", "location": "Rusizi", "tel": "No phone number"}, {"name": "Vubiro Health Post", "location": "Rusizi", "tel": "No phone number"}, {"name": "Rasano Health Centre", "location": "Rusizi", "tel": "No phone number"}, {"name": "Bugarama Health Centre", "location": "Rusizi", "tel": "No phone number"}, {"name": "Mont Cyangugu Health Center", "location": "Rusizi", "tel": "No phone number"}, {"name": "Gahungeri Health Centre", "location": "Rusizi", "tel": "No phone number"}, {"name": "Clinique Ruhigita - Site Lena", "location": "Rusizi", "tel": "No phone number"}, {"name": "Nyakarenzo Health Centre", "location": "Rusizi", "tel": "No phone number"}, {"name": "Ch Bioglodi", "location": "Rusizi", "tel": "No phone number"}, {"name": "Mwito Health Center", "location": "Rusizi", "tel": "No phone number"}, {"name": "Mubirizi Health Centre", "location": "Rusizi", "tel": "No phone number"}, {"name": "Poste Of", "location": "Rusizi", "tel": "No phone number"}, {"name": "Hopital Biosadec", "location": "Rusizi", "tel": "No phone number"}, {"name": "Tara Health Centre", "location": "Rusizi", "tel": "No phone number"}, {"name": "Nzahaha Health Post", "location": "Rusizi", "tel": "No phone number"}, {"name": "Amizero Health Post", "location": "Rusizi", "tel": "No phone number"}, {"name": "Kamatita Health Centre", "location": "Rusizi", "tel": "No phone number"}, {"name": "Al-imdaad Foundation Democratic Republic Of Congo Branch Office South Kivu Province", "location": "Rusizi", "tel": "No phone number"}, {"name": "Mushaka Health Center", "location": "Rusizi", "tel": "0783188102"}, {"name": "Hospital Center Regideso", "location": "Rusizi", "tel": "No phone number"}, {"name": "Mwenzi Health Centre", "location": "Rusizi", "tel": "No phone number"}, {"name": "CLINIQUE SAINT LUC DE BUKAVU", "location": "Rusizi", "tel": "No phone number"}, {"name": "Clinique Ruhigita - Site Mibulano", "location": "Rusizi", "tel": "No phone number"}, {"name": "Nyakabuye Health Post", "location": "Rusizi", "tel": "No phone number"}, {"name": "Hospital Provincial General Reference De Bukavu", "location": "Rusizi", "tel": "No phone number"}, {"name": "Cimerwa Health Centre", "location": "Rusizi", "tel": "No phone number"}, {"name": "Dr. Agarwals Eye Hospital, Rusizi, Rwanda", "location": "Rusizi", "tel": "No phone number"}, {"name": "Polyclinic Impact Medical", "location": "Rusizi", "tel": "No phone number"}, {"name": "Hospital Center 8\u00e8me Cepac/Cahi", "location": "Rusizi", "tel": "No phone number"}, {"name": "Hospital General De Kadutu", "location": "Rusizi", "tel": "No phone number"}, {"name": "Hospital Center Saint Vincent", "location": "Rusizi", "tel": "No phone number"}, {"name": "Health Center De Kalagane", "location": "Rusizi", "tel": "No phone number"}]