[{"name": "Murunda Hospital Pediatrie", "location": "Rutsiro", "tel": "No phone number"}, {"name": "Congo Nil Health Centre", "location": "Rutsiro", "tel": "No phone number"}, {"name": "Iwawa Health Center", "location": "Rutsiro", "tel": "No phone number"}, {"name": "Murunda Hospital", "location": "Rutsiro", "tel": "No phone number"}, {"name": "Mushubati Health Centre", "location": "Rutsiro", "tel": "No phone number"}, {"name": "Musasa Health Centre", "location": "Rutsiro", "tel": "No phone number"}, {"name": "Rutsiro Health Centre", "location": "Rutsiro", "tel": "No phone number"}, {"name": "Kinunu Health Centre", "location": "Rutsiro", "tel": "No phone number"}, {"name": "Kayove Health Centre", "location": "Rutsiro", "tel": "No phone number"}, {"name": "Gatare Health Post", "location": "Rutsiro", "tel": "No phone number"}, {"name": "Mukura Health Centre", "location": "Rutsiro", "tel": "No phone number"}, {"name": "Bitenga Health Centre", "location": "Rutsiro", "tel": "No phone number"}, {"name": "Karumbi Health Centre", "location": "Rutsiro", "tel": "No phone number"}, {"name": "Kabona Health Centre", "location": "Rutsiro", "tel": "No phone number"}, {"name": "Murunda Hospital Office", "location": "Rutsiro", "tel": "No phone number"}, {"name": "Kigeyo Health Centre", "location": "Rutsiro", "tel": "No phone number"}, {"name": "Kibingo Health Centre", "location": "Rutsiro", "tel": "No phone number"}, {"name": "Gashumbi Health Centre", "location": "Rutsiro", "tel": "No phone number"}, {"name": "Cyimbili Health Centre", "location": "Rutsiro", "tel": "No phone number"}, {"name": "Rufungo Health Centre", "location": "Rutsiro", "tel": "No phone number"}, {"name": "Karambi Health Post", "location": "Rutsiro", "tel": "No phone number"}, {"name": "Murambi Health Centre", "location": "Rutsiro", "tel": "No phone number"}]