[{"name": "Rwamagana Hospital", "location": "Rwamagana", "tel": "No phone number"}, {"name": "Rwamagana Health Centre", "location": "Rwamagana", "tel": "No phone number"}, {"name": "Gishari Health Post", "location": "Rwamagana", "tel": "No phone number"}, {"name": "Avega Health Center", "location": "Rwamagana", "tel": "No phone number"}, {"name": "Gahengeri Health Centre", "location": "Rwamagana", "tel": "No phone number"}, {"name": "Rubona Health Centre", "location": "Rwamagana", "tel": "No phone number"}, {"name": "Murehe Health Post", "location": "Rwamagana", "tel": "No phone number"}, {"name": "Ruhunda Health Center", "location": "Rwamagana", "tel": "No phone number"}, {"name": "Fumbwe Health Post", "location": "Rwamagana", "tel": "No phone number"}, {"name": "Munini Health Centre", "location": "Rwamagana", "tel": "No phone number"}, {"name": "Kiziguro Hospital", "location": "Rwamagana", "tel": "No phone number"}, {"name": "Ruramira Health Center", "location": "Rwamagana", "tel": "No phone number"}, {"name": "Murambi Health Centre", "location": "Rwamagana", "tel": "No phone number"}, {"name": "Rwinkwavu Hospital", "location": "Rwamagana", "tel": "0785287160"}, {"name": "Nyamirama Health Center", "location": "Rwamagana", "tel": "No phone number"}, {"name": "Gahini Health Centre", "location": "Rwamagana", "tel": "No phone number"}, {"name": "Nyamirama Health Center", "location": "Rwamagana", "tel": "No phone number"}, {"name": "Masaka Hospital", "location": "Rwamagana", "tel": "0728878194"}, {"name": "Rundu Health Post", "location": "Rwamagana", "tel": "No phone number"}, {"name": "Nyabisindu Health Post", "location": "Rwamagana", "tel": "No phone number"}, {"name": "Rwanda Military Hospital", "location": "Rwamagana", "tel": "No phone number"}]