[{"name": "National Bank of Rwanda", "location": "Gasabo", "tel": "No phone number"}, {"name": "Bank of Kigali, RDB Branch", "location": "Gasabo", "tel": "0788640281"}, {"name": "Bank of Kigali", "location": "Gasabo", "tel": "No phone number"}, {"name": "Access Bank", "location": "Gasabo", "tel": "No phone number"}, {"name": "Bank of Africa", "location": "Gasabo", "tel": "No phone number"}, {"name": "KCB Bank MTN Centre", "location": "Gasabo", "tel": "0788140000"}, {"name": "East African Development Bank", "location": "Gasabo", "tel": "No phone number"}, {"name": "Bank of Kigali", "location": "Gasabo", "tel": "0788302514"}, {"name": "Unguka Bank HQ", "location": "Gasabo", "tel": "0726019165"}, {"name": "Unguka Bank", "location": "Gasabo", "tel": "No phone number"}, {"name": "Bank of Kigali", "location": "Gasabo", "tel": "0783937013"}, {"name": "Bank of Kigali, Kicukiro Pension Plaza Branch", "location": "Gasabo", "tel": "No phone number"}, {"name": "Bank of Kigali", "location": "Gasabo", "tel": "No phone number"}, {"name": "Ecobank", "location": "Gasabo", "tel": "0788161306"}, {"name": "Development Bank of Rwanda", "location": "Gasabo", "tel": "No phone number"}, {"name": "Bank of Kigali, Giporoso Branch", "location": "Gasabo", "tel": "0788143046"}, {"name": "KCB Kimironko Branch", "location": "Gasabo", "tel": "0788140400"}, {"name": "AB Bank Head Office", "location": "Gasabo", "tel": "0788319108"}, {"name": "BANK OF AFRICA RWANDA PLC", "location": "Gasabo", "tel": "No phone number"}, {"name": "SMGF Rwanda", "location": "Gasabo", "tel": "0788354937"}, {"name": "Bank of Kigali, Nyabugogo Branch", "location": "Gasabo", "tel": "0788143554"}, {"name": "GTBank", "location": "Gasabo", "tel": "0788149600"}, {"name": "Access Bank Headquarters", "location": "Gasabo", "tel": "0788145300"}, {"name": "Urwego Bank Head Office", "location": "Gasabo", "tel": "0788173100"}, {"name": "Equity Bank, Kigali City Market Branch", "location": "Gasabo", "tel": "0788190000"}, {"name": "I&M Bank", "location": "Gasabo", "tel": "No phone number"}, {"name": "I&M Bank Headquarters", "location": "Gasabo", "tel": "0788162006"}, {"name": "I&M Bank", "location": "Gasabo", "tel": "0788162198"}, {"name": "BPR", "location": "Gasabo", "tel": "0788187200"}, {"name": "Bank of Kigali", "location": "Gasabo", "tel": "0788143000"}, {"name": "KCB Rwanda Headquarters", "location": "Gasabo", "tel": "0788140400"}, {"name": "Rwanda Commercial Bank, Nyabugogo", "location": "Gasabo", "tel": "No phone number"}, {"name": "Zigama CSS Headquarters", "location": "Gasabo", "tel": "0788305726"}, {"name": "I&M Bank ATM", "location": "Gasabo", "tel": "No phone number"}, {"name": "Bank of Kigali", "location": "Gasabo", "tel": "No phone number"}, {"name": "GTBank Nyabugogo Branch", "location": "Gasabo", "tel": "No phone number"}, {"name": "Ecobank", "location": "Gasabo", "tel": "0788161036"}, {"name": "Bank of Africa", "location": "Gasabo", "tel": "0739791200"}, {"name": "I&M Bank", "location": "Gasabo", "tel": "0788162202"}, {"name": "Bank of Kigali", "location": "Gasabo", "tel": "0788143000"}, {"name": "Cogebanque", "location": "Gasabo", "tel": "0788155500"}, {"name": "KCB Iwacu", "location": "Gasabo", "tel": "0783578336"}, {"name": "KCB Iwacu", "location": "Gasabo", "tel": "0788747593"}, {"name": "I&M Bank", "location": "Gasabo", "tel": "No phone number"}, {"name": "Atlantis Microfinance Head Office", "location": "Gasabo", "tel": "No phone number"}, {"name": "Amasezerano Community Bank", "location": "Gasabo", "tel": "No phone number"}, {"name": "Cogebanque", "location": "Gasabo", "tel": "No phone number"}, {"name": "Letshego", "location": "Gasabo", "tel": "0722198685"}, {"name": "Equity Bank, Kisimenti Branch", "location": "Gasabo", "tel": "0788190203"}, {"name": "Bank of Kigali ATM", "location": "Gasabo", "tel": "No phone number"}, {"name": "Bank of Kigali", "location": "Gasabo", "tel": "No phone number"}, {"name": "KCB, Kisimenti Branch", "location": "Gasabo", "tel": "No phone number"}, {"name": "AB Bank", "location": "Gasabo", "tel": "No phone number"}, {"name": "BPR", "location": "Gasabo", "tel": "No phone number"}, {"name": "Equity Bank Headquarters", "location": "Gasabo", "tel": "0788190202"}, {"name": "Urwego Bank Headquarters", "location": "Gasabo", "tel": "0788173100"}, {"name": "AB Bank", "location": "Gasabo", "tel": "No phone number"}, {"name": "I&M Bank ATM", "location": "Gasabo", "tel": "No phone number"}, {"name": "Bank of Kigali", "location": "Gasabo", "tel": "No phone number"}, {"name": "Ecobank Headquarters", "location": "Gasabo", "tel": "0788161000"}, {"name": "Duterimbere-IMF Head Office", "location": "Gasabo", "tel": "0788305651"}, {"name": "GTBank", "location": "Gasabo", "tel": "0788149600"}, {"name": "Urwego Bank", "location": "Gasabo", "tel": "No phone number"}, {"name": "Access Bank ATM", "location": "Gasabo", "tel": "No phone number"}, {"name": "MY Office", "location": "Gasabo", "tel": "No phone number"}, {"name": "Urwego Bank", "location": "Gasabo", "tel": "No phone number"}, {"name": "Access Bank ATM", "location": "Gasabo", "tel": "No phone number"}, {"name": "KCB Iwacu", "location": "Gasabo", "tel": "0788500539"}, {"name": "Access Bank ATM", "location": "Gasabo", "tel": "No phone number"}, {"name": "I&M Bank ATM", "location": "Gasabo", "tel": "No phone number"}]