[{"name": "Bank of Kigali", "location": "Kamonyi", "tel": "No phone number"}, {"name": "National Bank of Rwanda", "location": "Kamonyi", "tel": "No phone number"}, {"name": "I&M Bank", "location": "Kamonyi", "tel": "No phone number"}, {"name": "Unguka Bank HQ", "location": "Kamonyi", "tel": "0726019165"}, {"name": "Bank of Kigali", "location": "Kamonyi", "tel": "0783937013"}, {"name": "KCB Iwacu", "location": "Kamonyi", "tel": "0788500539"}, {"name": "Bank of Kigali", "location": "Kamonyi", "tel": "No phone number"}, {"name": "Access Bank", "location": "Kamonyi", "tel": "No phone number"}, {"name": "Equity Bank, Nyabugogo Branch", "location": "Kamonyi", "tel": "0788190000"}, {"name": "AB Bank", "location": "Kamonyi", "tel": "0789298060"}, {"name": "BANK OF AFRICA RWANDA PLC", "location": "Kamonyi", "tel": "No phone number"}, {"name": "Development Bank of Rwanda", "location": "Kamonyi", "tel": "No phone number"}, {"name": "Unguka Bank", "location": "Kamonyi", "tel": "No phone number"}, {"name": "AB Bank", "location": "Kamonyi", "tel": "No phone number"}, {"name": "KCB Iwacu", "location": "Kamonyi", "tel": "0785027015"}, {"name": "AB Bank Head Office", "location": "Kamonyi", "tel": "0788319108"}, {"name": "I&M Bank", "location": "Kamonyi", "tel": "No phone number"}, {"name": "Bank of Kigali", "location": "Kamonyi", "tel": "No phone number"}, {"name": "Bank of Kigali", "location": "Kamonyi", "tel": "No phone number"}, {"name": "Bank of Kigali", "location": "Kamonyi", "tel": "No phone number"}, {"name": "Bank of Africa", "location": "Kamonyi", "tel": "No phone number"}, {"name": "Bank of Africa Main Branch", "location": "Kamonyi", "tel": "0788136228"}, {"name": "GTBank Nyabugogo Branch", "location": "Kamonyi", "tel": "No phone number"}, {"name": "GTBank", "location": "Kamonyi", "tel": "0788149600"}, {"name": "Bank of Africa", "location": "Kamonyi", "tel": "0788136205"}, {"name": "Access Bank Headquarters", "location": "Kamonyi", "tel": "0788145300"}, {"name": "Bank of Africa", "location": "Kamonyi", "tel": "No phone number"}, {"name": "I&M Bank", "location": "Kamonyi", "tel": "0788162198"}, {"name": "Bank of Kigali Headquarters", "location": "Kamonyi", "tel": "0788143000"}, {"name": "Equity Bank, Kigali City Market Branch", "location": "Kamonyi", "tel": "0788190000"}, {"name": "Duterimbere-IMF, Nyabugogo Branch", "location": "Kamonyi", "tel": "No phone number"}, {"name": "I&M Bank Headquarters", "location": "Kamonyi", "tel": "0788162006"}, {"name": "Urwego Bank", "location": "Kamonyi", "tel": "No phone number"}, {"name": "KCB Iwacu", "location": "Kamonyi", "tel": "0783578336"}, {"name": "BPR", "location": "Kamonyi", "tel": "No phone number"}, {"name": "Bank of Kigali", "location": "Kamonyi", "tel": "No phone number"}, {"name": "Bank of Africa", "location": "Kamonyi", "tel": "No phone number"}, {"name": "Equity Bank Headquarters", "location": "Kamonyi", "tel": "0788190202"}, {"name": "Bank of Kigali", "location": "Kamonyi", "tel": "No phone number"}, {"name": "Ecobank", "location": "Kamonyi", "tel": "0788161036"}, {"name": "Cogebanque", "location": "Kamonyi", "tel": "No phone number"}, {"name": "AB Bank", "location": "Kamonyi", "tel": "No phone number"}, {"name": "BPR", "location": "Kamonyi", "tel": "0788187200"}, {"name": "Banque Populaire du Rwanda", "location": "Kamonyi", "tel": "No phone number"}, {"name": "Bank of Kigali", "location": "Kamonyi", "tel": "No phone number"}, {"name": "Amasezerano Community Bank", "location": "Kamonyi", "tel": "No phone number"}, {"name": "KCB Rwanda Headquarters", "location": "Kamonyi", "tel": "0788140400"}, {"name": "Duterimbere-IMF Head Office", "location": "Kamonyi", "tel": "0788305651"}, {"name": "Commercial Bank of Africa", "location": "Kamonyi", "tel": "No phone number"}, {"name": "BPR", "location": "Kamonyi", "tel": "No phone number"}, {"name": "Cogebanque", "location": "Kamonyi", "tel": "0788155500"}, {"name": "KCB Bank MTN Centre", "location": "Kamonyi", "tel": "0788140000"}, {"name": "East African Development Bank", "location": "Kamonyi", "tel": "No phone number"}, {"name": "BPR", "location": "Kamonyi", "tel": "No phone number"}, {"name": "BPR", "location": "Kamonyi", "tel": "No phone number"}, {"name": "BPR Premium Branch", "location": "Kamonyi", "tel": "No phone number"}, {"name": "African Development Bank", "location": "Kamonyi", "tel": "No phone number"}, {"name": "Cogebank Main Branch", "location": "Kamonyi", "tel": "0788155500"}, {"name": "Banque Populaire du Rwanda", "location": "Kamonyi", "tel": "No phone number"}, {"name": "Bank of Kigali - Gisozi Branch _ Umukindo Center", "location": "Kamonyi", "tel": "No phone number"}, {"name": "I&M Bank", "location": "Kamonyi", "tel": "0788162202"}, {"name": "KCB ATM - Muhanga", "location": "Kamonyi", "tel": "0788307147"}, {"name": "Cogebanque Head Office", "location": "Kamonyi", "tel": "No phone number"}, {"name": "KCB", "location": "Kamonyi", "tel": "No phone number"}]