[{"name": "Bank of Kigali", "location": "Kayonza", "tel": "No phone number"}, {"name": "Bank of Africa", "location": "Kayonza", "tel": "No phone number"}, {"name": "KCB", "location": "Kayonza", "tel": "0788306318"}, {"name": "Urwego Opportunity Bank Ltd", "location": "Kayonza", "tel": "No phone number"}, {"name": "BPR", "location": "Kayonza", "tel": "No phone number"}, {"name": "MWILI SACCO", "location": "Kayonza", "tel": "No phone number"}, {"name": "Cogebanque", "location": "Kayonza", "tel": "0788302352"}, {"name": "National Bank Of Rwanda, Rwamagana Branch", "location": "Kayonza", "tel": "No phone number"}, {"name": "Bank of Kigali", "location": "Kayonza", "tel": "0788143453"}, {"name": "BCR, Rwamagana", "location": "Kayonza", "tel": "0788302265"}, {"name": "Urwego Opportunity Bank", "location": "Kayonza", "tel": "No phone number"}, {"name": "COPEDU LTD", "location": "Kayonza", "tel": "0788588345"}, {"name": "BPR", "location": "Kayonza", "tel": "No phone number"}, {"name": "National Bank of Rwanda", "location": "Kayonza", "tel": "No phone number"}]