[{"name": "I&M Bank", "location": "Musanze", "tel": "No phone number"}, {"name": "Equity Bank, Musanze Branch", "location": "Musanze", "tel": "No phone number"}, {"name": "Access Bank", "location": "Musanze", "tel": "No phone number"}, {"name": "Banque Rwandaise de Development", "location": "Musanze", "tel": "No phone number"}, {"name": "Bank Of Kigali Byangabo Branch", "location": "Musanze", "tel": "No phone number"}, {"name": "EcoBank", "location": "Musanze", "tel": "No phone number"}, {"name": "Urwego Bank", "location": "Musanze", "tel": "0788524460"}, {"name": "BNR, Musanze Branch", "location": "Musanze", "tel": "0788199400"}, {"name": "AB Bank", "location": "Musanze", "tel": "No phone number"}, {"name": "KCB ATM - Byangabo", "location": "Musanze", "tel": "0788304034"}, {"name": "Bank Of Kigali", "location": "Musanze", "tel": "No phone number"}, {"name": "BPR", "location": "Musanze", "tel": "No phone number"}, {"name": "Ecobank, Byumba Branch", "location": "Musanze", "tel": "No phone number"}, {"name": "I&M Bank", "location": "Musanze", "tel": "No phone number"}]