[{"name": "Bank Of Kigali Byangabo Branch", "location": "Nyabihu", "tel": "No phone number"}, {"name": "Zigama CSS, Nyabihu", "location": "Nyabihu", "tel": "No phone number"}, {"name": "Banque Populaire Byangabo Sub-branch", "location": "Nyabihu", "tel": "No phone number"}, {"name": "BPR/Bigogwe Branch", "location": "Nyabihu", "tel": "No phone number"}, {"name": "BK/Kora Branch", "location": "Nyabihu", "tel": "No phone number"}, {"name": "Zigama CSS ATM, Nyabihu", "location": "Nyabihu", "tel": "No phone number"}, {"name": "Bank of Kigali", "location": "Nyabihu", "tel": "No phone number"}, {"name": "Bank of Africa", "location": "Nyabihu", "tel": "No phone number"}, {"name": "Banque Rwandaise de Development", "location": "Nyabihu", "tel": "No phone number"}, {"name": "Equity Bank, Musanze Branch", "location": "Nyabihu", "tel": "No phone number"}, {"name": "I&M Bank", "location": "Nyabihu", "tel": "No phone number"}, {"name": "Urwego Bank", "location": "Nyabihu", "tel": "0788524460"}, {"name": "AB Bank", "location": "Nyabihu", "tel": "No phone number"}, {"name": "Access Bank", "location": "Nyabihu", "tel": "No phone number"}]