[{"name": "National Bank of Rwanda", "location": "Nyarugenge", "tel": "No phone number"}, {"name": "Unguka Bank HQ", "location": "Nyarugenge", "tel": "0726019165"}, {"name": "Bank of Kigali", "location": "Nyarugenge", "tel": "No phone number"}, {"name": "Bank of Kigali", "location": "Nyarugenge", "tel": "0783937013"}, {"name": "Bank of Africa", "location": "Nyarugenge", "tel": "No phone number"}, {"name": "AB Bank", "location": "Nyarugenge", "tel": "0789298060"}, {"name": "Development Bank of Rwanda", "location": "Nyarugenge", "tel": "No phone number"}, {"name": "Equity Bank, Kigali City Market Branch", "location": "Nyarugenge", "tel": "0788190000"}, {"name": "AB Bank Head Office", "location": "Nyarugenge", "tel": "0788319108"}, {"name": "KCB Rwanda Headquarters", "location": "Nyarugenge", "tel": "0788140400"}, {"name": "Access Bank Headquarters", "location": "Nyarugenge", "tel": "0788145300"}, {"name": "Bank of Kigali Headquarters", "location": "Nyarugenge", "tel": "0788143000"}, {"name": "GTBank", "location": "Nyarugenge", "tel": "0788149600"}, {"name": "Cogebanque", "location": "Nyarugenge", "tel": "0788155500"}, {"name": "Ecobank", "location": "Nyarugenge", "tel": "0788161036"}, {"name": "I&M Bank", "location": "Nyarugenge", "tel": "0788162198"}, {"name": "BPR", "location": "Nyarugenge", "tel": "0788187200"}, {"name": "I&M Bank Headquarters", "location": "Nyarugenge", "tel": "0788162006"}, {"name": "BANK OF AFRICA RWANDA PLC", "location": "Nyarugenge", "tel": "No phone number"}, {"name": "Atlantis Microfinance Head Office", "location": "Nyarugenge", "tel": "No phone number"}, {"name": "Ecobank Headquarters", "location": "Nyarugenge", "tel": "0788161000"}, {"name": "Bank of Africa Main Branch", "location": "Nyarugenge", "tel": "0788136228"}, {"name": "Equity Bank Headquarters", "location": "Nyarugenge", "tel": "0788190202"}, {"name": "Cogebanque Head Office", "location": "Nyarugenge", "tel": "No phone number"}, {"name": "Urwego Bank", "location": "Nyarugenge", "tel": "No phone number"}, {"name": "MY Office", "location": "Nyarugenge", "tel": "No phone number"}, {"name": "Bank of Kigali", "location": "Nyarugenge", "tel": "No phone number"}, {"name": "Access Bank ATM", "location": "Nyarugenge", "tel": "No phone number"}, {"name": "Cogebanque", "location": "Nyarugenge", "tel": "0788155500"}, {"name": "Ecobank", "location": "Nyarugenge", "tel": "No phone number"}, {"name": "Congebanque ATM", "location": "Nyarugenge", "tel": "0788155500"}, {"name": "GT Bank ATM", "location": "Nyarugenge", "tel": "No phone number"}, {"name": "Access Bank ATM", "location": "Nyarugenge", "tel": "No phone number"}, {"name": "AB Bank", "location": "Nyarugenge", "tel": "No phone number"}, {"name": "Bank Of Kigali ATM Machine", "location": "Nyarugenge", "tel": "No phone number"}, {"name": "Bank of Kigali", "location": "Nyarugenge", "tel": "No phone number"}, {"name": "Bank of Kigali", "location": "Nyarugenge", "tel": "No phone number"}, {"name": "Bank of Kigali, Nyabugogo Branch", "location": "Nyarugenge", "tel": "0788143554"}, {"name": "African Development Bank", "location": "Nyarugenge", "tel": "No phone number"}, {"name": "Duterimbere-IMF Head Office", "location": "Nyarugenge", "tel": "0788305651"}, {"name": "I&M Bank", "location": "Nyarugenge", "tel": "No phone number"}, {"name": "Bank of Kigali, RDB Branch", "location": "Nyarugenge", "tel": "0788640281"}, {"name": "GTBank Nyabugogo Branch", "location": "Nyarugenge", "tel": "No phone number"}, {"name": "Ecobank", "location": "Nyarugenge", "tel": "0788161306"}, {"name": "SMGF Rwanda", "location": "Nyarugenge", "tel": "0788354937"}, {"name": "GTBank ATM", "location": "Nyarugenge", "tel": "No phone number"}, {"name": "Bank of Kigali", "location": "Nyarugenge", "tel": "No phone number"}, {"name": "Bank of Kigali, Kicukiro Pension Plaza Branch", "location": "Nyarugenge", "tel": "No phone number"}, {"name": "Bank of Africa", "location": "Nyarugenge", "tel": "No phone number"}, {"name": "KCB Bank MTN Centre", "location": "Nyarugenge", "tel": "0788140000"}, {"name": "KCB Iwacu", "location": "Nyarugenge", "tel": "0788500539"}, {"name": "I&M Bank ATM", "location": "Nyarugenge", "tel": "No phone number"}, {"name": "Bank of Kigali ATM", "location": "Nyarugenge", "tel": "No phone number"}, {"name": "Cogebanque", "location": "Nyarugenge", "tel": "No phone number"}, {"name": "Bank of Kigali", "location": "Nyarugenge", "tel": "0788302514"}, {"name": "Access Bank", "location": "Nyarugenge", "tel": "No phone number"}, {"name": "Visa Rwanda", "location": "Nyarugenge", "tel": "No phone number"}, {"name": "KCB Iwacu", "location": "Nyarugenge", "tel": "0783578336"}, {"name": "Unguka Bank", "location": "Nyarugenge", "tel": "No phone number"}, {"name": "BRD, Financing Education Department", "location": "Nyarugenge", "tel": "No phone number"}, {"name": "Bank of Kigali, Giporoso Branch", "location": "Nyarugenge", "tel": "0788143046"}, {"name": "Unimoni", "location": "Nyarugenge", "tel": "0738377002"}, {"name": "BK ATM", "location": "Nyarugenge", "tel": "No phone number"}, {"name": "I&M Bank", "location": "Nyarugenge", "tel": "0788162202"}, {"name": "KCB Kimironko Branch", "location": "Nyarugenge", "tel": "0788140400"}, {"name": "East Africa Exchange", "location": "Nyarugenge", "tel": "0788197000"}, {"name": "I&M ATM", "location": "Nyarugenge", "tel": "No phone number"}, {"name": "Makuza Peace Plaza", "location": "Nyarugenge", "tel": "No phone number"}, {"name": "Urwego Bank Head Office", "location": "Nyarugenge", "tel": "0788173100"}, {"name": "BK ATM", "location": "Nyarugenge", "tel": "No phone number"}]