[{"name": "mushenyi hamabara", "location": "Burera", "tel": "No phone number"}, {"name": "Volcana Lounge", "location": "Burera", "tel": "No phone number"}, {"name": "La Paillotte", "location": "Burera", "tel": "No phone number"}, {"name": "Katima Restaurant", "location": "Burera", "tel": "No phone number"}, {"name": "kidaho club", "location": "Burera", "tel": "No phone number"}, {"name": "8shakeys resto-bar", "location": "Burera", "tel": "No phone number"}, {"name": "Silverback Top Link Restaurant", "location": "Burera", "tel": "No phone number"}, {"name": "Mabruki Cafe Resto", "location": "Burera", "tel": "No phone number"}, {"name": "Nyirantarengwa Coffee resto", "location": "Burera", "tel": "No phone number"}, {"name": "Isange BF Restaurant", "location": "Burera", "tel": "No phone number"}, {"name": "Good To Back Restaurant", "location": "Burera", "tel": "No phone number"}, {"name": "Shakeys Restaurant", "location": "Burera", "tel": "No phone number"}, {"name": "TM Bed & Breakfast", "location": "Burera", "tel": "No phone number"}, {"name": "Bar Stella", "location": "Burera", "tel": "No phone number"}, {"name": "Mabruki Cafe Resto", "location": "Burera", "tel": "No phone number"}, {"name": "Akiwacu Center Kumakaro", "location": "Burera", "tel": "No phone number"}, {"name": "Green Garden", "location": "Burera", "tel": "No phone number"}, {"name": "Chantal Mini Bar", "location": "Burera", "tel": "No phone number"}, {"name": "Umutekano Bar and Lodge", "location": "Burera", "tel": "No phone number"}, {"name": "F&B Brothers", "location": "Burera", "tel": "No phone number"}, {"name": "Woodley Bar", "location": "Burera", "tel": "No phone number"}, {"name": "Home kitchen", "location": "Burera", "tel": "No phone number"}, {"name": "Nice Garden", "location": "Burera", "tel": "No phone number"}, {"name": "Texas Bar", "location": "Burera", "tel": "No phone number"}, {"name": "Bar Inguni y'Amahoro", "location": "Burera", "tel": "No phone number"}, {"name": "La Frecheur", "location": "Burera", "tel": "No phone number"}, {"name": "Vision 2020", "location": "Burera", "tel": "No phone number"}, {"name": "Arizona Snack Bar", "location": "Burera", "tel": "No phone number"}, {"name": "Giramahoro", "location": "Burera", "tel": "No phone number"}, {"name": "SuPa's Bistro & Guesthouse", "location": "Burera", "tel": "No phone number"}, {"name": "Holy One Restaurant", "location": "Burera", "tel": "No phone number"}, {"name": "Terraceland Restaurant", "location": "Burera", "tel": "No phone number"}, {"name": "TURINUMWAMI RESTAURANT", "location": "Burera", "tel": "No phone number"}, {"name": "Community Group Restaurant", "location": "Burera", "tel": "No phone number"}, {"name": "Nkuringo gorilla junction", "location": "Burera", "tel": "No phone number"}, {"name": "Crater Bay Cottage", "location": "Burera", "tel": "No phone number"}, {"name": "Maranatha Restaurant", "location": "Burera", "tel": "No phone number"}, {"name": "Pearl of africa resort", "location": "Burera", "tel": "No phone number"}, {"name": "Kwa Chantal", "location": "Burera", "tel": "No phone number"}, {"name": "Nkuringo gorilla junction", "location": "Burera", "tel": "No phone number"}, {"name": "California Inn", "location": "Burera", "tel": "No phone number"}, {"name": "Tantum Ergo", "location": "Burera", "tel": "No phone number"}, {"name": "Meze Fresh", "location": "Burera", "tel": "No phone number"}, {"name": "Viena Guest House", "location": "Burera", "tel": "No phone number"}, {"name": "Bewell", "location": "Burera", "tel": "No phone number"}, {"name": "HOLY ONE", "location": "Burera", "tel": "No phone number"}, {"name": "Star lounge", "location": "Burera", "tel": "No phone number"}, {"name": "Country Side Guest House", "location": "Burera", "tel": "No phone number"}, {"name": "La Touristique Bar", "location": "Burera", "tel": "No phone number"}, {"name": "Hot Loaf Bakery & Little Ritz Restaurant", "location": "Burera", "tel": "No phone number"}, {"name": "Susa Gardens", "location": "Burera", "tel": "No phone number"}, {"name": "Lake View Coffee House", "location": "Burera", "tel": "No phone number"}, {"name": "Bar la confiane", "location": "Burera", "tel": "No phone number"}, {"name": "Lake View Coffeehouse", "location": "Burera", "tel": "No phone number"}, {"name": "The Cornerstone Restaurant and Take Away", "location": "Burera", "tel": "No phone number"}, {"name": "Coffee Pot Caf\u00e9", "location": "Burera", "tel": "No phone number"}, {"name": "Isange Paradise Resort", "location": "Burera", "tel": "No phone number"}, {"name": "Cofee Pot Cafe", "location": "Burera", "tel": "No phone number"}, {"name": "Coner-Bar and Restaurant", "location": "Burera", "tel": "No phone number"}, {"name": "Country Grill Bar And Restaurant", "location": "Burera", "tel": "No phone number"}, {"name": "Steamy Cafe", "location": "Burera", "tel": "No phone number"}, {"name": "Building Life Restaurant", "location": "Burera", "tel": "No phone number"}, {"name": "Club Vienna", "location": "Burera", "tel": "No phone number"}, {"name": "Lake World Tours", "location": "Burera", "tel": "No phone number"}, {"name": "Miami Restaurant", "location": "Burera", "tel": "No phone number"}, {"name": "Tourist Hotel, Kabale", "location": "Burera", "tel": "No phone number"}, {"name": "Dismas Joint", "location": "Burera", "tel": "No phone number"}, {"name": "Arihard Hotel", "location": "Burera", "tel": "No phone number"}, {"name": "Omucapa Pork Joint", "location": "Burera", "tel": "No phone number"}]