[{"name": "AGS Country Club", "location": "Gicumbi", "tel": "No phone number"}, {"name": "Monmarts\u00e9 Korean Restaurant", "location": "Gicumbi", "tel": "No phone number"}, {"name": "Meze Fresh", "location": "Gicumbi", "tel": "No phone number"}, {"name": "Filini Italian Restaurant", "location": "Gicumbi", "tel": "No phone number"}, {"name": "Delhi Darbar Indian Restaurant & Villa", "location": "Gicumbi", "tel": "No phone number"}, {"name": "Select", "location": "Gicumbi", "tel": "No phone number"}, {"name": "Shokola Caf\u00e9", "location": "Gicumbi", "tel": "No phone number"}, {"name": "Zen Oriental Cuisine", "location": "Gicumbi", "tel": "No phone number"}, {"name": "Choma'd", "location": "Gicumbi", "tel": "No phone number"}, {"name": "Habesha Ethiopian Restaurant", "location": "Gicumbi", "tel": "No phone number"}, {"name": "Brachetto", "location": "Gicumbi", "tel": "No phone number"}, {"name": "Sole Luna", "location": "Gicumbi", "tel": "No phone number"}, {"name": "Sakae Japanese & Korean", "location": "Gicumbi", "tel": "No phone number"}, {"name": "Century Park Chinese Restaurant", "location": "Gicumbi", "tel": "No phone number"}, {"name": "The Hut", "location": "Gicumbi", "tel": "No phone number"}, {"name": "Kiseki Authentic Japanese Restaurant", "location": "Gicumbi", "tel": "No phone number"}, {"name": "Lao Tangren Restaurant", "location": "Gicumbi", "tel": "No phone number"}, {"name": "Pili Pili", "location": "Gicumbi", "tel": "No phone number"}, {"name": "Heaven Restaurant & Boutique Hotel", "location": "Gicumbi", "tel": "No phone number"}, {"name": "Dae Jang Geum Korean Restaurant", "location": "Gicumbi", "tel": "No phone number"}, {"name": "Century Park Chinese Restaurant", "location": "Gicumbi", "tel": "No phone number"}, {"name": "Khana Khazana Kiyovu", "location": "Gicumbi", "tel": "No phone number"}, {"name": "Pili Pili", "location": "Gicumbi", "tel": "No phone number"}, {"name": "Fat Mama's Restaurant and Boutique Hotel", "location": "Gicumbi", "tel": "No phone number"}, {"name": "Bamboo Rooftop Restaurant", "location": "Gicumbi", "tel": "No phone number"}, {"name": "Lao Tangren Restaurant", "location": "Gicumbi", "tel": "No phone number"}, {"name": "Dae Jang Geum Korean Restaurant", "location": "Gicumbi", "tel": "No phone number"}, {"name": "Inka Steakhouse", "location": "Gicumbi", "tel": "No phone number"}, {"name": "Zaaffran Indian Restaurant", "location": "Gicumbi", "tel": "No phone number"}, {"name": "Java House - Kigali Heights", "location": "Gicumbi", "tel": "No phone number"}, {"name": "Japanda Restaurant", "location": "Gicumbi", "tel": "No phone number"}, {"name": "Kebab House", "location": "Gicumbi", "tel": "No phone number"}, {"name": "Great Wall Chinese Restaurant", "location": "Gicumbi", "tel": "No phone number"}, {"name": "Mr Chips", "location": "Gicumbi", "tel": "No phone number"}, {"name": "Restaurant Chez Lando", "location": "Gicumbi", "tel": "No phone number"}, {"name": "Turambe Shoppe", "location": "Gicumbi", "tel": "No phone number"}, {"name": "New Cactus", "location": "Gicumbi", "tel": "No phone number"}, {"name": "Casa Keza", "location": "Gicumbi", "tel": "No phone number"}, {"name": "Ki-Asili Resto Bar & Fast Food", "location": "Gicumbi", "tel": "No phone number"}, {"name": "Burrows Bar & Restaurant", "location": "Gicumbi", "tel": "No phone number"}, {"name": "UMUT Cafe & Restaurant", "location": "Gicumbi", "tel": "No phone number"}, {"name": "Dmall Restaurant & Hotel", "location": "Gicumbi", "tel": "No phone number"}, {"name": "Terra Restaurant & Grill", "location": "Gicumbi", "tel": "No phone number"}, {"name": "Cocobean", "location": "Gicumbi", "tel": "No phone number"}, {"name": "Chez John Restaurant", "location": "Gicumbi", "tel": "No phone number"}, {"name": "Khana Khazana Nyarutarama", "location": "Gicumbi", "tel": "No phone number"}, {"name": "Lebanon Hotel Kigali Restaurant", "location": "Gicumbi", "tel": "No phone number"}, {"name": "Trattoria Restaurant and Bar", "location": "Gicumbi", "tel": "No phone number"}, {"name": "Grill & Barbecue", "location": "Gicumbi", "tel": "No phone number"}, {"name": "Shokola Storytellers Caf\u00e9", "location": "Gicumbi", "tel": "No phone number"}, {"name": "Dehli Darbar Hotel & Restaurant", "location": "Gicumbi", "tel": "No phone number"}, {"name": "Camellia Tea House.", "location": "Gicumbi", "tel": "No phone number"}, {"name": "Fusion Restaurant", "location": "Gicumbi", "tel": "No phone number"}, {"name": "Caiman", "location": "Gicumbi", "tel": "No phone number"}, {"name": "4Blooms", "location": "Gicumbi", "tel": "No phone number"}, {"name": "Soko Restaurant", "location": "Gicumbi", "tel": "No phone number"}, {"name": "Inyenyeri Bar and Restaurant", "location": "Gicumbi", "tel": "No phone number"}, {"name": "Dolce Bar Restaurant Pizzeria", "location": "Gicumbi", "tel": "No phone number"}, {"name": "Fixtech Fast Food Restaurant", "location": "Gicumbi", "tel": "No phone number"}, {"name": "Riders Lounge Kigali", "location": "Gicumbi", "tel": "No phone number"}, {"name": "A Link", "location": "Gicumbi", "tel": "No phone number"}, {"name": "German Butchery", "location": "Gicumbi", "tel": "No phone number"}, {"name": "Bwok Bistro Restaurant", "location": "Gicumbi", "tel": "No phone number"}, {"name": "Qiang Brother Chinese Restaurant", "location": "Gicumbi", "tel": "No phone number"}, {"name": "Colours Club Garden Restaurant", "location": "Gicumbi", "tel": "No phone number"}, {"name": "Kabana Club Restaurant", "location": "Gicumbi", "tel": "No phone number"}]