[{"name": "Chinese Restaurant", "location": "Gisagara", "tel": "No phone number"}, {"name": "Shekinah Restaurant", "location": "Gisagara", "tel": "No phone number"}, {"name": "Iluminatio Restaurant", "location": "Gisagara", "tel": "No phone number"}, {"name": "Cascade Restaurant", "location": "Gisagara", "tel": "No phone number"}, {"name": "Kwa Gikongoro Restaurant", "location": "Gisagara", "tel": "No phone number"}, {"name": "La Diff\u00e9rence Restaurant", "location": "Gisagara", "tel": "No phone number"}, {"name": "Kwa Gicumba Restaurant", "location": "Gisagara", "tel": "No phone number"}, {"name": "Blessing Restaurant", "location": "Gisagara", "tel": "No phone number"}, {"name": "Africana Restaurant and Take Away", "location": "Gisagara", "tel": "No phone number"}, {"name": "Kwa Mariya Restaurant", "location": "Gisagara", "tel": "No phone number"}, {"name": "Chez Deo", "location": "Gisagara", "tel": "No phone number"}, {"name": "Macrobiotic Restaurant", "location": "Gisagara", "tel": "No phone number"}, {"name": "Illuminatio", "location": "Gisagara", "tel": "No phone number"}, {"name": "Upendi Pub", "location": "Gisagara", "tel": "No phone number"}, {"name": "Mama Aline", "location": "Gisagara", "tel": "No phone number"}, {"name": "Nehemiah's Best Coffee", "location": "Gisagara", "tel": "No phone number"}, {"name": "Chez Venant", "location": "Gisagara", "tel": "No phone number"}, {"name": "Hilltop", "location": "Gisagara", "tel": "No phone number"}, {"name": "Cactus", "location": "Gisagara", "tel": "No phone number"}, {"name": "Saint Vincent", "location": "Gisagara", "tel": "No phone number"}, {"name": "Kwa Ndamukunda", "location": "Gisagara", "tel": "No phone number"}, {"name": "Wariraye Building", "location": "Gisagara", "tel": "No phone number"}, {"name": "Amafu ya Huye", "location": "Gisagara", "tel": "No phone number"}, {"name": "Kwa Maria", "location": "Gisagara", "tel": "No phone number"}, {"name": "Dancing Bar", "location": "Gisagara", "tel": "No phone number"}, {"name": "Fresh Rolex", "location": "Gisagara", "tel": "No phone number"}]