[{"name": "Nehemiah's Best Coffee", "location": "Huye", "tel": "No phone number"}, {"name": "Chinese Restaurant", "location": "Huye", "tel": "No phone number"}, {"name": "Africana Restaurant and Take Away", "location": "Huye", "tel": "No phone number"}, {"name": "Amafu ya Huye", "location": "Huye", "tel": "No phone number"}, {"name": "Cascade Restaurant", "location": "Huye", "tel": "No phone number"}, {"name": "Kwa Gikongoro Restaurant", "location": "Huye", "tel": "No phone number"}, {"name": "Blessing Restaurant", "location": "Huye", "tel": "No phone number"}, {"name": "Kwa Gicumba Restaurant", "location": "Huye", "tel": "No phone number"}, {"name": "Iluminatio Restaurant", "location": "Huye", "tel": "No phone number"}, {"name": "Mama Aline", "location": "Huye", "tel": "No phone number"}, {"name": "Chez Deo", "location": "Huye", "tel": "No phone number"}, {"name": "Kwa Maria", "location": "Huye", "tel": "No phone number"}, {"name": "Fresh Rolex", "location": "Huye", "tel": "No phone number"}, {"name": "Saint Vincent", "location": "Huye", "tel": "No phone number"}, {"name": "Kwa Ndamukunda", "location": "Huye", "tel": "No phone number"}, {"name": "Shekinah Restaurant", "location": "Huye", "tel": "No phone number"}, {"name": "New Texas", "location": "Huye", "tel": "No phone number"}, {"name": "La Diff\u00e9rence Restaurant", "location": "Huye", "tel": "No phone number"}, {"name": "Macrobiotic Restaurant", "location": "Huye", "tel": "No phone number"}, {"name": "Upendi Pub", "location": "Huye", "tel": "No phone number"}, {"name": "5/5 Bar & Restaurant", "location": "Huye", "tel": "No phone number"}, {"name": "Wariraye Building", "location": "Huye", "tel": "No phone number"}, {"name": "Chez athanase Eden", "location": "Huye", "tel": "No phone number"}, {"name": "Restaurent Inyamibwa", "location": "Huye", "tel": "No phone number"}, {"name": "Cactus", "location": "Huye", "tel": "No phone number"}, {"name": "Chez Venant", "location": "Huye", "tel": "No phone number"}, {"name": "Hilltop", "location": "Huye", "tel": "No phone number"}, {"name": "Dancing Bar", "location": "Huye", "tel": "No phone number"}, {"name": "Bar UMUHUZA CHEZ PASCAL", "location": "Huye", "tel": "No phone number"}, {"name": "Inzozi Nziza Fast Food", "location": "Huye", "tel": "No phone number"}]