[{"name": "Cucina Italian Restaurant", "location": "Kamonyi", "tel": "No phone number"}, {"name": "Heaven Restaurant & Boutique Hotel", "location": "Kamonyi", "tel": "No phone number"}, {"name": "Bamboo Rooftop Restaurant", "location": "Kamonyi", "tel": "No phone number"}, {"name": "Khana Khazana Kiyovu", "location": "Kamonyi", "tel": "No phone number"}, {"name": "UMUT Cafe & Restaurant", "location": "Kamonyi", "tel": "No phone number"}, {"name": "Shokola Caf\u00e9", "location": "Kamonyi", "tel": "No phone number"}, {"name": "Preet Fast Food", "location": "Kamonyi", "tel": "No phone number"}, {"name": "New Cactus", "location": "Kamonyi", "tel": "No phone number"}, {"name": "German Butchery", "location": "Kamonyi", "tel": "No phone number"}, {"name": "Ki-Asili Resto Bar & Fast Food", "location": "Kamonyi", "tel": "No phone number"}, {"name": "Repub Lounge", "location": "Kamonyi", "tel": "No phone number"}, {"name": "Brachetto", "location": "Kamonyi", "tel": "No phone number"}, {"name": "Chez John Restaurant", "location": "Kamonyi", "tel": "No phone number"}, {"name": "L'\u00c9picurien", "location": "Kamonyi", "tel": "No phone number"}, {"name": "Camellia Tea House.", "location": "Kamonyi", "tel": "No phone number"}, {"name": "Meze Fresh", "location": "Kamonyi", "tel": "No phone number"}, {"name": "Monmarts\u00e9 Korean Restaurant", "location": "Kamonyi", "tel": "No phone number"}, {"name": "Kiseki Authentic Japanese Restaurant", "location": "Kamonyi", "tel": "No phone number"}, {"name": "The Hut", "location": "Kamonyi", "tel": "No phone number"}, {"name": "Poivre Noir", "location": "Kamonyi", "tel": "No phone number"}, {"name": "Soko Restaurant", "location": "Kamonyi", "tel": "No phone number"}, {"name": "Turambe Shoppe", "location": "Kamonyi", "tel": "No phone number"}, {"name": "4Blooms", "location": "Kamonyi", "tel": "No phone number"}, {"name": "Select", "location": "Kamonyi", "tel": "No phone number"}, {"name": "Dolce Bar Restaurant Pizzeria", "location": "Kamonyi", "tel": "No phone number"}, {"name": "Camellia Restaurant", "location": "Kamonyi", "tel": "No phone number"}, {"name": "Zaaffran Indian Restaurant", "location": "Kamonyi", "tel": "No phone number"}, {"name": "Habesha Ethiopian Restaurant", "location": "Kamonyi", "tel": "No phone number"}, {"name": "Japanda Restaurant", "location": "Kamonyi", "tel": "No phone number"}, {"name": "Fusion Restaurant", "location": "Kamonyi", "tel": "No phone number"}, {"name": "Milima Restaurant", "location": "Kamonyi", "tel": "No phone number"}, {"name": "Filini Italian Restaurant", "location": "Kamonyi", "tel": "No phone number"}, {"name": "White Horse Restaurant", "location": "Kamonyi", "tel": "No phone number"}, {"name": "Fat Mama's Restaurant and Boutique Hotel", "location": "Kamonyi", "tel": "No phone number"}, {"name": "Century Park Chinese Restaurant", "location": "Kamonyi", "tel": "No phone number"}, {"name": "Sole Luna", "location": "Kamonyi", "tel": "No phone number"}, {"name": "Delhi Darbar Indian Restaurant & Villa", "location": "Kamonyi", "tel": "No phone number"}, {"name": "New lahori Pakistani Restaurant Kigali", "location": "Kamonyi", "tel": "No phone number"}, {"name": "Inka Steakhouse", "location": "Kamonyi", "tel": "No phone number"}, {"name": "Java House - Kigali Heights", "location": "Kamonyi", "tel": "No phone number"}, {"name": "Trattoria Restaurant and Bar", "location": "Kamonyi", "tel": "No phone number"}, {"name": "Choma'd", "location": "Kamonyi", "tel": "No phone number"}, {"name": "Le Panorama", "location": "Kamonyi", "tel": "No phone number"}, {"name": "O'Tamarillo", "location": "Kamonyi", "tel": "No phone number"}]