[{"name": "Jambo Beach", "location": "Kayonza", "tel": "No phone number"}, {"name": "Seed of Peace Center", "location": "Kayonza", "tel": "No phone number"}, {"name": "Pasadena Bar and Restaurant", "location": "Kayonza", "tel": "No phone number"}, {"name": "Detente Restaurant", "location": "Kayonza", "tel": "No phone number"}, {"name": "Dieta Bar & Restaurant", "location": "Kayonza", "tel": "No phone number"}, {"name": "Classic Restaurant", "location": "Kayonza", "tel": "No phone number"}, {"name": "Seads of Peace at Gahini Muhazi Lake", "location": "Kayonza", "tel": "0780000000"}, {"name": "Inka Plate Restaurant", "location": "Kayonza", "tel": "No phone number"}, {"name": "Rugende Park", "location": "Kayonza", "tel": "No phone number"}, {"name": "Roserory Beach Restaurant", "location": "Kayonza", "tel": "No phone number"}, {"name": "La Fra\u00eecheur", "location": "Kayonza", "tel": "No phone number"}, {"name": "Kingfisher Beach Restaurant", "location": "Kayonza", "tel": "No phone number"}, {"name": "Dolce Vita Bar & Restaurant", "location": "Kayonza", "tel": "No phone number"}, {"name": "Sano Park", "location": "Kayonza", "tel": "No phone number"}, {"name": "Urugo Roadside Caf\u00e9", "location": "Kayonza", "tel": "No phone number"}, {"name": "kebab bar and restaurent", "location": "Kayonza", "tel": "No phone number"}]