[{"name": "Majestic Resto & Bar", "location": "Kicukiro", "tel": "No phone number"}, {"name": "Al Halal Restaurant", "location": "Kicukiro", "tel": "No phone number"}, {"name": "4Blooms", "location": "Kicukiro", "tel": "No phone number"}, {"name": "Freshness Bar", "location": "Kicukiro", "tel": "No phone number"}, {"name": "Inka Steakhouse", "location": "Kicukiro", "tel": "No phone number"}, {"name": "Plus 250", "location": "Kicukiro", "tel": "No phone number"}, {"name": "La Sanitas", "location": "Kicukiro", "tel": "No phone number"}, {"name": "Tella Vista", "location": "Kicukiro", "tel": "No phone number"}, {"name": "Happy Park", "location": "Kicukiro", "tel": "No phone number"}, {"name": "Experience Restaurant", "location": "Kicukiro", "tel": "No phone number"}, {"name": "Habesha Ethiopian Restaurant", "location": "Kicukiro", "tel": "No phone number"}, {"name": "V8 Bar & Resto", "location": "Kicukiro", "tel": "No phone number"}, {"name": "Fresh Inn Restaurant", "location": "Kicukiro", "tel": "No phone number"}, {"name": "High west Restaurant", "location": "Kicukiro", "tel": "No phone number"}, {"name": "Monmarts\u00e9 Korean Restaurant", "location": "Kicukiro", "tel": "No phone number"}, {"name": "The Hut", "location": "Kicukiro", "tel": "No phone number"}, {"name": "Meze Fresh", "location": "Kicukiro", "tel": "No phone number"}, {"name": "Ku Kabenzi", "location": "Kicukiro", "tel": "No phone number"}, {"name": "Nziza Canteen", "location": "Kicukiro", "tel": "No phone number"}, {"name": "Fat Mama's Restaurant and Boutique Hotel", "location": "Kicukiro", "tel": "No phone number"}, {"name": "Filini Italian Restaurant", "location": "Kicukiro", "tel": "No phone number"}, {"name": "Kiseki Authentic Japanese Restaurant", "location": "Kicukiro", "tel": "No phone number"}, {"name": "Select", "location": "Kicukiro", "tel": "No phone number"}, {"name": "Restaurant Chez Lando", "location": "Kicukiro", "tel": "No phone number"}, {"name": "KWA MAGGA", "location": "Kicukiro", "tel": "No phone number"}, {"name": "Lao Tangren Restaurant", "location": "Kicukiro", "tel": "No phone number"}, {"name": "La Luna d'Oro", "location": "Kicukiro", "tel": "No phone number"}, {"name": "Mugisha Farms, Zinia Market Branch", "location": "Kicukiro", "tel": "0728302552"}, {"name": "A Link", "location": "Kicukiro", "tel": "No phone number"}]