[{"name": "Mater Dei Motel", "location": "Muhanga", "tel": "No phone number"}, {"name": "Muhanga", "location": "Muhanga", "tel": "No phone number"}, {"name": "Cucina Italian Restaurant", "location": "Muhanga", "tel": "No phone number"}, {"name": "Monmarts\u00e9 Korean Restaurant", "location": "Muhanga", "tel": "No phone number"}, {"name": "Heaven Restaurant & Boutique Hotel", "location": "Muhanga", "tel": "No phone number"}, {"name": "Poivre Noir", "location": "Muhanga", "tel": "No phone number"}, {"name": "Meze Fresh", "location": "Muhanga", "tel": "No phone number"}, {"name": "Brachetto", "location": "Muhanga", "tel": "No phone number"}, {"name": "Kiseki Authentic Japanese Restaurant", "location": "Muhanga", "tel": "No phone number"}, {"name": "Shokola Caf\u00e9", "location": "Muhanga", "tel": "No phone number"}, {"name": "Select", "location": "Muhanga", "tel": "No phone number"}, {"name": "Filini Italian Restaurant", "location": "Muhanga", "tel": "No phone number"}, {"name": "The Hut", "location": "Muhanga", "tel": "No phone number"}, {"name": "Repub Lounge", "location": "Muhanga", "tel": "No phone number"}, {"name": "Chez John Restaurant", "location": "Muhanga", "tel": "No phone number"}, {"name": "L'\u00c9picurien", "location": "Muhanga", "tel": "No phone number"}, {"name": "Bamboo Rooftop Restaurant", "location": "Muhanga", "tel": "No phone number"}, {"name": "Restaurant Chez Lando", "location": "Muhanga", "tel": "No phone number"}, {"name": "Habesha Ethiopian Restaurant", "location": "Muhanga", "tel": "No phone number"}, {"name": "UMUT Cafe & Restaurant", "location": "Muhanga", "tel": "No phone number"}, {"name": "Inka Steakhouse", "location": "Muhanga", "tel": "No phone number"}, {"name": "Fat Mama's Restaurant and Boutique Hotel", "location": "Muhanga", "tel": "No phone number"}, {"name": "Khana Khazana Kiyovu", "location": "Muhanga", "tel": "No phone number"}, {"name": "Century Park Chinese Restaurant", "location": "Muhanga", "tel": "No phone number"}, {"name": "Delhi Darbar Indian Restaurant & Villa", "location": "Muhanga", "tel": "No phone number"}, {"name": "Sakae Japanese & Korean", "location": "Muhanga", "tel": "No phone number"}, {"name": "4Blooms", "location": "Muhanga", "tel": "No phone number"}, {"name": "Lao Tangren Restaurant", "location": "Muhanga", "tel": "No phone number"}, {"name": "Dae Jang Geum Korean Restaurant", "location": "Muhanga", "tel": "No phone number"}, {"name": "Japanda Restaurant", "location": "Muhanga", "tel": "No phone number"}, {"name": "New Cactus", "location": "Muhanga", "tel": "No phone number"}, {"name": "Dolce Bar Restaurant Pizzeria", "location": "Muhanga", "tel": "No phone number"}, {"name": "Zen Oriental Cuisine", "location": "Muhanga", "tel": "No phone number"}, {"name": "Kebab House", "location": "Muhanga", "tel": "No phone number"}, {"name": "Java House - Kigali Heights", "location": "Muhanga", "tel": "No phone number"}, {"name": "Zaaffran Indian Restaurant", "location": "Muhanga", "tel": "No phone number"}, {"name": "German Butchery", "location": "Muhanga", "tel": "No phone number"}, {"name": "Trattoria Restaurant and Bar", "location": "Muhanga", "tel": "No phone number"}, {"name": "White Horse Restaurant", "location": "Muhanga", "tel": "No phone number"}, {"name": "Great Wall Chinese Restaurant", "location": "Muhanga", "tel": "No phone number"}, {"name": "Camellia Tea House.", "location": "Muhanga", "tel": "No phone number"}, {"name": "Riders Lounge Kigali", "location": "Muhanga", "tel": "No phone number"}, {"name": "Dmall Restaurant & Hotel", "location": "Muhanga", "tel": "No phone number"}, {"name": "Burrows Bar & Restaurant", "location": "Muhanga", "tel": "No phone number"}, {"name": "Cocobean", "location": "Muhanga", "tel": "No phone number"}, {"name": "Casa Keza", "location": "Muhanga", "tel": "No phone number"}, {"name": "A Link", "location": "Muhanga", "tel": "No phone number"}, {"name": "Shokola Storytellers Caf\u00e9", "location": "Muhanga", "tel": "No phone number"}, {"name": "Milima Restaurant", "location": "Muhanga", "tel": "No phone number"}, {"name": "Grill & Barbecue", "location": "Muhanga", "tel": "No phone number"}, {"name": "Mr Chips", "location": "Muhanga", "tel": "No phone number"}, {"name": "Khana Khazana Nyarutarama", "location": "Muhanga", "tel": "No phone number"}, {"name": "Lebanon Hotel Kigali Restaurant", "location": "Muhanga", "tel": "No phone number"}, {"name": "Fusion Restaurant", "location": "Muhanga", "tel": "No phone number"}, {"name": "Kabana Club Restaurant", "location": "Muhanga", "tel": "No phone number"}, {"name": "Soko Restaurant", "location": "Muhanga", "tel": "No phone number"}, {"name": "B&A Restaurant and Bar", "location": "Muhanga", "tel": "No phone number"}, {"name": "Bwok Bistro Restaurant", "location": "Muhanga", "tel": "No phone number"}, {"name": "Camellia Restaurant", "location": "Muhanga", "tel": "No phone number"}, {"name": "Inyenyeri Bar and Restaurant", "location": "Muhanga", "tel": "No phone number"}, {"name": "O'Tamarillo", "location": "Muhanga", "tel": "No phone number"}, {"name": "The Bistro", "location": "Muhanga", "tel": "No phone number"}, {"name": "Fixtech Fast Food Restaurant", "location": "Muhanga", "tel": "No phone number"}, {"name": "Lalibela Ethiopian Restaurant", "location": "Muhanga", "tel": "No phone number"}, {"name": "Caiman", "location": "Muhanga", "tel": "No phone number"}, {"name": "Cool Garden Restaurant", "location": "Muhanga", "tel": "No phone number"}, {"name": "Le Panorama", "location": "Muhanga", "tel": "No phone number"}, {"name": "Mosaic Restaurant", "location": "Muhanga", "tel": "No phone number"}, {"name": "New lahori Pakistani Restaurant Kigali", "location": "Muhanga", "tel": "No phone number"}, {"name": "Centre d'Accueil Hosana", "location": "Muhanga", "tel": "No phone number"}, {"name": "Thinko restaurant", "location": "Muhanga", "tel": "No phone number"}, {"name": "Delizia Italiana", "location": "Muhanga", "tel": "No phone number"}, {"name": "Sundowner", "location": "Muhanga", "tel": "No phone number"}, {"name": "Terra Restaurant & Grill", "location": "Muhanga", "tel": "No phone number"}, {"name": "Simba Resto & Bar", "location": "Muhanga", "tel": "No phone number"}, {"name": "Al-Mannu Fast Food", "location": "Muhanga", "tel": "No phone number"}, {"name": "Select Restaurant", "location": "Muhanga", "tel": "No phone number"}, {"name": "Tchitchi Restaurant", "location": "Muhanga", "tel": "No phone number"}, {"name": "Golf Club Bar and Restaurant", "location": "Muhanga", "tel": "No phone number"}, {"name": "Dehli Darbar Hotel & Restaurant", "location": "Muhanga", "tel": "No phone number"}, {"name": "Avalunch Fast Food And Restaurant", "location": "Muhanga", "tel": "No phone number"}, {"name": "Beijing Restaurant", "location": "Muhanga", "tel": "No phone number"}, {"name": "Sarabi Grill", "location": "Muhanga", "tel": "No phone number"}, {"name": "Shere Sardar Indian Restaurant", "location": "Muhanga", "tel": "No phone number"}, {"name": "Shalom Restaurant", "location": "Muhanga", "tel": "No phone number"}, {"name": "Banana Bar & Restaurant", "location": "Muhanga", "tel": "No phone number"}, {"name": "Ongdalsaem & Hong Kong Restaurant", "location": "Muhanga", "tel": "No phone number"}, {"name": "Canaberra", "location": "Muhanga", "tel": "No phone number"}, {"name": "Amata n'Ubuki Boutique Hotel & Restaurant", "location": "Muhanga", "tel": "No phone number"}, {"name": "Asian Kitchen", "location": "Muhanga", "tel": "No phone number"}, {"name": "Borneo Indonesian Restaurant", "location": "Muhanga", "tel": "No phone number"}, {"name": "Marrakesh Restaurant", "location": "Muhanga", "tel": "No phone number"}, {"name": "The Fork", "location": "Muhanga", "tel": "No phone number"}, {"name": "Marco's - Italian Restaurant", "location": "Muhanga", "tel": "No phone number"}, {"name": "Chez Moi Restaurant", "location": "Muhanga", "tel": "No phone number"}, {"name": "Le Pichet", "location": "Muhanga", "tel": "No phone number"}, {"name": "Cafe Restaurant Olympiade", "location": "Muhanga", "tel": "No phone number"}, {"name": "Al Halal Restaurant", "location": "Muhanga", "tel": "No phone number"}, {"name": "Flavours Global Cuisine", "location": "Muhanga", "tel": "No phone number"}, {"name": "LaFleur Cuisine", "location": "Muhanga", "tel": "No phone number"}, {"name": "Bourbon Coffee", "location": "Muhanga", "tel": "No phone number"}, {"name": "India Gate Bar & Restaurant (Sanitas)", "location": "Muhanga", "tel": "No phone number"}, {"name": "Colours Club Garden Restaurant", "location": "Muhanga", "tel": "No phone number"}, {"name": "Grand Bakery And Restaurant", "location": "Muhanga", "tel": "No phone number"}, {"name": "Jungle Trees", "location": "Muhanga", "tel": "No phone number"}, {"name": "Kijamii Table", "location": "Muhanga", "tel": "No phone number"}, {"name": "Sandwich Factory", "location": "Muhanga", "tel": "No phone number"}, {"name": "Mini Tamu Tamu", "location": "Muhanga", "tel": "No phone number"}, {"name": "Mamba", "location": "Muhanga", "tel": "No phone number"}, {"name": "Pad Thai restaurant", "location": "Muhanga", "tel": "No phone number"}, {"name": "BWOK Bakery", "location": "Muhanga", "tel": "No phone number"}, {"name": "Roasters CHOMAZONE Restaurant", "location": "Muhanga", "tel": "No phone number"}, {"name": "The Cellar Restaurant", "location": "Muhanga", "tel": "No phone number"}, {"name": "Au Coin des Amis", "location": "Muhanga", "tel": "No phone number"}, {"name": "Pan China", "location": "Muhanga", "tel": "No phone number"}, {"name": "Billy\u2019s Bistro & Bar", "location": "Muhanga", "tel": "No phone number"}, {"name": "Fantastic Restaurant", "location": "Muhanga", "tel": "No phone number"}, {"name": "Amigo SS restaurant", "location": "Muhanga", "tel": "No phone number"}, {"name": "Tally Bakery Cafe", "location": "Muhanga", "tel": "No phone number"}, {"name": "Afia Organics", "location": "Muhanga", "tel": "No phone number"}, {"name": "Kebab House", "location": "Muhanga", "tel": "No phone number"}, {"name": "Carwash Bistro& Grill", "location": "Muhanga", "tel": "No phone number"}, {"name": "Caf\u00e9 Rio", "location": "Muhanga", "tel": "No phone number"}, {"name": "Silk Restaurant Oriental Cuisine", "location": "Muhanga", "tel": "No phone number"}, {"name": "Greek Taverna at Hotel Hellenic", "location": "Muhanga", "tel": "No phone number"}, {"name": "Cafe Ark", "location": "Muhanga", "tel": "No phone number"}, {"name": "Chez Hirwa", "location": "Muhanga", "tel": "No phone number"}, {"name": "Syria Rehan", "location": "Muhanga", "tel": "No phone number"}, {"name": "Masters Pizza", "location": "Muhanga", "tel": "No phone number"}, {"name": "Fresh Inn Restaurant", "location": "Muhanga", "tel": "No phone number"}, {"name": "Alimentation Filadelifiya LTD", "location": "Muhanga", "tel": "No phone number"}, {"name": "Master Grill", "location": "Muhanga", "tel": "No phone number"}, {"name": "Le Muguet", "location": "Muhanga", "tel": "No phone number"}, {"name": "PiccadillyKGL", "location": "Muhanga", "tel": "No phone number"}, {"name": "Round one Bistro (round 1)", "location": "Muhanga", "tel": "No phone number"}, {"name": "Lavana", "location": "Muhanga", "tel": "No phone number"}, {"name": "Fixtech", "location": "Muhanga", "tel": "No phone number"}, {"name": "Beirut", "location": "Muhanga", "tel": "No phone number"}, {"name": "Toundra Coffee Cup", "location": "Muhanga", "tel": "No phone number"}, {"name": "La Luna d'Oro", "location": "Muhanga", "tel": "No phone number"}, {"name": "Pizza Inn & Chicken Inn", "location": "Muhanga", "tel": "No phone number"}, {"name": "Imbogo Pub", "location": "Muhanga", "tel": "No phone number"}, {"name": "Resto Bar Imuhira", "location": "Muhanga", "tel": "No phone number"}, {"name": "Chicken Inn", "location": "Muhanga", "tel": "No phone number"}, {"name": "Koko House (Bistro-Bar-Spa)", "location": "Muhanga", "tel": "No phone number"}, {"name": "Plus 250", "location": "Muhanga", "tel": "No phone number"}, {"name": "The Cellar Restaurant", "location": "Muhanga", "tel": "No phone number"}, {"name": "Just Chill Kigali", "location": "Muhanga", "tel": "No phone number"}, {"name": "Java Coffee House", "location": "Muhanga", "tel": "No phone number"}, {"name": "Rooftop Rendezvous", "location": "Muhanga", "tel": "No phone number"}, {"name": "Maman Maria Restaurant", "location": "Muhanga", "tel": "No phone number"}, {"name": "Moonax", "location": "Muhanga", "tel": "No phone number"}, {"name": "Chocolats Caract\u00e8re", "location": "Muhanga", "tel": "No phone number"}, {"name": "Eden du Lac", "location": "Muhanga", "tel": "No phone number"}, {"name": "Afrika Bite", "location": "Muhanga", "tel": "No phone number"}, {"name": "Happy Park", "location": "Muhanga", "tel": "No phone number"}, {"name": "Patel Grocers & Zaaffran Indian Restaurant", "location": "Muhanga", "tel": "0783335971"}, {"name": "Come Again", "location": "Muhanga", "tel": "No phone number"}, {"name": "The Yard", "location": "Muhanga", "tel": "No phone number"}, {"name": "Chez Robert", "location": "Muhanga", "tel": "No phone number"}, {"name": "H\u00f4tel Chez Lando", "location": "Muhanga", "tel": "No phone number"}, {"name": "Agence Pub Bar & Restaurant", "location": "Muhanga", "tel": "No phone number"}, {"name": "Sole Luna", "location": "Muhanga", "tel": "No phone number"}, {"name": "Qiang Brother Chinese Restaurant", "location": "Muhanga", "tel": "No phone number"}, {"name": "Saga Cit\u00e9 Restaurant and Bar", "location": "Muhanga", "tel": "No phone number"}, {"name": "Mama Boy Restaurant", "location": "Muhanga", "tel": "No phone number"}, {"name": "Lin & Gao Bar & Restaurant", "location": "Muhanga", "tel": "No phone number"}, {"name": "\u0627\u0644\u0645\u0637\u0639\u0645 \u0627\u0644\u0639\u0631\u0628\u064a \u0644\u0644\u0645\u0646\u062f\u064a Arabic restaurant for Mandy", "location": "Muhanga", "tel": "No phone number"}, {"name": "L&G Rooftop Restaurant", "location": "Muhanga", "tel": "No phone number"}, {"name": "Repub Lounge", "location": "Muhanga", "tel": "No phone number"}, {"name": "HAPPY DAY RESTAURANT", "location": "Muhanga", "tel": "No phone number"}, {"name": "Golden plate restaurant", "location": "Muhanga", "tel": "No phone number"}, {"name": "Live-Inn Room Restaurant", "location": "Muhanga", "tel": "No phone number"}, {"name": "159 Chinese restaurant", "location": "Muhanga", "tel": "No phone number"}, {"name": "Elevate Suites", "location": "Muhanga", "tel": "No phone number"}, {"name": "Legend Chinese Restaurant", "location": "Muhanga", "tel": "No phone number"}, {"name": "Turambe Shoppe", "location": "Muhanga", "tel": "No phone number"}, {"name": "Experience Restaurant", "location": "Muhanga", "tel": "No phone number"}, {"name": "Emerald Coffee and Restaurant", "location": "Muhanga", "tel": "No phone number"}, {"name": "ShanXi Noodle Restaurant", "location": "Muhanga", "tel": "No phone number"}, {"name": "RED SKY BAR LOUNGE & RESTAURANT", "location": "Muhanga", "tel": "No phone number"}, {"name": "Lin and Gao Casino, Bar and Restaurant", "location": "Muhanga", "tel": "No phone number"}, {"name": "Alcobradubai Restaurant", "location": "Muhanga", "tel": "No phone number"}, {"name": "Khana Khazana Villas &Boutique Hotel / Indian Rstaurant", "location": "Muhanga", "tel": "No phone number"}, {"name": "Xiang Man Yuan Chinese Restaurant", "location": "Muhanga", "tel": "No phone number"}, {"name": "The Retreat", "location": "Muhanga", "tel": "No phone number"}, {"name": "Preet Fast Food", "location": "Muhanga", "tel": "No phone number"}, {"name": "Chapati", "location": "Muhanga", "tel": "No phone number"}, {"name": "The Distillery", "location": "Muhanga", "tel": "No phone number"}, {"name": "Brocky restaurant", "location": "Muhanga", "tel": "No phone number"}, {"name": "Hashtag Meet and Eat", "location": "Muhanga", "tel": "No phone number"}, {"name": "Gusto Italiano Pizzeria", "location": "Muhanga", "tel": "No phone number"}, {"name": "Everlasting", "location": "Muhanga", "tel": "No phone number"}, {"name": "The Coffee Break", "location": "Muhanga", "tel": "No phone number"}, {"name": "Cafe Camellia KBC", "location": "Muhanga", "tel": "No phone number"}, {"name": "The Larder", "location": "Muhanga", "tel": "No phone number"}, {"name": "Soy Asian Table", "location": "Muhanga", "tel": "No phone number"}, {"name": "Business Class Lounge", "location": "Muhanga", "tel": "No phone number"}, {"name": "Heroes Corner", "location": "Muhanga", "tel": "No phone number"}, {"name": "Paradise Rwanda Restobar", "location": "Muhanga", "tel": "No phone number"}, {"name": "RED SKY BAR LOUNGE & RESTAURANT", "location": "Muhanga", "tel": "No phone number"}]