[{"name": "Maranatha Restaurant", "location": "Nyabihu", "tel": "No phone number"}, {"name": "La Touristique Bar", "location": "Nyabihu", "tel": "No phone number"}, {"name": "Volcana Lounge", "location": "Nyabihu", "tel": "No phone number"}, {"name": "SAVE THE LIFE RESTAURENT", "location": "Nyabihu", "tel": "No phone number"}, {"name": "La Paillotte", "location": "Nyabihu", "tel": "No phone number"}, {"name": "Katima Restaurant", "location": "Nyabihu", "tel": "No phone number"}, {"name": "Silverback Top Link Restaurant", "location": "Nyabihu", "tel": "No phone number"}, {"name": "Good To Back Restaurant", "location": "Nyabihu", "tel": "No phone number"}, {"name": "8shakeys resto-bar", "location": "Nyabihu", "tel": "No phone number"}, {"name": "Isange BF Restaurant", "location": "Nyabihu", "tel": "No phone number"}, {"name": "Shakeys Restaurant", "location": "Nyabihu", "tel": "No phone number"}, {"name": "Nyirantarengwa Coffee resto", "location": "Nyabihu", "tel": "No phone number"}, {"name": "Mabruki Cafe Resto", "location": "Nyabihu", "tel": "No phone number"}, {"name": "katima", "location": "Nyabihu", "tel": "No phone number"}, {"name": "Green Garden", "location": "Nyabihu", "tel": "No phone number"}, {"name": "Bar Stella", "location": "Nyabihu", "tel": "No phone number"}, {"name": "TM Bed & Breakfast", "location": "Nyabihu", "tel": "No phone number"}, {"name": "Umutekano Bar and Lodge", "location": "Nyabihu", "tel": "No phone number"}, {"name": "Home kitchen", "location": "Nyabihu", "tel": "No phone number"}, {"name": "Akiwacu Center Kumakaro", "location": "Nyabihu", "tel": "No phone number"}, {"name": "Woodley Bar", "location": "Nyabihu", "tel": "No phone number"}, {"name": "Bar Inguni y'Amahoro", "location": "Nyabihu", "tel": "No phone number"}, {"name": "One Degree South", "location": "Nyabihu", "tel": "No phone number"}, {"name": "Texas Bar", "location": "Nyabihu", "tel": "No phone number"}, {"name": "Le Paradis", "location": "Nyabihu", "tel": "No phone number"}, {"name": "Vision 2020", "location": "Nyabihu", "tel": "No phone number"}, {"name": "Roxy Bar and Restaurant (anciennement White Rock)", "location": "Nyabihu", "tel": "No phone number"}, {"name": "Chantal Mini Bar", "location": "Nyabihu", "tel": "No phone number"}, {"name": "Mabruki Cafe Resto", "location": "Nyabihu", "tel": "No phone number"}, {"name": "Tam-Tam", "location": "Nyabihu", "tel": "No phone number"}, {"name": "Arizona Snack Bar", "location": "Nyabihu", "tel": "No phone number"}, {"name": "Sous Le Soleil Bar& Restaurant", "location": "Nyabihu", "tel": "No phone number"}, {"name": "Romantic Restaurant", "location": "Nyabihu", "tel": "No phone number"}, {"name": "Prime Restaurant", "location": "Nyabihu", "tel": "No phone number"}, {"name": "Indian Spices Restaurant", "location": "Nyabihu", "tel": "No phone number"}, {"name": "Boulangerie de Gisenyi", "location": "Nyabihu", "tel": "No phone number"}, {"name": "Sun N Sand Restaurant", "location": "Nyabihu", "tel": "No phone number"}, {"name": "Centre d'Accueil Saint Francois Xavier", "location": "Nyabihu", "tel": "No phone number"}, {"name": "No Stress Bar And Restaurent", "location": "Nyabihu", "tel": "No phone number"}, {"name": "Le Volcan Resto & Pub", "location": "Nyabihu", "tel": "No phone number"}, {"name": "REDCHILLI INDIAN RESTAURANT", "location": "Nyabihu", "tel": "No phone number"}, {"name": "LAKESIDE RESTAURANT & BEACH BAR", "location": "Nyabihu", "tel": "No phone number"}, {"name": "Best Conner", "location": "Nyabihu", "tel": "No phone number"}, {"name": "New Bistro Wine Garage", "location": "Nyabihu", "tel": "No phone number"}, {"name": "The Shi-House Bar & Resto", "location": "Nyabihu", "tel": "No phone number"}, {"name": "Kivu", "location": "Nyabihu", "tel": "No phone number"}, {"name": "Calafia Cafe", "location": "Nyabihu", "tel": "No phone number"}, {"name": "Little Paris beach", "location": "Nyabihu", "tel": "No phone number"}, {"name": "Western Mountain Hotel", "location": "Nyabihu", "tel": "No phone number"}, {"name": "Sun Rise", "location": "Nyabihu", "tel": "No phone number"}, {"name": "Holy One Restaurant", "location": "Nyabihu", "tel": "No phone number"}, {"name": "Second Home", "location": "Nyabihu", "tel": "No phone number"}, {"name": "Pili Pili Bar Family Restaurant & Night Club", "location": "Nyabihu", "tel": "No phone number"}, {"name": "Isange Paradise Resort", "location": "Nyabihu", "tel": "No phone number"}, {"name": "Peace Corner", "location": "Nyabihu", "tel": "No phone number"}, {"name": "Giramahoro", "location": "Nyabihu", "tel": "No phone number"}, {"name": "Susa Gardens", "location": "Nyabihu", "tel": "No phone number"}, {"name": "Meze Fresh", "location": "Nyabihu", "tel": "No phone number"}, {"name": "HOLY ONE", "location": "Nyabihu", "tel": "No phone number"}, {"name": "Restaurant Bar Oxygen", "location": "Nyabihu", "tel": "No phone number"}, {"name": "Restaurant Bar La Pagode Gabriel", "location": "Nyabihu", "tel": "No phone number"}, {"name": "Star lounge", "location": "Nyabihu", "tel": "No phone number"}, {"name": "Bewell", "location": "Nyabihu", "tel": "No phone number"}, {"name": "Tantum Ergo", "location": "Nyabihu", "tel": "No phone number"}, {"name": "Lapa Bar Lounge Restaurant", "location": "Nyabihu", "tel": "No phone number"}, {"name": "BAR B CUE (BAR & RESTAURANT)", "location": "Nyabihu", "tel": "No phone number"}, {"name": "Discover Rwanda Gisenyi Beach", "location": "Nyabihu", "tel": "No phone number"}, {"name": "CAFE RESTAURANT ETOILE RUGERERO", "location": "Nyabihu", "tel": "No phone number"}, {"name": "New Salt And Pepper Restaurant & Bar", "location": "Nyabihu", "tel": "No phone number"}, {"name": "Bismillah Restaurant", "location": "Nyabihu", "tel": "No phone number"}, {"name": "Restaurant indien de GOMA", "location": "Nyabihu", "tel": "No phone number"}, {"name": "LE VOLCAN BAR AND RESTAURANT", "location": "Nyabihu", "tel": "No phone number"}, {"name": "Petit Paris", "location": "Nyabihu", "tel": "No phone number"}, {"name": "Restaurant unique GOMA", "location": "Nyabihu", "tel": "No phone number"}, {"name": "Paradise Club", "location": "Nyabihu", "tel": "No phone number"}, {"name": "Country Grill Bar And Restaurant", "location": "Nyabihu", "tel": "No phone number"}, {"name": "Amigo Restaurant Goma", "location": "Nyabihu", "tel": "No phone number"}, {"name": "Juwakali", "location": "Nyabihu", "tel": "No phone number"}, {"name": "LES NYIRA", "location": "Nyabihu", "tel": "No phone number"}, {"name": "Laliga - Lounge/Bar/Restaurant", "location": "Nyabihu", "tel": "No phone number"}, {"name": "Barbcue Bar And Restaurant", "location": "Nyabihu", "tel": "No phone number"}, {"name": "F&B Brothers", "location": "Nyabihu", "tel": "No phone number"}]