[{"name": "Restaurant Umucyo", "location": "Nyamasheke", "tel": "No phone number"}, {"name": "La Verdure Motel", "location": "Nyamasheke", "tel": "No phone number"}, {"name": "Ibigabiro Resort Motel Ltd", "location": "Nyamasheke", "tel": "No phone number"}, {"name": "VIP Restuarant", "location": "Nyamasheke", "tel": "No phone number"}, {"name": "Cafe Resto Alpha", "location": "Nyamasheke", "tel": "No phone number"}, {"name": "LA VEDETTE BAR", "location": "Nyamasheke", "tel": "No phone number"}, {"name": "Umutimamwiza Restaurant", "location": "Nyamasheke", "tel": "No phone number"}, {"name": "Chez mamam Joys", "location": "Nyamasheke", "tel": "No phone number"}, {"name": "Sailors Resto & Cafe", "location": "Nyamasheke", "tel": "No phone number"}, {"name": "Cormoran Lodge", "location": "Nyamasheke", "tel": "No phone number"}, {"name": "Restaurant Cosmo Koweit", "location": "Nyamasheke", "tel": "No phone number"}, {"name": "Hotel Laripaille", "location": "Nyamasheke", "tel": "No phone number"}, {"name": "Karibu Caf\u00e9 / Bar", "location": "Nyamasheke", "tel": "No phone number"}, {"name": "H\u00f4tel Dubwi", "location": "Nyamasheke", "tel": "No phone number"}, {"name": "Euphoria Bar & Restaurant", "location": "Nyamasheke", "tel": "No phone number"}, {"name": "Le Cadre Hotel", "location": "Nyamasheke", "tel": "No phone number"}, {"name": "H\u00f4tel Exodus", "location": "Nyamasheke", "tel": "No phone number"}, {"name": "Bar Resto + 243 CHEZ TRESOR", "location": "Nyamasheke", "tel": "No phone number"}, {"name": "Salle Witness", "location": "Nyamasheke", "tel": "No phone number"}, {"name": "Le Gourmet Bukavu", "location": "Nyamasheke", "tel": "No phone number"}, {"name": "NEW CARREFOUR", "location": "Nyamasheke", "tel": "No phone number"}, {"name": "Guest House SHALOM", "location": "Nyamasheke", "tel": "No phone number"}, {"name": "Maman Kindja", "location": "Nyamasheke", "tel": "No phone number"}, {"name": "M\u00c9TRO snack Bar", "location": "Nyamasheke", "tel": "No phone number"}, {"name": "Umutimamwiza Restaurant", "location": "Nyamasheke", "tel": "No phone number"}, {"name": "KARIBU CAFE/BAR (Restaurant Ouest Afrcain)", "location": "Nyamasheke", "tel": "No phone number"}, {"name": "Restaurant pacifique", "location": "Nyamasheke", "tel": "No phone number"}, {"name": "El dorado Resto", "location": "Nyamasheke", "tel": "No phone number"}, {"name": "Smart Restaurent", "location": "Nyamasheke", "tel": "No phone number"}, {"name": "Effo Perso", "location": "Nyamasheke", "tel": "No phone number"}, {"name": "Sailus resto cafe", "location": "Nyamasheke", "tel": "No phone number"}, {"name": "Smart Restaurant", "location": "Nyamasheke", "tel": "No phone number"}, {"name": "RESTAURANT/ Centre OLAME", "location": "Nyamasheke", "tel": "No phone number"}, {"name": "Belvedere Appartment", "location": "Nyamasheke", "tel": "No phone number"}, {"name": "Lingo Pizza", "location": "Nyamasheke", "tel": "No phone number"}, {"name": "Bukavu Fast Food", "location": "Nyamasheke", "tel": "No phone number"}]