[{"name": "Cucina Italian Restaurant", "location": "Nyarugenge", "tel": "No phone number"}, {"name": "Khana Khazana Kiyovu", "location": "Nyarugenge", "tel": "No phone number"}, {"name": "Heaven Restaurant & Boutique Hotel", "location": "Nyarugenge", "tel": "No phone number"}, {"name": "New Cactus", "location": "Nyarugenge", "tel": "No phone number"}, {"name": "German Butchery", "location": "Nyarugenge", "tel": "No phone number"}, {"name": "Bamboo Rooftop Restaurant", "location": "Nyarugenge", "tel": "No phone number"}, {"name": "Camellia Tea House.", "location": "Nyarugenge", "tel": "No phone number"}, {"name": "Soko Restaurant", "location": "Nyarugenge", "tel": "No phone number"}, {"name": "Camellia Restaurant", "location": "Nyarugenge", "tel": "No phone number"}, {"name": "Ki-Asili Resto Bar & Fast Food", "location": "Nyarugenge", "tel": "No phone number"}, {"name": "Preet Fast Food", "location": "Nyarugenge", "tel": "No phone number"}, {"name": "O'Tamarillo", "location": "Nyarugenge", "tel": "No phone number"}, {"name": "Fusion Restaurant", "location": "Nyarugenge", "tel": "No phone number"}, {"name": "Sarabi Grill", "location": "Nyarugenge", "tel": "No phone number"}, {"name": "The Bistro", "location": "Nyarugenge", "tel": "No phone number"}, {"name": "4Blooms", "location": "Nyarugenge", "tel": "No phone number"}, {"name": "Chez John Restaurant", "location": "Nyarugenge", "tel": "No phone number"}, {"name": "Le Panorama", "location": "Nyarugenge", "tel": "No phone number"}, {"name": "Dolce Bar Restaurant Pizzeria", "location": "Nyarugenge", "tel": "No phone number"}, {"name": "Simba Restaurant", "location": "Nyarugenge", "tel": "No phone number"}, {"name": "Restaurant La Classe", "location": "Nyarugenge", "tel": "No phone number"}, {"name": "Milima Restaurant", "location": "Nyarugenge", "tel": "No phone number"}, {"name": "Mattina Restaurant", "location": "Nyarugenge", "tel": "No phone number"}, {"name": "Afia Restaurant", "location": "Nyarugenge", "tel": "No phone number"}, {"name": "Koko House (Bistro-Bar-Spa)", "location": "Nyarugenge", "tel": "No phone number"}, {"name": "Al-Mannu Fast Food", "location": "Nyarugenge", "tel": "No phone number"}, {"name": "2K Restaurant", "location": "Nyarugenge", "tel": "No phone number"}, {"name": "New lahori Pakistani Restaurant Kigali", "location": "Nyarugenge", "tel": "No phone number"}, {"name": "Le Pichet", "location": "Nyarugenge", "tel": "No phone number"}, {"name": "White Horse Restaurant", "location": "Nyarugenge", "tel": "No phone number"}, {"name": "The Silverback Restaurant", "location": "Nyarugenge", "tel": "No phone number"}, {"name": "Bourbon Coffee", "location": "Nyarugenge", "tel": "No phone number"}, {"name": "Belle Vie Restaurant", "location": "Nyarugenge", "tel": "No phone number"}, {"name": "Baso P\u00e2tissier", "location": "Nyarugenge", "tel": "No phone number"}, {"name": "MacFast Restaurant", "location": "Nyarugenge", "tel": "No phone number"}, {"name": "Veni Vide Bar Restaurant", "location": "Nyarugenge", "tel": "No phone number"}, {"name": "Ajabu Cafe & Resto", "location": "Nyarugenge", "tel": "No phone number"}, {"name": "Care Inn Restaurant", "location": "Nyarugenge", "tel": "No phone number"}, {"name": "New City Valley Restaurant", "location": "Nyarugenge", "tel": "No phone number"}, {"name": "Bourbon Coffee", "location": "Nyarugenge", "tel": "No phone number"}, {"name": "L&G Rooftop Restaurant", "location": "Nyarugenge", "tel": "No phone number"}, {"name": "Beijing Restaurant", "location": "Nyarugenge", "tel": "No phone number"}, {"name": "Chez Robert", "location": "Nyarugenge", "tel": "No phone number"}, {"name": "Dallas Restaurant", "location": "Nyarugenge", "tel": "No phone number"}, {"name": "Monaco Cafe", "location": "Nyarugenge", "tel": "No phone number"}, {"name": "Sweet Kigali", "location": "Nyarugenge", "tel": "No phone number"}, {"name": "House of Cakes", "location": "Nyarugenge", "tel": "No phone number"}, {"name": "Bambou Restaurant", "location": "Nyarugenge", "tel": "No phone number"}, {"name": "The Southern Biscuit", "location": "Nyarugenge", "tel": "No phone number"}, {"name": "Cafe Camellia KCM Former UTC", "location": "Nyarugenge", "tel": "No phone number"}, {"name": "Chic Cafe Resto", "location": "Nyarugenge", "tel": "No phone number"}, {"name": "Mini Tamu Tamu", "location": "Nyarugenge", "tel": "No phone number"}, {"name": "Chez Tantine - Mali Food", "location": "Nyarugenge", "tel": "No phone number"}, {"name": "Blues Caf\u00e9", "location": "Nyarugenge", "tel": "No phone number"}, {"name": "City Lounge Bar Resto", "location": "Nyarugenge", "tel": "No phone number"}, {"name": "Cafe India", "location": "Nyarugenge", "tel": "No phone number"}, {"name": "Pizza Inn", "location": "Nyarugenge", "tel": "No phone number"}, {"name": "Quelque Part Resto Bar", "location": "Nyarugenge", "tel": "No phone number"}, {"name": "Nile Grill", "location": "Nyarugenge", "tel": "No phone number"}, {"name": "Rooftop Rendezvous", "location": "Nyarugenge", "tel": "No phone number"}, {"name": "Ma Colline", "location": "Nyarugenge", "tel": "No phone number"}, {"name": "Shawarma Kingdom", "location": "Nyarugenge", "tel": "No phone number"}, {"name": "Aloha Coffee Shop", "location": "Nyarugenge", "tel": "No phone number"}, {"name": "Lavaroma", "location": "Nyarugenge", "tel": "No phone number"}, {"name": "Fratteli's Brussels", "location": "Nyarugenge", "tel": "No phone number"}, {"name": "Pizza Inn", "location": "Nyarugenge", "tel": "No phone number"}, {"name": "AXE King Bar", "location": "Nyarugenge", "tel": "No phone number"}, {"name": "Chicken Inn", "location": "Nyarugenge", "tel": "No phone number"}, {"name": "Arona", "location": "Nyarugenge", "tel": "No phone number"}, {"name": "Grapevine Bar & Restaurant", "location": "Nyarugenge", "tel": "No phone number"}, {"name": "Just Chill Kigali", "location": "Nyarugenge", "tel": "No phone number"}, {"name": "Repub Lounge", "location": "Nyarugenge", "tel": "No phone number"}, {"name": "\u00c9toile d'Or", "location": "Nyarugenge", "tel": "No phone number"}, {"name": "Zaaffran Indian Restaurant", "location": "Nyarugenge", "tel": "No phone number"}, {"name": "RTUC Restaurant", "location": "Nyarugenge", "tel": "No phone number"}, {"name": "Citizen Corner", "location": "Nyarugenge", "tel": "No phone number"}, {"name": "La Galette", "location": "Nyarugenge", "tel": "No phone number"}, {"name": "Kiseki Authentic Japanese Restaurant", "location": "Nyarugenge", "tel": "No phone number"}, {"name": "Brachetto", "location": "Nyarugenge", "tel": "No phone number"}, {"name": "Saga Cit\u00e9 Restaurant and Bar", "location": "Nyarugenge", "tel": "No phone number"}, {"name": "Live-Inn Room Restaurant", "location": "Nyarugenge", "tel": "No phone number"}, {"name": "The Hut", "location": "Nyarugenge", "tel": "No phone number"}, {"name": "HAPPY DAY RESTAURANT", "location": "Nyarugenge", "tel": "No phone number"}, {"name": "Lius-First Fresh Food Restaurant", "location": "Nyarugenge", "tel": "No phone number"}, {"name": "Sale & Pepe Restaurant", "location": "Nyarugenge", "tel": "No phone number"}, {"name": "EL CHADDAI RESTAURANT", "location": "Nyarugenge", "tel": "No phone number"}, {"name": "LIN & GAO Restaurant", "location": "Nyarugenge", "tel": "No phone number"}, {"name": "Lin & Gao Bar & Restaurant", "location": "Nyarugenge", "tel": "No phone number"}, {"name": "Juicylicious Shop", "location": "Nyarugenge", "tel": "No phone number"}, {"name": "Bom Dia Coffee", "location": "Nyarugenge", "tel": "No phone number"}, {"name": "Chill Philli", "location": "Nyarugenge", "tel": "No phone number"}, {"name": "Caf\u00e8 Camellia MIC", "location": "Nyarugenge", "tel": "No phone number"}, {"name": "Meze Fresh", "location": "Nyarugenge", "tel": "No phone number"}, {"name": "Nando's", "location": "Nyarugenge", "tel": "No phone number"}, {"name": "Elite Food Turkish Restaurant Patisserie", "location": "Nyarugenge", "tel": "No phone number"}, {"name": "Scheba Hotel", "location": "Nyarugenge", "tel": "No phone number"}, {"name": "Mummy\u2019s Cuisine", "location": "Nyarugenge", "tel": "No phone number"}, {"name": "Chhappan Bhog", "location": "Nyarugenge", "tel": "No phone number"}, {"name": "Fat Mama's Restaurant and Boutique Hotel", "location": "Nyarugenge", "tel": "No phone number"}, {"name": "Lalibela Ethiopian Restaurant", "location": "Nyarugenge", "tel": "No phone number"}, {"name": "Dine Divine Resto", "location": "Nyarugenge", "tel": "No phone number"}, {"name": "ZONE TAKE OUT", "location": "Nyarugenge", "tel": "0783367890"}, {"name": "Lin and Gao Casino, Bar and Restaurant", "location": "Nyarugenge", "tel": "No phone number"}, {"name": "Borneo Coffee Shop & Resto", "location": "Nyarugenge", "tel": "No phone number"}, {"name": "Fuchsia Sports Club CSK", "location": "Nyarugenge", "tel": "No phone number"}, {"name": "Chhapan Bhog Kigali", "location": "Nyarugenge", "tel": "No phone number"}, {"name": "Greek Taverna at Hotel Hellenic", "location": "Nyarugenge", "tel": "No phone number"}, {"name": "Caf\u00e9 Rio", "location": "Nyarugenge", "tel": "No phone number"}, {"name": "Iris Guesthouse", "location": "Nyarugenge", "tel": "No phone number"}, {"name": "Japanda Restaurant", "location": "Nyarugenge", "tel": "No phone number"}, {"name": "B&A Restaurant and Bar", "location": "Nyarugenge", "tel": "No phone number"}, {"name": "The Retreat", "location": "Nyarugenge", "tel": "No phone number"}, {"name": "Shokola Caf\u00e9", "location": "Nyarugenge", "tel": "No phone number"}, {"name": "Filini Italian Restaurant", "location": "Nyarugenge", "tel": "No phone number"}, {"name": "Habesha Ethiopian Restaurant", "location": "Nyarugenge", "tel": "No phone number"}, {"name": "Mugisha Farms", "location": "Nyarugenge", "tel": "0728302552"}, {"name": "Borneo Indonesian Restaurant", "location": "Nyarugenge", "tel": "No phone number"}, {"name": "Java House - Kigali Heights", "location": "Nyarugenge", "tel": "No phone number"}, {"name": "Beirut Restaurant", "location": "Nyarugenge", "tel": "No phone number"}, {"name": "Cocobean", "location": "Nyarugenge", "tel": "No phone number"}, {"name": "Sundowner", "location": "Nyarugenge", "tel": "No phone number"}, {"name": "Oxygene", "location": "Nyarugenge", "tel": "No phone number"}, {"name": "Bethany Investment Group EPR Hostel", "location": "Nyarugenge", "tel": "No phone number"}, {"name": "Century Park Chinese Restaurant", "location": "Nyarugenge", "tel": "No phone number"}, {"name": "Kebab House", "location": "Nyarugenge", "tel": "No phone number"}, {"name": "Mamba", "location": "Nyarugenge", "tel": "No phone number"}, {"name": "La Fabrika", "location": "Nyarugenge", "tel": "No phone number"}, {"name": "Casa Keza", "location": "Nyarugenge", "tel": "No phone number"}, {"name": "Sakae Japanese & Korean", "location": "Nyarugenge", "tel": "No phone number"}, {"name": "Grill & Barbecue", "location": "Nyarugenge", "tel": "No phone number"}, {"name": "Iriba Bar & Terrace", "location": "Nyarugenge", "tel": "No phone number"}, {"name": "Great Wall Chinese Restaurant", "location": "Nyarugenge", "tel": "No phone number"}, {"name": "Lao Tangren Restaurant", "location": "Nyarugenge", "tel": "No phone number"}, {"name": "Khana Khazana Nyarutarama", "location": "Nyarugenge", "tel": "No phone number"}, {"name": "Burrows Bar & Restaurant", "location": "Nyarugenge", "tel": "No phone number"}, {"name": "Patel Grocers & Zaaffran Indian Restaurant", "location": "Nyarugenge", "tel": "0783335971"}, {"name": "Mr Chips", "location": "Nyarugenge", "tel": "No phone number"}, {"name": "Dae Jang Geum Korean Restaurant", "location": "Nyarugenge", "tel": "No phone number"}, {"name": "Now Now Rolex", "location": "Nyarugenge", "tel": "No phone number"}, {"name": "Mama Boy Restaurant", "location": "Nyarugenge", "tel": "No phone number"}, {"name": "A Link", "location": "Nyarugenge", "tel": "No phone number"}, {"name": "Zen Oriental Cuisine", "location": "Nyarugenge", "tel": "No phone number"}, {"name": "Select Restaurant", "location": "Nyarugenge", "tel": "No phone number"}, {"name": "The Fork", "location": "Nyarugenge", "tel": "No phone number"}, {"name": "Chapati", "location": "Nyarugenge", "tel": "No phone number"}, {"name": "Amata n'Ubuki Boutique Hotel & Restaurant", "location": "Nyarugenge", "tel": "No phone number"}, {"name": "Dmall Restaurant & Hotel", "location": "Nyarugenge", "tel": "No phone number"}, {"name": "Ongdalsaem & Hong Kong Restaurant", "location": "Nyarugenge", "tel": "No phone number"}, {"name": "Simba Resto & Bar", "location": "Nyarugenge", "tel": "No phone number"}, {"name": "Lebanon Hotel Kigali Restaurant", "location": "Nyarugenge", "tel": "No phone number"}, {"name": "Al Halal Restaurant", "location": "Nyarugenge", "tel": "No phone number"}, {"name": "Come Again Bar", "location": "Nyarugenge", "tel": "No phone number"}]