[{"name": "CAFE RESTAURANT ETOILE RUGERERO", "location": "Rubavu", "tel": "No phone number"}, {"name": "Bismillah Restaurant", "location": "Rubavu", "tel": "No phone number"}, {"name": "One Degree South", "location": "Rubavu", "tel": "No phone number"}, {"name": "LAKESIDE RESTAURANT & BEACH BAR", "location": "Rubavu", "tel": "No phone number"}, {"name": "Roxy Bar and Restaurant (anciennement White Rock)", "location": "Rubavu", "tel": "No phone number"}, {"name": "New Bistro Wine Garage", "location": "Rubavu", "tel": "No phone number"}, {"name": "Tam-Tam", "location": "Rubavu", "tel": "No phone number"}, {"name": "The Shi-House Bar & Resto", "location": "Rubavu", "tel": "No phone number"}, {"name": "Calafia Cafe", "location": "Rubavu", "tel": "No phone number"}, {"name": "Centre d'Accueil Saint Francois Xavier", "location": "Rubavu", "tel": "No phone number"}, {"name": "Boulangerie de Gisenyi", "location": "Rubavu", "tel": "No phone number"}, {"name": "Le Paradis", "location": "Rubavu", "tel": "No phone number"}, {"name": "Second Home", "location": "Rubavu", "tel": "No phone number"}, {"name": "Prime Restaurant", "location": "Rubavu", "tel": "No phone number"}, {"name": "Romantic Restaurant", "location": "Rubavu", "tel": "No phone number"}, {"name": "Indian Spices Restaurant", "location": "Rubavu", "tel": "No phone number"}, {"name": "Sous Le Soleil Bar& Restaurant", "location": "Rubavu", "tel": "No phone number"}, {"name": "Bar Iriba", "location": "Rubavu", "tel": "No phone number"}, {"name": "REDCHILLI INDIAN RESTAURANT", "location": "Rubavu", "tel": "No phone number"}, {"name": "Discover Rwanda Gisenyi Beach", "location": "Rubavu", "tel": "No phone number"}, {"name": "Texas", "location": "Rubavu", "tel": "No phone number"}, {"name": "Sun N Sand Restaurant", "location": "Rubavu", "tel": "No phone number"}, {"name": "No Stress Bar And Restaurent", "location": "Rubavu", "tel": "No phone number"}, {"name": "Kivu", "location": "Rubavu", "tel": "No phone number"}, {"name": "Western Mountain Hotel", "location": "Rubavu", "tel": "No phone number"}, {"name": "Le Volcan Resto & Pub", "location": "Rubavu", "tel": "No phone number"}, {"name": "Peace Corner", "location": "Rubavu", "tel": "No phone number"}, {"name": "Sun Rise", "location": "Rubavu", "tel": "No phone number"}, {"name": "Little Paris beach", "location": "Rubavu", "tel": "No phone number"}, {"name": "Best Conner", "location": "Rubavu", "tel": "No phone number"}, {"name": "Pili Pili Bar Family Restaurant & Night Club", "location": "Rubavu", "tel": "No phone number"}, {"name": "Nyumbani Lounge", "location": "Rubavu", "tel": "No phone number"}, {"name": "Le Chalet", "location": "Rubavu", "tel": "No phone number"}, {"name": "Restaurant Bar La Pagode Gabriel", "location": "Rubavu", "tel": "No phone number"}, {"name": "Lapa Bar Lounge Restaurant", "location": "Rubavu", "tel": "No phone number"}, {"name": "Restaurant Bar Oxygen", "location": "Rubavu", "tel": "No phone number"}, {"name": "Restaurant indien de GOMA", "location": "Rubavu", "tel": "No phone number"}, {"name": "New Salt And Pepper Restaurant & Bar", "location": "Rubavu", "tel": "No phone number"}, {"name": "Restaurant maman serge", "location": "Rubavu", "tel": "No phone number"}, {"name": "BAR B CUE (BAR & RESTAURANT)", "location": "Rubavu", "tel": "No phone number"}, {"name": "LES NYIRA", "location": "Rubavu", "tel": "No phone number"}, {"name": "Restaurant unique GOMA", "location": "Rubavu", "tel": "No phone number"}, {"name": "Amigo Restaurant Goma", "location": "Rubavu", "tel": "No phone number"}, {"name": "Maghalifan Club", "location": "Rubavu", "tel": "No phone number"}, {"name": "Petit Paris", "location": "Rubavu", "tel": "No phone number"}, {"name": "OK Pili Pili", "location": "Rubavu", "tel": "No phone number"}, {"name": "Laliga - Lounge/Bar/Restaurant", "location": "Rubavu", "tel": "No phone number"}, {"name": "LE VOLCAN BAR AND RESTAURANT", "location": "Rubavu", "tel": "No phone number"}, {"name": "Juwakali", "location": "Rubavu", "tel": "No phone number"}, {"name": "Theprizon bar & restaurant", "location": "Rubavu", "tel": "No phone number"}, {"name": "Barbcue Bar And Restaurant", "location": "Rubavu", "tel": "No phone number"}, {"name": "L'HACIENDA", "location": "Rubavu", "tel": "No phone number"}, {"name": "Yvesim Palace", "location": "Rubavu", "tel": "No phone number"}, {"name": "il Rasentino", "location": "Rubavu", "tel": "No phone number"}, {"name": "Le Petit Bruxelles", "location": "Rubavu", "tel": "No phone number"}, {"name": "African Queen", "location": "Rubavu", "tel": "No phone number"}, {"name": "Bar Restaurant IBIZA", "location": "Rubavu", "tel": "No phone number"}, {"name": "Ble D'or", "location": "Rubavu", "tel": "No phone number"}, {"name": "Nganda Olympya", "location": "Rubavu", "tel": "No phone number"}, {"name": "Pizzeria Italiano AL Lago kivu", "location": "Rubavu", "tel": "No phone number"}, {"name": "Alimentation Gentil A c\u00f4t\u00e9 de Mbiza H\u00f4tel", "location": "Rubavu", "tel": "No phone number"}, {"name": "ESPACE SANTIAGO", "location": "Rubavu", "tel": "No phone number"}, {"name": "Hotel Bassin du Congo", "location": "Rubavu", "tel": "No phone number"}, {"name": "TOKOOS KAZURI", "location": "Rubavu", "tel": "No phone number"}, {"name": "La Fortune", "location": "Rubavu", "tel": "No phone number"}, {"name": "OK Pili Pili", "location": "Rubavu", "tel": "No phone number"}, {"name": "Bengazi", "location": "Rubavu", "tel": "No phone number"}, {"name": "Restaurant EXATEC", "location": "Rubavu", "tel": "No phone number"}, {"name": "MAGHALI GUEST HOUSE", "location": "Rubavu", "tel": "No phone number"}, {"name": "O-KAF\u00c9", "location": "Rubavu", "tel": "No phone number"}, {"name": "Cappuccino Chez Yvette", "location": "Rubavu", "tel": "No phone number"}, {"name": "Retaurant Bar le Petit Bruxelles", "location": "Rubavu", "tel": "No phone number"}, {"name": "Le veteran", "location": "Rubavu", "tel": "No phone number"}, {"name": "New Delice bar", "location": "Rubavu", "tel": "No phone number"}, {"name": "Nganda ABC", "location": "Rubavu", "tel": "No phone number"}, {"name": "Ombre de Midi Appolo XI Goma", "location": "Rubavu", "tel": "No phone number"}, {"name": "Restaurant Ben", "location": "Rubavu", "tel": "No phone number"}, {"name": "New Delice bar", "location": "Rubavu", "tel": "No phone number"}, {"name": "RESTAURENT PIZZERIA ITALIAN MEDITERRANEAN", "location": "Rubavu", "tel": "No phone number"}, {"name": "BelaZik Restaurant", "location": "Rubavu", "tel": "No phone number"}, {"name": "Night club Armada", "location": "Rubavu", "tel": "No phone number"}, {"name": "Lac Kivu Lodge", "location": "Rubavu", "tel": "No phone number"}, {"name": "Salle de F\u00eate IMANI", "location": "Rubavu", "tel": "No phone number"}, {"name": "Freedom Plazza", "location": "Rubavu", "tel": "No phone number"}, {"name": "Au Bureau", "location": "Rubavu", "tel": "No phone number"}, {"name": "Nganda la joie de vivre ulpgl", "location": "Rubavu", "tel": "No phone number"}, {"name": "Boucherie saysay", "location": "Rubavu", "tel": "No phone number"}]