[{"name": "Euphoria Bar & Restaurant", "location": "Rusizi", "tel": "No phone number"}, {"name": "Cafe Resto Alpha", "location": "Rusizi", "tel": "No phone number"}, {"name": "Le Cadre Hotel", "location": "Rusizi", "tel": "No phone number"}, {"name": "VIP Restuarant", "location": "Rusizi", "tel": "No phone number"}, {"name": "Hotel Laripaille", "location": "Rusizi", "tel": "No phone number"}, {"name": "H\u00f4tel Dubwi", "location": "Rusizi", "tel": "No phone number"}, {"name": "Restaurant Cosmo Koweit", "location": "Rusizi", "tel": "No phone number"}, {"name": "Guest House SHALOM", "location": "Rusizi", "tel": "No phone number"}, {"name": "Le Gourmet Bukavu", "location": "Rusizi", "tel": "No phone number"}, {"name": "Karibu Caf\u00e9 / Bar", "location": "Rusizi", "tel": "No phone number"}, {"name": "H\u00f4tel Exodus", "location": "Rusizi", "tel": "No phone number"}, {"name": "LA VEDETTE BAR", "location": "Rusizi", "tel": "No phone number"}, {"name": "NEW CARREFOUR", "location": "Rusizi", "tel": "No phone number"}, {"name": "M\u00c9TRO snack Bar", "location": "Rusizi", "tel": "No phone number"}, {"name": "Maman Kindja", "location": "Rusizi", "tel": "No phone number"}, {"name": "Restaurant Umucyo", "location": "Rusizi", "tel": "No phone number"}, {"name": "Salle Witness", "location": "Rusizi", "tel": "No phone number"}, {"name": "KARIBU CAFE/BAR (Restaurant Ouest Afrcain)", "location": "Rusizi", "tel": "No phone number"}, {"name": "Restaurant pacifique", "location": "Rusizi", "tel": "No phone number"}, {"name": "Lingo Pizza", "location": "Rusizi", "tel": "No phone number"}, {"name": "Smart Restaurent", "location": "Rusizi", "tel": "No phone number"}, {"name": "Belvedere Appartment", "location": "Rusizi", "tel": "No phone number"}, {"name": "Bukavu Fast Food", "location": "Rusizi", "tel": "No phone number"}, {"name": "Salt and Pepper", "location": "Rusizi", "tel": "No phone number"}, {"name": "El dorado Resto", "location": "Rusizi", "tel": "No phone number"}, {"name": "Bar Resto + 243 CHEZ TRESOR", "location": "Rusizi", "tel": "No phone number"}, {"name": "chezmyfriend", "location": "Rusizi", "tel": "No phone number"}, {"name": "Effo Perso Town", "location": "Rusizi", "tel": "No phone number"}, {"name": "Smart Restaurant", "location": "Rusizi", "tel": "No phone number"}, {"name": "Negrita Resto", "location": "Rusizi", "tel": "No phone number"}, {"name": "Effo Perso", "location": "Rusizi", "tel": "No phone number"}, {"name": "La Fourchette Panorama", "location": "Rusizi", "tel": "No phone number"}, {"name": "Sainte Ther\u00e8se", "location": "Rusizi", "tel": "No phone number"}, {"name": "CHILLI'S BLUES & BREWS EAT", "location": "Rusizi", "tel": "No phone number"}, {"name": "RESTAURANT/ Centre OLAME", "location": "Rusizi", "tel": "No phone number"}, {"name": "cosy bar", "location": "Rusizi", "tel": "No phone number"}, {"name": "Albert", "location": "Rusizi", "tel": "No phone number"}, {"name": "Kin Elubu", "location": "Rusizi", "tel": "No phone number"}, {"name": "WENDY'S Bar", "location": "Rusizi", "tel": "No phone number"}, {"name": "Whatsapp Rusizi River View Bar", "location": "Rusizi", "tel": "No phone number"}, {"name": "Chez Les Bimera", "location": "Rusizi", "tel": "No phone number"}, {"name": "La Verdure Motel", "location": "Rusizi", "tel": "No phone number"}]