[{"name": "Detente Restaurant", "location": "Rwamagana", "tel": "No phone number"}, {"name": "Dieta Bar & Restaurant", "location": "Rwamagana", "tel": "No phone number"}, {"name": "Classic Restaurant", "location": "Rwamagana", "tel": "No phone number"}, {"name": "Jambo Beach", "location": "Rwamagana", "tel": "No phone number"}, {"name": "The Fish Pub", "location": "Rwamagana", "tel": "No phone number"}, {"name": "Maracuja plantation", "location": "Rwamagana", "tel": "No phone number"}, {"name": "Seed of Peace Center", "location": "Rwamagana", "tel": "No phone number"}, {"name": "Shokola Caf\u00e9", "location": "Rwamagana", "tel": "No phone number"}, {"name": "Pasadena Bar and Restaurant", "location": "Rwamagana", "tel": "No phone number"}, {"name": "Dereva Hotel", "location": "Rwamagana", "tel": "No phone number"}, {"name": "La Fra\u00eecheur", "location": "Rwamagana", "tel": "No phone number"}, {"name": "Rugende Park", "location": "Rwamagana", "tel": "No phone number"}, {"name": "KALIYOKA Bar & Resto", "location": "Rwamagana", "tel": "No phone number"}, {"name": "Seads of Peace at Gahini Muhazi Lake", "location": "Rwamagana", "tel": "0780000000"}, {"name": "K1 Bar And Grill", "location": "Rwamagana", "tel": "No phone number"}, {"name": "Dolce Vita Bar & Restaurant", "location": "Rwamagana", "tel": "No phone number"}]