[{"name": "Amakoro Songa Lodge", "location": "Burera", "tel": "No phone number"}, {"name": "Ruhondo Beach Resort", "location": "Burera", "tel": "No phone number"}, {"name": "Bunyonyi Safaris Resort", "location": "Burera", "tel": "No phone number"}, {"name": "Paradise Eco-Hub", "location": "Burera", "tel": "No phone number"}, {"name": "Ruhondo Beach Resort", "location": "Burera", "tel": "No phone number"}, {"name": "Red Rocks Rwanda", "location": "Burera", "tel": "No phone number"}, {"name": "Virunga Lodge", "location": "Burera", "tel": "No phone number"}, {"name": "Montana Vista Hotel - Rwanda, Africa", "location": "Burera", "tel": "No phone number"}, {"name": "Twin Lakes Lodge", "location": "Burera", "tel": "No phone number"}, {"name": "Entusi Resort and Retreat Center", "location": "Burera", "tel": "No phone number"}, {"name": "OM HOSTEL BUNYONYI", "location": "Burera", "tel": "No phone number"}, {"name": "La Paillotte Cyuza Island", "location": "Burera", "tel": "No phone number"}, {"name": "Filon d'Or Guest House and Campsite", "location": "Burera", "tel": "No phone number"}, {"name": "Virunga Hotel and Campsite", "location": "Burera", "tel": "No phone number"}, {"name": "La Locanda", "location": "Burera", "tel": "No phone number"}, {"name": "Isange Paradise Resort", "location": "Burera", "tel": "No phone number"}, {"name": "My Hill Eco Lodge", "location": "Burera", "tel": "No phone number"}, {"name": "Lake Chahafi Resort", "location": "Burera", "tel": "No phone number"}, {"name": "Amahoro Guesthouse", "location": "Burera", "tel": "No phone number"}, {"name": "Itambira Island, Seeds of Hope", "location": "Burera", "tel": "No phone number"}, {"name": "Gorillas Volcanoes Hotel", "location": "Burera", "tel": "No phone number"}, {"name": "Bunyonyi Overland Resort", "location": "Burera", "tel": "No phone number"}, {"name": "Supreme Adventure Park Bunyonyi", "location": "Burera", "tel": "No phone number"}, {"name": "Golden Monkey Guesthouse", "location": "Burera", "tel": "No phone number"}, {"name": "Bunyonyi Overland Resort", "location": "Burera", "tel": "No phone number"}, {"name": "Byiza Lodge", "location": "Burera", "tel": "No phone number"}, {"name": "Faraja Hotel", "location": "Burera", "tel": "No phone number"}, {"name": "MUHABURA MOTEL", "location": "Burera", "tel": "No phone number"}, {"name": "Urugano Virunga Palace", "location": "Burera", "tel": "No phone number"}, {"name": "Heritage Lodge, Habuharo", "location": "Burera", "tel": "No phone number"}, {"name": "Auberge Ikaze", "location": "Burera", "tel": "No phone number"}, {"name": "The Garden Place Hotel", "location": "Burera", "tel": "No phone number"}, {"name": "Bushara Island Camp", "location": "Burera", "tel": "No phone number"}, {"name": "Hawk's Eye Lodge Bunyonyi", "location": "Burera", "tel": "No phone number"}, {"name": "Heras Country Resort", "location": "Burera", "tel": "No phone number"}, {"name": "Bunyonyi View resort", "location": "Burera", "tel": "No phone number"}, {"name": "Hawk's Eye Campsite", "location": "Burera", "tel": "No phone number"}, {"name": "East Africa Amazon Guest House Musanze", "location": "Burera", "tel": "No phone number"}, {"name": "Danita House", "location": "Burera", "tel": "No phone number"}, {"name": "Snow Hotel Rwanda", "location": "Burera", "tel": "No phone number"}, {"name": "Gorillas Volcanoes Hotel", "location": "Burera", "tel": "No phone number"}, {"name": "Virunga Hotel", "location": "Burera", "tel": "No phone number"}, {"name": "Mt.Muhabura Climbers Rest Camp", "location": "Burera", "tel": "No phone number"}, {"name": "Musanze Caves Hotel", "location": "Burera", "tel": "No phone number"}, {"name": "Arcadia Lodges Lake Bunyonyi", "location": "Burera", "tel": "No phone number"}, {"name": "Lake Bunyonyi Rock Resort", "location": "Burera", "tel": "No phone number"}, {"name": "La Silene", "location": "Burera", "tel": "0783785399"}, {"name": "Pearl Guest House", "location": "Burera", "tel": "No phone number"}, {"name": "Kisoro Tourist Hotel", "location": "Burera", "tel": "No phone number"}, {"name": "Crater Bay Cottage", "location": "Burera", "tel": "No phone number"}, {"name": "Fatima Hotel", "location": "Burera", "tel": "No phone number"}, {"name": "Home Inn", "location": "Burera", "tel": "No phone number"}, {"name": "Gloria Lodge", "location": "Burera", "tel": "No phone number"}, {"name": "Twin Lakes Lodge", "location": "Burera", "tel": "No phone number"}, {"name": "Amahoro Guest House", "location": "Burera", "tel": "No phone number"}, {"name": "Mount Gahinga Lodge", "location": "Burera", "tel": "No phone number"}, {"name": "The Bishop's House Rwanda", "location": "Burera", "tel": "No phone number"}, {"name": "Volcano View B&B", "location": "Burera", "tel": "No phone number"}, {"name": "Hotel Muhabura", "location": "Burera", "tel": "No phone number"}, {"name": "La Voisina Motel", "location": "Burera", "tel": "No phone number"}, {"name": "Ikoro Hotel", "location": "Burera", "tel": "No phone number"}, {"name": "Travellers Rest Hotel", "location": "Burera", "tel": "No phone number"}, {"name": "Gorrillaland Guesthouse", "location": "Burera", "tel": "No phone number"}, {"name": "Best View Hotel", "location": "Burera", "tel": "No phone number"}, {"name": "La Palme Hotel", "location": "Burera", "tel": "No phone number"}, {"name": "Sainte Anne", "location": "Burera", "tel": "No phone number"}, {"name": "Venus Villa Guest House 02", "location": "Burera", "tel": "No phone number"}, {"name": "Byoona Amagara Island Retreat", "location": "Burera", "tel": "No phone number"}, {"name": "Bunyonyi kalebas Resort", "location": "Burera", "tel": "No phone number"}, {"name": "SuPa's Bistro & Guesthouse", "location": "Burera", "tel": "No phone number"}, {"name": "Mt. Muhabura Climbers Rest Camp", "location": "Burera", "tel": "No phone number"}, {"name": "Urugaga Imbaraga", "location": "Burera", "tel": "No phone number"}, {"name": "Bugombe Gateway Camp", "location": "Burera", "tel": "No phone number"}, {"name": "FIDOS GUEST HOUSE & SAFARIS", "location": "Burera", "tel": "No phone number"}, {"name": "Arcadia Cottage Lake Bunyonyi", "location": "Burera", "tel": "No phone number"}, {"name": "Tourland Cottages Kisoro", "location": "Burera", "tel": "No phone number"}, {"name": "Craterbay Cottages And Camp Lake Bunyonyi", "location": "Burera", "tel": "No phone number"}, {"name": "Venus Villa Guest House 01", "location": "Burera", "tel": "No phone number"}, {"name": "Edirisa on Lake Bunyonyi", "location": "Burera", "tel": "No phone number"}, {"name": "Centre Pastoral Notre Dame de Fatima", "location": "Burera", "tel": "No phone number"}, {"name": "Classic Lodge", "location": "Burera", "tel": "No phone number"}, {"name": "Hotel Urumuli", "location": "Burera", "tel": "No phone number"}, {"name": "Arcadia Lodge Lake Bunyonyi", "location": "Burera", "tel": "No phone number"}, {"name": "Snow Hotel", "location": "Burera", "tel": "No phone number"}, {"name": "Jaro Landmark HotelLodge", "location": "Burera", "tel": "No phone number"}, {"name": "Graceland Motel", "location": "Burera", "tel": "No phone number"}, {"name": "Red Rocks Cultural Center", "location": "Burera", "tel": "No phone number"}, {"name": "Fatima Hotel", "location": "Burera", "tel": "No phone number"}, {"name": "Bunyonyi Apple Farmstay", "location": "Burera", "tel": "No phone number"}, {"name": "Heritage Inn", "location": "Burera", "tel": "No phone number"}, {"name": "The Kansiime Backpackers", "location": "Burera", "tel": "No phone number"}, {"name": "Kyahugye Island", "location": "Burera", "tel": "No phone number"}, {"name": "Miami tours and travel hotel", "location": "Burera", "tel": "No phone number"}, {"name": "Bavah Guesthouse", "location": "Burera", "tel": "No phone number"}, {"name": "Gorilla Heights Lodge", "location": "Burera", "tel": "No phone number"}, {"name": "Gorilla Heights Lodge", "location": "Burera", "tel": "No phone number"}, {"name": "Ian Point Hotel", "location": "Burera", "tel": "No phone number"}, {"name": "western mountain hotel", "location": "Burera", "tel": "No phone number"}, {"name": "Rafiki Guest House", "location": "Burera", "tel": "No phone number"}, {"name": "Migano hotel", "location": "Burera", "tel": "No phone number"}, {"name": "Amajambere Iwacu Community Camp", "location": "Burera", "tel": "No phone number"}, {"name": "Virunga Hotel Camp Site and Back Packers", "location": "Burera", "tel": "No phone number"}, {"name": "Crested Crane", "location": "Burera", "tel": "No phone number"}, {"name": "Lovinghearts Art Gallery", "location": "Burera", "tel": "No phone number"}, {"name": "Mubano Hotel", "location": "Burera", "tel": "No phone number"}, {"name": "Tourland Cottgges", "location": "Burera", "tel": "No phone number"}, {"name": "Sainte Anne Hotel", "location": "Burera", "tel": "No phone number"}, {"name": "Mondi Lodge Kisoro", "location": "Burera", "tel": "No phone number"}, {"name": "Mondi Lodge Kisoro", "location": "Burera", "tel": "No phone number"}, {"name": "Mutanda Lake Resort", "location": "Burera", "tel": "No phone number"}, {"name": "Bam Rest House", "location": "Burera", "tel": "No phone number"}, {"name": "Kalebas Camp", "location": "Burera", "tel": "No phone number"}, {"name": "Bunyonyi View Gorilla Packers", "location": "Burera", "tel": "No phone number"}, {"name": "Heras Country Resort", "location": "Burera", "tel": "No phone number"}, {"name": "New Silver Hotel", "location": "Burera", "tel": "No phone number"}, {"name": "Nature's Prime Island", "location": "Burera", "tel": "No phone number"}, {"name": "Lake Bunyoni Hotel", "location": "Burera", "tel": "No phone number"}, {"name": "Kalebas Camp Bunyonyi", "location": "Burera", "tel": "No phone number"}, {"name": "Sawa Sawa Guest House", "location": "Burera", "tel": "No phone number"}]