[{"name": "Mijo Hostel", "location": "Gasabo", "tel": "No phone number"}, {"name": "Colours Club Spa", "location": "Gasabo", "tel": "0788521369"}, {"name": "Gisa Stay 101", "location": "Gasabo", "tel": "No phone number"}, {"name": "Rouge by Desir", "location": "Gasabo", "tel": "No phone number"}, {"name": "Peponi Living Spaces", "location": "Gasabo", "tel": "No phone number"}, {"name": "Gisa Stay 103", "location": "Gasabo", "tel": "No phone number"}, {"name": "Radisson Blu Hotel & Convention Centre, Kigali", "location": "Gasabo", "tel": "No phone number"}, {"name": "Serenity Park", "location": "Gasabo", "tel": "No phone number"}, {"name": "The Manor Hotel", "location": "Gasabo", "tel": "No phone number"}, {"name": "The Kingfish Beach Hotel", "location": "Gasabo", "tel": "No phone number"}, {"name": "Five To Five Hotel", "location": "Gasabo", "tel": "No phone number"}, {"name": "Colours Club", "location": "Gasabo", "tel": "No phone number"}, {"name": "Rainbow Hotel", "location": "Gasabo", "tel": "No phone number"}, {"name": "Grazia Apartments", "location": "Gasabo", "tel": "No phone number"}, {"name": "Hotel Villa Portofino Kigali", "location": "Gasabo", "tel": "No phone number"}, {"name": "World House Gisozi Hotel", "location": "Gasabo", "tel": "No phone number"}, {"name": "HILL CREST HOTEL", "location": "Gasabo", "tel": "No phone number"}, {"name": "Kigali Art Gallery", "location": "Gasabo", "tel": "No phone number"}, {"name": "Great Seasons Hotel", "location": "Gasabo", "tel": "No phone number"}, {"name": "Mythos Boutique Hotel", "location": "Gasabo", "tel": "No phone number"}, {"name": "Wailers Guest House", "location": "Gasabo", "tel": "No phone number"}, {"name": "Remera Modern Guesthouse", "location": "Gasabo", "tel": "No phone number"}, {"name": "Lebanon Hotel Kigali", "location": "Gasabo", "tel": "No phone number"}, {"name": "Greedy Five", "location": "Gasabo", "tel": "No phone number"}, {"name": "Select", "location": "Gasabo", "tel": "No phone number"}, {"name": "GISA STAY 104", "location": "Gasabo", "tel": "No phone number"}, {"name": "Gaju House", "location": "Gasabo", "tel": "No phone number"}, {"name": "Victoria Blue Hotels and Apartments", "location": "Gasabo", "tel": "No phone number"}, {"name": "Flame Tree Village", "location": "Gasabo", "tel": "No phone number"}, {"name": "Grand Legacy Hotel", "location": "Gasabo", "tel": "No phone number"}, {"name": "Salama Village", "location": "Gasabo", "tel": "No phone number"}, {"name": "Dove Hotel Kigali", "location": "Gasabo", "tel": "No phone number"}, {"name": "Murugo Rwanda Hostel", "location": "Gasabo", "tel": "No phone number"}, {"name": "Villa Belle Vue", "location": "Gasabo", "tel": "No phone number"}, {"name": "Cenetra Hotel", "location": "Gasabo", "tel": "No phone number"}, {"name": "The Nest Guesthouse", "location": "Gasabo", "tel": "No phone number"}, {"name": "Kereth Living Space", "location": "Gasabo", "tel": "No phone number"}, {"name": "Mountain View Apartment", "location": "Gasabo", "tel": "No phone number"}, {"name": "Ezra Boutique Hotel", "location": "Gasabo", "tel": "No phone number"}, {"name": "The Court Boutique Hotel", "location": "Gasabo", "tel": "No phone number"}, {"name": "Feel At Home", "location": "Gasabo", "tel": "No phone number"}, {"name": "Kigali Castle", "location": "Gasabo", "tel": "No phone number"}, {"name": "Amata n'Ubuki Boutique Hotel & Restaurant", "location": "Gasabo", "tel": "No phone number"}, {"name": "Kigali Marriott Hotel", "location": "Gasabo", "tel": "No phone number"}, {"name": "Park View Courts", "location": "Gasabo", "tel": "No phone number"}, {"name": "Quiet Haven Hotel", "location": "Gasabo", "tel": "No phone number"}, {"name": "Landmark Suites Rwanda", "location": "Gasabo", "tel": "No phone number"}, {"name": "Peace and Grace Motel", "location": "Gasabo", "tel": "No phone number"}, {"name": "The Mirror Hotel", "location": "Gasabo", "tel": "No phone number"}, {"name": "KIM Hotel", "location": "Gasabo", "tel": "No phone number"}, {"name": "The Hut Restaurant & Boutique Hotel", "location": "Gasabo", "tel": "No phone number"}, {"name": "Greek Taverna at Hotel Hellenic", "location": "Gasabo", "tel": "No phone number"}, {"name": "Rohi Apartments Hotel", "location": "Gasabo", "tel": "0788306040"}, {"name": "Gorillas Golf Hotel", "location": "Gasabo", "tel": "No phone number"}, {"name": "Kwetu Residence Inn", "location": "Gasabo", "tel": "No phone number"}, {"name": "Iwawe Hotel", "location": "Gasabo", "tel": "No phone number"}, {"name": "Inside Afrika Hotel", "location": "Gasabo", "tel": "No phone number"}, {"name": "Isimbi Murugo", "location": "Gasabo", "tel": "0783904586"}, {"name": "Iwacu Guesthouse", "location": "Gasabo", "tel": "No phone number"}, {"name": "Keva Guest House", "location": "Gasabo", "tel": "No phone number"}, {"name": "Pili Pili", "location": "Gasabo", "tel": "No phone number"}, {"name": "Greenpage Suites", "location": "Gasabo", "tel": "No phone number"}, {"name": "H\u00f4tel Chez Lando", "location": "Gasabo", "tel": "No phone number"}, {"name": "DV Appart Hotel", "location": "Gasabo", "tel": "No phone number"}, {"name": "Ishema Kigali Home", "location": "Gasabo", "tel": "No phone number"}, {"name": "GISA STAY 102", "location": "Gasabo", "tel": "No phone number"}, {"name": "Khana Khazana Boutique Hotel", "location": "Gasabo", "tel": "No phone number"}, {"name": "INZOZI AFRICA HOUSE", "location": "Gasabo", "tel": "No phone number"}, {"name": "Kami Executive Apartments", "location": "Gasabo", "tel": "No phone number"}, {"name": "LION MOTEL", "location": "Gasabo", "tel": "No phone number"}, {"name": "Discover Rwanda Youth Hostel", "location": "Gasabo", "tel": "No phone number"}, {"name": "Lemigo Hotel", "location": "Gasabo", "tel": "No phone number"}, {"name": "Garr Hotel", "location": "Gasabo", "tel": "No phone number"}, {"name": "Centre d'Acceuil Bonne Esp\u00e9rance", "location": "Gasabo", "tel": "No phone number"}, {"name": "RUJO ROOMS", "location": "Gasabo", "tel": "No phone number"}, {"name": "Perle Boutique Hotel", "location": "Gasabo", "tel": "No phone number"}, {"name": "H\u00f4tel des Mille Collines", "location": "Gasabo", "tel": "No phone number"}, {"name": "Villa Asimba", "location": "Gasabo", "tel": "No phone number"}, {"name": "ViaVia Kigali", "location": "Gasabo", "tel": "No phone number"}, {"name": "Olympic Hotel", "location": "Gasabo", "tel": "No phone number"}, {"name": "Kereth Design Guest House", "location": "Gasabo", "tel": "No phone number"}, {"name": "Legend Hotel", "location": "Gasabo", "tel": "No phone number"}, {"name": "Tinho Guest House", "location": "Gasabo", "tel": "No phone number"}, {"name": "Park Inn by Radisson, Kigali", "location": "Gasabo", "tel": "No phone number"}, {"name": "KINGSMEN SUITES", "location": "Gasabo", "tel": "No phone number"}, {"name": "Amaris Hotel", "location": "Gasabo", "tel": "No phone number"}, {"name": "Beaus\u00e9jour Hotel", "location": "Gasabo", "tel": "No phone number"}, {"name": "The Country Inn Hotel", "location": "Gasabo", "tel": "No phone number"}, {"name": "Golf Eden Guest House", "location": "Gasabo", "tel": "No phone number"}, {"name": "Plata Guest House", "location": "Gasabo", "tel": "No phone number"}, {"name": "Tea House B&B", "location": "Gasabo", "tel": "No phone number"}, {"name": "Onomo Hotel", "location": "Gasabo", "tel": "No phone number"}, {"name": "Park Inn by Radisson Kigali", "location": "Gasabo", "tel": "No phone number"}, {"name": "Auberge St Jean Leopold", "location": "Gasabo", "tel": "No phone number"}, {"name": "Amahoro Smart Motel", "location": "Gasabo", "tel": "No phone number"}, {"name": "Mubwiza Courts", "location": "Gasabo", "tel": "No phone number"}, {"name": "Cozy Safari", "location": "Gasabo", "tel": "No phone number"}, {"name": "Isimbi House", "location": "Gasabo", "tel": "No phone number"}, {"name": "Civitas Hotel", "location": "Gasabo", "tel": "No phone number"}, {"name": "Hotel Okapi", "location": "Gasabo", "tel": "No phone number"}, {"name": "Hakurya Gasabo Lodge", "location": "Gasabo", "tel": "No phone number"}, {"name": "BELIZE MOTEL", "location": "Gasabo", "tel": "No phone number"}, {"name": "Kanyinya Hills Hotel", "location": "Gasabo", "tel": "No phone number"}, {"name": "Park View Hotel", "location": "Gasabo", "tel": "No phone number"}, {"name": "AROMAS MOTEL", "location": "Gasabo", "tel": "No phone number"}, {"name": "Nova Apartment", "location": "Gasabo", "tel": "No phone number"}, {"name": "Kami Executive Apartments", "location": "Gasabo", "tel": "No phone number"}, {"name": "Nyumbani Cottages", "location": "Gasabo", "tel": "No phone number"}, {"name": "Medi Motel", "location": "Gasabo", "tel": "No phone number"}, {"name": "Mama Rwanda Hostel", "location": "Gasabo", "tel": "No phone number"}, {"name": "AMIGO APARTMENT", "location": "Gasabo", "tel": "No phone number"}, {"name": "Rubangura Luxury Apartments", "location": "Gasabo", "tel": "No phone number"}, {"name": "Olympic Hotel Kigali", "location": "Gasabo", "tel": "No phone number"}, {"name": "Delhi Darbar Indian Restaurant & Villa", "location": "Gasabo", "tel": "No phone number"}, {"name": "Kimenyi Home", "location": "Gasabo", "tel": "No phone number"}, {"name": "Romalo Guest House", "location": "Gasabo", "tel": "No phone number"}, {"name": "Silver Motel", "location": "Gasabo", "tel": "No phone number"}, {"name": "Urban by CityBlue", "location": "Gasabo", "tel": "No phone number"}, {"name": "Hilltop Hotel and Country Club", "location": "Gasabo", "tel": "No phone number"}, {"name": "Kigali Serena Hotel", "location": "Gasabo", "tel": "No phone number"}, {"name": "HOLLY GUESTINN", "location": "Gasabo", "tel": "No phone number"}, {"name": "Corina K Guesthouse", "location": "Gasabo", "tel": "No phone number"}, {"name": "Joy Guesthouse", "location": "Gasabo", "tel": "No phone number"}, {"name": "PALAZZO MOTEL @ KIGALI/KIMIRONKO", "location": "Gasabo", "tel": "No phone number"}, {"name": "Happy Home and Dine", "location": "Gasabo", "tel": "No phone number"}, {"name": "Kings Hospitality Centre", "location": "Gasabo", "tel": "No phone number"}, {"name": "Bougainvilla Boutique Hotel", "location": "Gasabo", "tel": "No phone number"}, {"name": "Heaven Restaurant & Boutique Hotel", "location": "Gasabo", "tel": "No phone number"}, {"name": "Champion Hotel", "location": "Gasabo", "tel": "No phone number"}, {"name": "Kigali Diplomat Hotel", "location": "Gasabo", "tel": "No phone number"}, {"name": "Umusambi B&B", "location": "Gasabo", "tel": "No phone number"}, {"name": "Dmall Hotel", "location": "Gasabo", "tel": "No phone number"}, {"name": "Kigali Guestlux Hotel", "location": "Gasabo", "tel": "No phone number"}, {"name": "Dehli Darbar Hotel & Restaurant", "location": "Gasabo", "tel": "No phone number"}, {"name": "Madison Hills Hotel", "location": "Gasabo", "tel": "No phone number"}, {"name": "Zebra Tourism Hotel", "location": "Gasabo", "tel": "No phone number"}, {"name": "B.Maurice Guest House", "location": "Gasabo", "tel": "No phone number"}, {"name": "Zenith Hotel Kigali", "location": "Gasabo", "tel": "No phone number"}, {"name": "Ikaze B&B", "location": "Gasabo", "tel": "No phone number"}, {"name": "Yerbis Guest House", "location": "Gasabo", "tel": "No phone number"}, {"name": "Radius Guest Flats", "location": "Gasabo", "tel": "No phone number"}, {"name": "Roots Inn", "location": "Gasabo", "tel": "No phone number"}, {"name": "5 Swiss Hotel", "location": "Gasabo", "tel": "No phone number"}, {"name": "Good News Guest House", "location": "Gasabo", "tel": "No phone number"}, {"name": "Orient Park Hotel", "location": "Gasabo", "tel": "No phone number"}, {"name": "Kings Hostel", "location": "Gasabo", "tel": "No phone number"}, {"name": "Best Inn Motel", "location": "Gasabo", "tel": "No phone number"}, {"name": "Vincenzo Homestay", "location": "Gasabo", "tel": "No phone number"}, {"name": "Root House", "location": "Gasabo", "tel": "No phone number"}, {"name": "Kiberinka Cultural Centre", "location": "Gasabo", "tel": "No phone number"}, {"name": "La Palisse Hotel, Kigali", "location": "Gasabo", "tel": "No phone number"}, {"name": "Greenwich Hotel", "location": "Gasabo", "tel": "No phone number"}, {"name": "Peaceful Home Away From Home", "location": "Gasabo", "tel": "No phone number"}, {"name": "Sinai Suites Hotel and Apartments", "location": "Gasabo", "tel": "No phone number"}, {"name": "Karisimbi Hotel", "location": "Gasabo", "tel": "No phone number"}, {"name": "Great Apartment Hotel", "location": "Gasabo", "tel": "No phone number"}, {"name": "Marasa Umubano Hotel", "location": "Gasabo", "tel": "No phone number"}, {"name": "Accord Hotel", "location": "Gasabo", "tel": "No phone number"}, {"name": "Kimironko Sinai Suites", "location": "Gasabo", "tel": "No phone number"}, {"name": "Price Guest House", "location": "Gasabo", "tel": "No phone number"}, {"name": "Airport Apartments", "location": "Gasabo", "tel": "No phone number"}, {"name": "The Sunshine Villa", "location": "Gasabo", "tel": "No phone number"}, {"name": "Corina K Guest house", "location": "Gasabo", "tel": "No phone number"}, {"name": "Next-Gen Boutique Hotel", "location": "Gasabo", "tel": "No phone number"}, {"name": "Ubumwe Grande Hotel", "location": "Gasabo", "tel": "No phone number"}, {"name": "Hill View Hotel", "location": "Gasabo", "tel": "No phone number"}, {"name": "Highlands Suites Hotel", "location": "Gasabo", "tel": "No phone number"}, {"name": "New Impala Hotel", "location": "Gasabo", "tel": "No phone number"}, {"name": "City Valley Motel", "location": "Gasabo", "tel": "No phone number"}, {"name": "Elegance Hotel", "location": "Gasabo", "tel": "No phone number"}, {"name": "Cari Hotel", "location": "Gasabo", "tel": "No phone number"}, {"name": "Martin Aviator Motel", "location": "Gasabo", "tel": "No phone number"}, {"name": "UMUGANO Guest House", "location": "Gasabo", "tel": "No phone number"}, {"name": "La Posh Hotel", "location": "Gasabo", "tel": "No phone number"}, {"name": "Iris Guesthouse", "location": "Gasabo", "tel": "No phone number"}, {"name": "IGITEGO HOTEL", "location": "Gasabo", "tel": "No phone number"}, {"name": "INGANZI APARTMENTS", "location": "Gasabo", "tel": "No phone number"}, {"name": "Nicksters Home Inn", "location": "Gasabo", "tel": "No phone number"}, {"name": "Hotel Gloria", "location": "Gasabo", "tel": "No phone number"}, {"name": "2000 Hotel", "location": "Gasabo", "tel": "No phone number"}, {"name": "Modern Villa Hotel", "location": "Gasabo", "tel": "No phone number"}, {"name": "The Nest", "location": "Gasabo", "tel": "No phone number"}, {"name": "Bethany Investment Group EPR Hostel", "location": "Gasabo", "tel": "No phone number"}, {"name": "Galaxy Hotel", "location": "Gasabo", "tel": "No phone number"}, {"name": "Nobilis Apartments", "location": "Gasabo", "tel": "No phone number"}, {"name": "Phoenix Plaza Apartment For Sale", "location": "Gasabo", "tel": "No phone number"}, {"name": "Step Town Motel", "location": "Gasabo", "tel": "No phone number"}, {"name": "Hotel Gorillas Kigali City Centre", "location": "Gasabo", "tel": "No phone number"}, {"name": "H\u00f4tel Le Garni", "location": "Gasabo", "tel": "No phone number"}, {"name": "East African Villas Guest House", "location": "Gasabo", "tel": "No phone number"}, {"name": "Le Printemps", "location": "Gasabo", "tel": "No phone number"}, {"name": "Golf Hills Residence", "location": "Gasabo", "tel": "No phone number"}, {"name": "Harvest Hills", "location": "Gasabo", "tel": "No phone number"}, {"name": "Home2Home B&B", "location": "Gasabo", "tel": "No phone number"}, {"name": "Radius Guest Flats", "location": "Gasabo", "tel": "No phone number"}, {"name": "Scheba Hotel", "location": "Gasabo", "tel": "No phone number"}, {"name": "The Hut", "location": "Gasabo", "tel": "No phone number"}, {"name": "Gloria Hotel", "location": "Gasabo", "tel": "No phone number"}, {"name": "Zebra Boutique Hotel", "location": "Gasabo", "tel": "No phone number"}, {"name": "Parkview Hotel", "location": "Gasabo", "tel": "No phone number"}, {"name": "KENT Residence", "location": "Gasabo", "tel": "No phone number"}, {"name": "Elegance Motel", "location": "Gasabo", "tel": "No phone number"}, {"name": "The Retreat", "location": "Gasabo", "tel": "No phone number"}, {"name": "Hotel Hilltop and Country Club", "location": "Gasabo", "tel": "No phone number"}, {"name": "Ava House", "location": "Gasabo", "tel": "No phone number"}, {"name": "Stipp Hotel Kiyovu", "location": "Gasabo", "tel": "No phone number"}, {"name": "Amani Guesthouse", "location": "Gasabo", "tel": "No phone number"}, {"name": "Greater Apartments", "location": "Gasabo", "tel": "No phone number"}, {"name": "LA DIFFERENCE GUEST HOUSE", "location": "Gasabo", "tel": "No phone number"}, {"name": "Centre Saint Vincent Pallotti", "location": "Gasabo", "tel": "No phone number"}, {"name": "Prince Guest House", "location": "Gasabo", "tel": "No phone number"}, {"name": "Makutano Club and Resorts", "location": "Gasabo", "tel": "0780112228"}, {"name": "Cameo Guest House", "location": "Gasabo", "tel": "No phone number"}, {"name": "Elevate Suites", "location": "Gasabo", "tel": "No phone number"}, {"name": "Dream Guest House", "location": "Gasabo", "tel": "No phone number"}, {"name": "Bloom Back Hotel", "location": "Gasabo", "tel": "No phone number"}, {"name": "Pure Africa Cafe", "location": "Gasabo", "tel": "No phone number"}, {"name": "Hotel Sienna", "location": "Gasabo", "tel": "No phone number"}, {"name": "Tea House Bis", "location": "Gasabo", "tel": "No phone number"}, {"name": "Hope Apartment", "location": "Gasabo", "tel": "No phone number"}, {"name": "Resident Hotel", "location": "Gasabo", "tel": "No phone number"}, {"name": "Kent Residence", "location": "Gasabo", "tel": "No phone number"}, {"name": "Andalusia Hotel Rwanda", "location": "Gasabo", "tel": "No phone number"}, {"name": "Upendo Guest House", "location": "Gasabo", "tel": "No phone number"}, {"name": "Olympic Hotel", "location": "Gasabo", "tel": "No phone number"}, {"name": "Infinity Hotel", "location": "Gasabo", "tel": "No phone number"}, {"name": "Classic Hotel", "location": "Gasabo", "tel": "No phone number"}, {"name": "Palma Village Apart Hotel", "location": "Gasabo", "tel": "No phone number"}, {"name": "B VILLA HOTEL", "location": "Gasabo", "tel": "No phone number"}, {"name": "Kigali Homestay", "location": "Gasabo", "tel": "0788501416"}, {"name": "Cari Hotel", "location": "Gasabo", "tel": "No phone number"}, {"name": "Courtesy Residence Apartment", "location": "Gasabo", "tel": "No phone number"}, {"name": "Sergion Guest House", "location": "Gasabo", "tel": "No phone number"}, {"name": "Batik Maison d'H\u00f4te", "location": "Gasabo", "tel": "No phone number"}, {"name": "Michas' Guest House", "location": "Gasabo", "tel": "No phone number"}, {"name": "Mattina Motel", "location": "Gasabo", "tel": "No phone number"}, {"name": "Hotel Isimbi", "location": "Gasabo", "tel": "No phone number"}, {"name": "Dmall Hotel", "location": "Gasabo", "tel": "No phone number"}, {"name": "Jambo Guest House", "location": "Gasabo", "tel": "No phone number"}, {"name": "Freedom Hotel", "location": "Gasabo", "tel": "No phone number"}, {"name": "PANDA THEME GUEST HOUSE", "location": "Gasabo", "tel": "No phone number"}, {"name": "Kigaliview Hotel and Apartments", "location": "Gasabo", "tel": "No phone number"}, {"name": "Parador Motel", "location": "Gasabo", "tel": "No phone number"}, {"name": "Select Boutique Hotel", "location": "Gasabo", "tel": "No phone number"}, {"name": "Ecoair Apartment Hotel", "location": "Gasabo", "tel": "No phone number"}, {"name": "Stipp Hotel Kiyovu", "location": "Gasabo", "tel": "No phone number"}, {"name": "Sainte Famille Hotel", "location": "Gasabo", "tel": "No phone number"}, {"name": "Hoteltech Rwanda", "location": "Gasabo", "tel": "No phone number"}, {"name": "Jambo Inn", "location": "Gasabo", "tel": "No phone number"}, {"name": "Kigali Labelle", "location": "Gasabo", "tel": "No phone number"}, {"name": "Phoenix Plaza_for sale", "location": "Gasabo", "tel": "No phone number"}, {"name": "Le Printemps Hotel Limited", "location": "Gasabo", "tel": "No phone number"}, {"name": "Airport Hill Guest House", "location": "Gasabo", "tel": "No phone number"}, {"name": "Phoenix Square", "location": "Gasabo", "tel": "No phone number"}, {"name": "Kigali Royal Harvest Motel", "location": "Gasabo", "tel": "No phone number"}]