[{"name": "Select Boutique Hotel", "location": "Huye", "tel": "0786098109"}, {"name": "Hotel Twiga", "location": "Huye", "tel": "No phone number"}, {"name": "Light House Hotel", "location": "Huye", "tel": "No phone number"}, {"name": "H\u00f4tel Maisons-Sifa", "location": "Huye", "tel": "No phone number"}, {"name": "KU Guesthouse", "location": "Huye", "tel": "No phone number"}, {"name": "Residence Astrida", "location": "Huye", "tel": "No phone number"}, {"name": "Casa Hotel Ltd", "location": "Huye", "tel": "No phone number"}, {"name": "Petit Prince (Four Steps) Hotel", "location": "Huye", "tel": "No phone number"}, {"name": "Hotel Credo", "location": "Huye", "tel": "No phone number"}, {"name": "Hotel Ibis", "location": "Huye", "tel": "No phone number"}, {"name": "Mont Huye Motel", "location": "Huye", "tel": "No phone number"}, {"name": "Galileo Hotel Stadium", "location": "Huye", "tel": "No phone number"}, {"name": "Motel du Mont Huye", "location": "Huye", "tel": "No phone number"}, {"name": "Barthos Hotel", "location": "Huye", "tel": "No phone number"}, {"name": "Golden Monkey Hotel", "location": "Huye", "tel": "No phone number"}, {"name": "Happiness Star Motel", "location": "Huye", "tel": "No phone number"}, {"name": "Wisdom Village Isangano", "location": "Huye", "tel": "No phone number"}, {"name": "Emaus Hostel", "location": "Huye", "tel": "No phone number"}, {"name": "Mater Boni Consilii", "location": "Huye", "tel": "No phone number"}, {"name": "Shalom Guest House", "location": "Huye", "tel": "No phone number"}, {"name": "Heroes Motel", "location": "Huye", "tel": "No phone number"}, {"name": "Barthos Hotel", "location": "Huye", "tel": "No phone number"}, {"name": "Mumunyinya Relax Motel", "location": "Huye", "tel": "No phone number"}, {"name": "Credo Hotel", "location": "Huye", "tel": "No phone number"}, {"name": "Kolibri Paradise", "location": "Huye", "tel": "No phone number"}, {"name": "Saint Vincent Motel", "location": "Huye", "tel": "No phone number"}, {"name": "Mater Boni Concilli", "location": "Huye", "tel": "No phone number"}, {"name": "Ineza Heritage", "location": "Huye", "tel": "No phone number"}, {"name": "Honey In Honey Motel", "location": "Huye", "tel": "No phone number"}, {"name": "Beaux Arts", "location": "Huye", "tel": "No phone number"}, {"name": "Hotel Faucon", "location": "Huye", "tel": "No phone number"}, {"name": "Regina Pacis Kibeho", "location": "Huye", "tel": "No phone number"}, {"name": "Montana Motel", "location": "Huye", "tel": "No phone number"}, {"name": "Ubumwe Center Kigeme Ltd", "location": "Huye", "tel": "No phone number"}]