[{"name": "Chris Hotel Ruyenzi", "location": "Kamonyi", "tel": "No phone number"}, {"name": "Heartland hotel", "location": "Kamonyi", "tel": "No phone number"}, {"name": "Chris Hotel Kamonyi", "location": "Kamonyi", "tel": "No phone number"}, {"name": "Sweet Stay Guest House", "location": "Kamonyi", "tel": "No phone number"}, {"name": "Kanyinya Hills Hotel", "location": "Kamonyi", "tel": "No phone number"}, {"name": "Heaven Boutique Hotel Villa", "location": "Kamonyi", "tel": "No phone number"}, {"name": "Kigali Marriott Hotel", "location": "Kamonyi", "tel": "No phone number"}, {"name": "New Impala Hotel", "location": "Kamonyi", "tel": "No phone number"}, {"name": "Honey In Honey Motel", "location": "Kamonyi", "tel": "No phone number"}, {"name": "Mountain View Apartment", "location": "Kamonyi", "tel": "No phone number"}, {"name": "San Jos\u00e9 Carmelo Spiritual Centre", "location": "Kamonyi", "tel": "No phone number"}, {"name": "La Floraison", "location": "Kamonyi", "tel": "No phone number"}, {"name": "Dove Hotel Kigali", "location": "Kamonyi", "tel": "No phone number"}, {"name": "Heaven Boutique Hotel Garden Chalet", "location": "Kamonyi", "tel": "No phone number"}, {"name": "Step Town Motel", "location": "Kamonyi", "tel": "No phone number"}, {"name": "Hotel Okapi", "location": "Kamonyi", "tel": "No phone number"}, {"name": "Mount Kigali Hotel", "location": "Kamonyi", "tel": "No phone number"}, {"name": "H\u00f4tel des Mille Collines", "location": "Kamonyi", "tel": "No phone number"}, {"name": "Peace and Grace Motel", "location": "Kamonyi", "tel": "No phone number"}, {"name": "City Valley Motel", "location": "Kamonyi", "tel": "No phone number"}, {"name": "Hill View Hotel", "location": "Kamonyi", "tel": "No phone number"}, {"name": "Anthurium Residential Hotel", "location": "Kamonyi", "tel": "No phone number"}, {"name": "Kigali Serena Hotel", "location": "Kamonyi", "tel": "No phone number"}, {"name": "Ubumwe Grande Hotel", "location": "Kamonyi", "tel": "No phone number"}, {"name": "Glory Guest House", "location": "Kamonyi", "tel": "No phone number"}, {"name": "2000 Hotel", "location": "Kamonyi", "tel": "No phone number"}, {"name": "Hotel Gloria", "location": "Kamonyi", "tel": "No phone number"}, {"name": "La Posh Hotel", "location": "Kamonyi", "tel": "No phone number"}, {"name": "5 Swiss Hotel", "location": "Kamonyi", "tel": "No phone number"}, {"name": "Heaven Restaurant & Boutique Hotel", "location": "Kamonyi", "tel": "No phone number"}, {"name": "Centre San Jose Carmelo", "location": "Kamonyi", "tel": "No phone number"}, {"name": "H\u00f4tel Le Garni", "location": "Kamonyi", "tel": "No phone number"}, {"name": "Splendid Hotel", "location": "Kamonyi", "tel": "No phone number"}, {"name": "Galaxy Hotel", "location": "Kamonyi", "tel": "No phone number"}, {"name": "Nicksters Home Inn", "location": "Kamonyi", "tel": "No phone number"}, {"name": "La Vedetta Maceo", "location": "Kamonyi", "tel": "No phone number"}, {"name": "The Retreat", "location": "Kamonyi", "tel": "No phone number"}, {"name": "High Ground Villa", "location": "Kamonyi", "tel": "No phone number"}, {"name": "Jangwe Lodge", "location": "Kamonyi", "tel": "No phone number"}, {"name": "Hotel Saint-Andre Kabgayi", "location": "Kamonyi", "tel": "No phone number"}, {"name": "Kigaliview", "location": "Kamonyi", "tel": "No phone number"}, {"name": "Mattina Motel", "location": "Kamonyi", "tel": "No phone number"}, {"name": "Madison Hills Hotel", "location": "Kamonyi", "tel": "No phone number"}, {"name": "Crown resort hotel", "location": "Kamonyi", "tel": "No phone number"}, {"name": "Smart Inn Hotel", "location": "Kamonyi", "tel": "No phone number"}, {"name": "Wembley Motel", "location": "Kamonyi", "tel": "No phone number"}, {"name": "Kigaliview Hotel and Apartments", "location": "Kamonyi", "tel": "No phone number"}, {"name": "Ururabo Guest House", "location": "Kamonyi", "tel": "No phone number"}, {"name": "Hotel Isimbi", "location": "Kamonyi", "tel": "No phone number"}, {"name": "Humble Guest House", "location": "Kamonyi", "tel": "No phone number"}, {"name": "Azizi Life", "location": "Kamonyi", "tel": "0785781146"}, {"name": "Muhanga in Cyakabiri Motel", "location": "Kamonyi", "tel": "No phone number"}, {"name": "Resident Hotel", "location": "Kamonyi", "tel": "No phone number"}, {"name": "Umuco Hotel", "location": "Kamonyi", "tel": "No phone number"}, {"name": "Kigali Baobab Hotel", "location": "Kamonyi", "tel": "No phone number"}, {"name": "New Impala Hotel", "location": "Kamonyi", "tel": "No phone number"}, {"name": "Auberge La Caverne", "location": "Kamonyi", "tel": "No phone number"}, {"name": "Arcadia Motel", "location": "Kamonyi", "tel": "No phone number"}, {"name": "Eden Palace Hotel", "location": "Kamonyi", "tel": "No phone number"}, {"name": "Auberge de Nyamirambo", "location": "Kamonyi", "tel": "No phone number"}, {"name": "Sifa Guest House", "location": "Kamonyi", "tel": "No phone number"}, {"name": "Sainte Famille Hotel", "location": "Kamonyi", "tel": "No phone number"}, {"name": "2000 Hotel", "location": "Kamonyi", "tel": "No phone number"}, {"name": "Glory Motel", "location": "Kamonyi", "tel": "No phone number"}, {"name": "Ambiance Accommodation", "location": "Kamonyi", "tel": "No phone number"}, {"name": "Sky House Inn", "location": "Kamonyi", "tel": "No phone number"}, {"name": "Kigali Holiday Hotel", "location": "Kamonyi", "tel": "No phone number"}, {"name": "Dayenu Hotel", "location": "Kamonyi", "tel": "No phone number"}, {"name": "Mater Dei Motel", "location": "Kamonyi", "tel": "No phone number"}, {"name": "Kigali Guest House", "location": "Kamonyi", "tel": "No phone number"}, {"name": "Amatana Center Lodge", "location": "Kamonyi", "tel": "No phone number"}, {"name": "Good Galaxy Lodge", "location": "Kamonyi", "tel": "No phone number"}, {"name": "DoubleTree by Hilton Kigali City Centre", "location": "Kamonyi", "tel": "No phone number"}, {"name": "IREBERO VILLAGE", "location": "Kamonyi", "tel": "No phone number"}, {"name": "Le Printemps Hotel Limited", "location": "Kamonyi", "tel": "No phone number"}, {"name": "Vision Motel", "location": "Kamonyi", "tel": "No phone number"}, {"name": "Dignity Motel", "location": "Kamonyi", "tel": "No phone number"}, {"name": "Heaven Rwanda", "location": "Kamonyi", "tel": "No phone number"}, {"name": "Trust Inn Motel", "location": "Kamonyi", "tel": "No phone number"}, {"name": "New Hope Lodge", "location": "Kamonyi", "tel": "No phone number"}, {"name": "Mater Dei Motel", "location": "Kamonyi", "tel": "No phone number"}, {"name": "Galaxy Hotel", "location": "Kamonyi", "tel": "No phone number"}, {"name": "Amani Lodge", "location": "Kamonyi", "tel": "No phone number"}, {"name": "Rufradu Hotel 1", "location": "Kamonyi", "tel": "No phone number"}, {"name": "Splendid Karisimbi", "location": "Kamonyi", "tel": "No phone number"}]