[{"name": "Mijo Hostel", "location": "Kicukiro", "tel": "No phone number"}, {"name": "Greenpage Suites", "location": "Kicukiro", "tel": "No phone number"}, {"name": "Rainbow Hotel", "location": "Kicukiro", "tel": "No phone number"}, {"name": "Feel At Home", "location": "Kicukiro", "tel": "No phone number"}, {"name": "GreenPage Garden Suites", "location": "Kicukiro", "tel": "No phone number"}, {"name": "Wailers Guest House", "location": "Kicukiro", "tel": "No phone number"}, {"name": "GreenPage Inn", "location": "Kicukiro", "tel": "No phone number"}, {"name": "Villa Asimba", "location": "Kicukiro", "tel": "No phone number"}, {"name": "Nova Apartment", "location": "Kicukiro", "tel": "No phone number"}, {"name": "Ishema Kigali Home", "location": "Kicukiro", "tel": "No phone number"}, {"name": "Yambi Hotel", "location": "Kicukiro", "tel": "No phone number"}, {"name": "Amahoro Smart Motel", "location": "Kicukiro", "tel": "No phone number"}, {"name": "Grazia Apartments", "location": "Kicukiro", "tel": "No phone number"}, {"name": "Remera Modern Guesthouse", "location": "Kicukiro", "tel": "No phone number"}, {"name": "The Nest Guesthouse", "location": "Kicukiro", "tel": "No phone number"}, {"name": "Mythos Boutique Hotel", "location": "Kicukiro", "tel": "No phone number"}, {"name": "Centre d'Acceuil Bonne Esp\u00e9rance", "location": "Kicukiro", "tel": "No phone number"}, {"name": "HOLLY GUESTINN", "location": "Kicukiro", "tel": "No phone number"}, {"name": "HILL CREST HOTEL", "location": "Kicukiro", "tel": "No phone number"}, {"name": "Ezra Boutique Hotel", "location": "Kicukiro", "tel": "No phone number"}, {"name": "Five To Five Hotel", "location": "Kicukiro", "tel": "No phone number"}, {"name": "RUJO ROOMS", "location": "Kicukiro", "tel": "No phone number"}, {"name": "The Sunshine Villa", "location": "Kicukiro", "tel": "No phone number"}, {"name": "The Hut Restaurant & Boutique Hotel", "location": "Kicukiro", "tel": "No phone number"}, {"name": "Lebanon Hotel Kigali", "location": "Kicukiro", "tel": "No phone number"}, {"name": "Corina K Guesthouse", "location": "Kicukiro", "tel": "No phone number"}, {"name": "Romalo Guest House", "location": "Kicukiro", "tel": "No phone number"}, {"name": "Classic Hotel", "location": "Kicukiro", "tel": "No phone number"}, {"name": "KIM Hotel", "location": "Kicukiro", "tel": "No phone number"}, {"name": "Yerbis Guest House", "location": "Kicukiro", "tel": "No phone number"}, {"name": "Rohi Apartments Hotel", "location": "Kicukiro", "tel": "0788306040"}, {"name": "Villanova Come Again", "location": "Kicukiro", "tel": "No phone number"}, {"name": "Best Inn Motel", "location": "Kicukiro", "tel": "No phone number"}, {"name": "Vincenzo Homestay", "location": "Kicukiro", "tel": "No phone number"}, {"name": "UMUGANO Guest House", "location": "Kicukiro", "tel": "No phone number"}, {"name": "The Court Boutique Hotel", "location": "Kicukiro", "tel": "No phone number"}, {"name": "H\u00f4tel Chez Lando", "location": "Kicukiro", "tel": "No phone number"}, {"name": "The Mirror Hotel", "location": "Kicukiro", "tel": "No phone number"}, {"name": "Peaceful Home Away From Home", "location": "Kicukiro", "tel": "No phone number"}, {"name": "Corina K Guest house", "location": "Kicukiro", "tel": "No phone number"}, {"name": "Plata Guest House", "location": "Kicukiro", "tel": "No phone number"}, {"name": "Grand Legacy Hotel", "location": "Kicukiro", "tel": "No phone number"}, {"name": "Happy Home and Dine", "location": "Kicukiro", "tel": "No phone number"}, {"name": "B.Maurice Guest House", "location": "Kicukiro", "tel": "No phone number"}, {"name": "Zebra Tourism Hotel", "location": "Kicukiro", "tel": "No phone number"}, {"name": "Boston Villa Motel", "location": "Kicukiro", "tel": "No phone number"}, {"name": "Rubangura Luxury Apartments", "location": "Kicukiro", "tel": "No phone number"}, {"name": "The Crib", "location": "Kicukiro", "tel": "No phone number"}, {"name": "Amata n'Ubuki Boutique Hotel & Restaurant", "location": "Kicukiro", "tel": "No phone number"}, {"name": "Good News Guest House", "location": "Kicukiro", "tel": "No phone number"}, {"name": "Civitas Hotel", "location": "Kicukiro", "tel": "No phone number"}, {"name": "Jambo Guest House", "location": "Kicukiro", "tel": "No phone number"}, {"name": "Zenith Hotel Kigali", "location": "Kicukiro", "tel": "No phone number"}, {"name": "Amani Guesthouse", "location": "Kicukiro", "tel": "No phone number"}, {"name": "B VILLA HOTEL", "location": "Kicukiro", "tel": "No phone number"}, {"name": "Lemigo Hotel", "location": "Kicukiro", "tel": "No phone number"}, {"name": "Price Guest House", "location": "Kicukiro", "tel": "No phone number"}, {"name": "Radisson Blu Hotel & Convention Centre, Kigali", "location": "Kicukiro", "tel": "No phone number"}, {"name": "Greenwich Hotel", "location": "Kicukiro", "tel": "No phone number"}, {"name": "Centre Saint Vincent Pallotti", "location": "Kicukiro", "tel": "No phone number"}, {"name": "Beaus\u00e9jour Hotel", "location": "Kicukiro", "tel": "No phone number"}, {"name": "The Nest", "location": "Kicukiro", "tel": "No phone number"}, {"name": "Kings Hostel", "location": "Kicukiro", "tel": "No phone number"}, {"name": "Select", "location": "Kicukiro", "tel": "No phone number"}, {"name": "The Hut", "location": "Kicukiro", "tel": "No phone number"}, {"name": "HILL CREST HOTEL", "location": "Kicukiro", "tel": "No phone number"}, {"name": "Kings Hospitality Centre", "location": "Kicukiro", "tel": "No phone number"}, {"name": "Modern Villa Hotel", "location": "Kicukiro", "tel": "No phone number"}, {"name": "Piece Motel", "location": "Kicukiro", "tel": "No phone number"}, {"name": "St Augustine Apart & Hotel", "location": "Kicukiro", "tel": "No phone number"}, {"name": "Accord Hotel", "location": "Kicukiro", "tel": "No phone number"}, {"name": "The Memory Makers Hospitality Service", "location": "Kicukiro", "tel": "No phone number"}, {"name": "Eden Escape Apartments", "location": "Kicukiro", "tel": "No phone number"}, {"name": "Champion Hotel", "location": "Kicukiro", "tel": "No phone number"}, {"name": "Cari Hotel", "location": "Kicukiro", "tel": "No phone number"}, {"name": "CityBlue Hotel & Suites", "location": "Kicukiro", "tel": "No phone number"}, {"name": "Zenith Hotel", "location": "Kicukiro", "tel": "No phone number"}, {"name": "Kigali Diplomat Hotel", "location": "Kicukiro", "tel": "No phone number"}, {"name": "IGITEGO HOTEL", "location": "Kicukiro", "tel": "No phone number"}, {"name": "Africa New Life Guest House", "location": "Kicukiro", "tel": "No phone number"}, {"name": "New Life Guest House", "location": "Kicukiro", "tel": "No phone number"}, {"name": "Nice Corner Guest House", "location": "Kicukiro", "tel": "No phone number"}, {"name": "Upendo Guest House", "location": "Kicukiro", "tel": "No phone number"}, {"name": "St Barnabas CAC", "location": "Kicukiro", "tel": "No phone number"}, {"name": "Prince Guest House", "location": "Kicukiro", "tel": "No phone number"}, {"name": "Hotel Tech Remera", "location": "Kicukiro", "tel": "No phone number"}, {"name": "Talking Through Art", "location": "Kicukiro", "tel": "0782425177"}, {"name": "Kigali House of Stories", "location": "Kicukiro", "tel": "No phone number"}, {"name": "Amacumbi Steclem", "location": "Kicukiro", "tel": "No phone number"}, {"name": "Dream Guest House", "location": "Kicukiro", "tel": "No phone number"}, {"name": "Ava House", "location": "Kicukiro", "tel": "No phone number"}, {"name": "Batik Maison d'H\u00f4te", "location": "Kicukiro", "tel": "No phone number"}, {"name": "Tea House Bis", "location": "Kicukiro", "tel": "No phone number"}, {"name": "St Augustine Hotel", "location": "Kicukiro", "tel": "No phone number"}, {"name": "Parador Motel", "location": "Kicukiro", "tel": "No phone number"}, {"name": "Pure Africa Cafe", "location": "Kicukiro", "tel": "No phone number"}, {"name": "Shammah Guest House", "location": "Kicukiro", "tel": "No phone number"}, {"name": "Makutano Club and Resorts", "location": "Kicukiro", "tel": "0780112228"}, {"name": "Havila apartment", "location": "Kicukiro", "tel": "No phone number"}, {"name": "HELLO HOME", "location": "Kicukiro", "tel": "No phone number"}, {"name": "New Hope lodge", "location": "Kicukiro", "tel": "No phone number"}]