[{"name": "Splendid Hotel", "location": "Muhanga", "tel": "No phone number"}, {"name": "Hotel Saint-Andre Kabgayi", "location": "Muhanga", "tel": "No phone number"}, {"name": "Jangwe Lodge", "location": "Muhanga", "tel": "No phone number"}, {"name": "Azizi Life", "location": "Muhanga", "tel": "0785781146"}, {"name": "Umuco Hotel", "location": "Muhanga", "tel": "No phone number"}, {"name": "Muhanga in Cyakabiri Motel", "location": "Muhanga", "tel": "No phone number"}, {"name": "Mater Dei Motel", "location": "Muhanga", "tel": "No phone number"}, {"name": "Ururabo Guest House", "location": "Muhanga", "tel": "No phone number"}, {"name": "Dayenu Hotel", "location": "Muhanga", "tel": "No phone number"}, {"name": "Amatana Center Lodge", "location": "Muhanga", "tel": "No phone number"}, {"name": "Sifa Guest House", "location": "Muhanga", "tel": "No phone number"}, {"name": "Rufradu Hotel 1", "location": "Muhanga", "tel": "No phone number"}, {"name": "Mater Dei Motel", "location": "Muhanga", "tel": "No phone number"}]