[{"name": "Ruhondo Beach Resort", "location": "Musanze", "tel": "No phone number"}, {"name": "Mountain Gorilla Nest Hotel", "location": "Musanze", "tel": "No phone number"}, {"name": "VILLA GORILLA", "location": "Musanze", "tel": "No phone number"}, {"name": "La Locanda", "location": "Musanze", "tel": "No phone number"}, {"name": "Faraja Hotel", "location": "Musanze", "tel": "No phone number"}, {"name": "Virunga Hotel", "location": "Musanze", "tel": "No phone number"}, {"name": "Musanze Caves Hotel", "location": "Musanze", "tel": "No phone number"}, {"name": "Gorillas Volcanoes Hotel", "location": "Musanze", "tel": "No phone number"}, {"name": "Isange Paradise Resort", "location": "Musanze", "tel": "No phone number"}, {"name": "Gorillas Volcanoes Hotel", "location": "Musanze", "tel": "No phone number"}, {"name": "Le Bambou Gorilla Lodge", "location": "Musanze", "tel": "No phone number"}, {"name": "Red Rocks Rwanda", "location": "Musanze", "tel": "No phone number"}, {"name": "Ruhondo Beach Resort", "location": "Musanze", "tel": "No phone number"}, {"name": "The Garden Place Hotel", "location": "Musanze", "tel": "No phone number"}, {"name": "Five Volcanoes Boutique Hotel", "location": "Musanze", "tel": "0789924969"}, {"name": "Fatima Hotel", "location": "Musanze", "tel": "No phone number"}, {"name": "East Africa Amazon Guest House Musanze", "location": "Musanze", "tel": "No phone number"}, {"name": "Snow Hotel Rwanda", "location": "Musanze", "tel": "No phone number"}, {"name": "Home Inn", "location": "Musanze", "tel": "No phone number"}, {"name": "Ingagi Park View Lodge", "location": "Musanze", "tel": "No phone number"}, {"name": "Lake Chahafi Resort", "location": "Musanze", "tel": "No phone number"}, {"name": "Bambou Gorilla Lodge", "location": "Musanze", "tel": "No phone number"}, {"name": "Mountain Gorilla View Lodge", "location": "Musanze", "tel": "No phone number"}, {"name": "The Bishop's House Rwanda", "location": "Musanze", "tel": "No phone number"}, {"name": "Amakoro Songa Lodge", "location": "Musanze", "tel": "No phone number"}, {"name": "Filon d'Or Guest House and Campsite", "location": "Musanze", "tel": "No phone number"}, {"name": "Urugano Virunga Palace", "location": "Musanze", "tel": "No phone number"}, {"name": "Auberge Ikaze", "location": "Musanze", "tel": "No phone number"}, {"name": "La Palme Hotel", "location": "Musanze", "tel": "No phone number"}, {"name": "Classic Lodge", "location": "Musanze", "tel": "No phone number"}, {"name": "Amahoro Guesthouse", "location": "Musanze", "tel": "No phone number"}, {"name": "Fatima Hotel", "location": "Musanze", "tel": "No phone number"}, {"name": "Buffalo Mountain Lodge", "location": "Musanze", "tel": "0788529550"}, {"name": "Volcano View B&B", "location": "Musanze", "tel": "No phone number"}, {"name": "Best View Hotel", "location": "Musanze", "tel": "No phone number"}, {"name": "Amahoro Guest House", "location": "Musanze", "tel": "No phone number"}, {"name": "La Voisina Motel", "location": "Musanze", "tel": "No phone number"}, {"name": "Pearl Guest House", "location": "Musanze", "tel": "No phone number"}, {"name": "Hotel Muhabura", "location": "Musanze", "tel": "No phone number"}, {"name": "My Hill Eco Lodge", "location": "Musanze", "tel": "No phone number"}, {"name": "Twin Lakes Lodge", "location": "Musanze", "tel": "No phone number"}, {"name": "Mountain Gorilla View Lodge", "location": "Musanze", "tel": "No phone number"}, {"name": "One&Only Gorilla's Nest", "location": "Musanze", "tel": "No phone number"}, {"name": "Mt.Muhabura Climbers Rest Camp", "location": "Musanze", "tel": "No phone number"}, {"name": "Sabyinyo Silverback Lodge", "location": "Musanze", "tel": "No phone number"}, {"name": "Five Volcanoes Boutique Hotel", "location": "Musanze", "tel": "No phone number"}, {"name": "Singita Kwitonda Lodge", "location": "Musanze", "tel": "No phone number"}, {"name": "Urugaga Imbaraga", "location": "Musanze", "tel": "No phone number"}, {"name": "Montana Vista Hotel - Rwanda, Africa", "location": "Musanze", "tel": "No phone number"}, {"name": "Byiza Lodge", "location": "Musanze", "tel": "No phone number"}, {"name": "Villa Gorilla", "location": "Musanze", "tel": "No phone number"}, {"name": "Sainte Anne", "location": "Musanze", "tel": "No phone number"}, {"name": "Virunga Lodge", "location": "Musanze", "tel": "No phone number"}, {"name": "Tiloreza Volcanoes Ecolodge", "location": "Musanze", "tel": "No phone number"}, {"name": "western mountain hotel", "location": "Musanze", "tel": "No phone number"}, {"name": "Kinigi Guest House", "location": "Musanze", "tel": "No phone number"}, {"name": "Centre Pastoral Notre Dame de Fatima", "location": "Musanze", "tel": "No phone number"}, {"name": "Venus Villa Guest House 02", "location": "Musanze", "tel": "No phone number"}, {"name": "Sainte Anne Hotel", "location": "Musanze", "tel": "No phone number"}, {"name": "Hotel Urumuli", "location": "Musanze", "tel": "No phone number"}, {"name": "Snow Hotel", "location": "Musanze", "tel": "No phone number"}, {"name": "Venus Villa Guest House 01", "location": "Musanze", "tel": "No phone number"}, {"name": "FIDOS GUEST HOUSE & SAFARIS", "location": "Musanze", "tel": "No phone number"}, {"name": "La Paillotte Gorilla Place", "location": "Musanze", "tel": "No phone number"}, {"name": "La Silene", "location": "Musanze", "tel": "0783785399"}, {"name": "Mount Gahinga Lodge", "location": "Musanze", "tel": "No phone number"}, {"name": "New Silver Hotel", "location": "Musanze", "tel": "No phone number"}, {"name": "Red Rocks Cultural Center", "location": "Musanze", "tel": "No phone number"}, {"name": "La Paillotte Gorilla Place Kinigi", "location": "Musanze", "tel": "No phone number"}, {"name": "La Paillotte Gorilla Place Kingi", "location": "Musanze", "tel": "No phone number"}, {"name": "La Palme Hotel", "location": "Musanze", "tel": "No phone number"}, {"name": "Migano hotel", "location": "Musanze", "tel": "No phone number"}, {"name": "La Paillotte Cyuza Island", "location": "Musanze", "tel": "No phone number"}, {"name": "Peakspot Kinigi Camp", "location": "Musanze", "tel": "No phone number"}, {"name": "Motel Mont Kirerema 2", "location": "Musanze", "tel": "No phone number"}, {"name": "Amajambere Iwacu Community Camp", "location": "Musanze", "tel": "No phone number"}, {"name": "Crested Crane", "location": "Musanze", "tel": "No phone number"}, {"name": "Amizero Lodge", "location": "Musanze", "tel": "No phone number"}, {"name": "Twin Lakes Lodge", "location": "Musanze", "tel": "No phone number"}, {"name": "Shadow House Peace Guest House", "location": "Musanze", "tel": "No phone number"}, {"name": "Chaamban Hotel", "location": "Musanze", "tel": "No phone number"}, {"name": "Volcano Gate Motel", "location": "Musanze", "tel": "No phone number"}]