[{"name": "Hotel Rufrabu", "location": "Ngororero", "tel": "No phone number"}, {"name": "Splendid Hotel", "location": "Ngororero", "tel": "No phone number"}, {"name": "Ubumwe Hotel", "location": "Ngororero", "tel": "No phone number"}, {"name": "Lake Kivu Serena Hotel", "location": "Ngororero", "tel": "No phone number"}, {"name": "Belvedere Hotel", "location": "Ngororero", "tel": "No phone number"}, {"name": "Mater Dei Motel", "location": "Ngororero", "tel": "No phone number"}, {"name": "Stipp Hotel Gisenyi", "location": "Ngororero", "tel": "No phone number"}, {"name": "Gorillas Lake Kivu Hotel", "location": "Ngororero", "tel": "No phone number"}, {"name": "Golf Eden Rock Hotel/MUGAMBIRA Aphrodis /Karongi", "location": "Ngororero", "tel": "No phone number"}, {"name": "Best Choice Lodge", "location": "Ngororero", "tel": "No phone number"}, {"name": "HOTEL SAINT-ANDRE KABGAYI", "location": "Ngororero", "tel": "No phone number"}, {"name": "Dayenu Hotel", "location": "Ngororero", "tel": "No phone number"}, {"name": "Rufradu Hotel 1", "location": "Ngororero", "tel": "No phone number"}, {"name": "Hotel Saint-Andre Kabgayi", "location": "Ngororero", "tel": "No phone number"}, {"name": "Kigali Marriott Hotel", "location": "Ngororero", "tel": "No phone number"}, {"name": "Marasa Umubano Hotel", "location": "Ngororero", "tel": "No phone number"}, {"name": "Accord Hotel", "location": "Ngororero", "tel": "No phone number"}, {"name": "Amatana Center Lodge", "location": "Ngororero", "tel": "No phone number"}, {"name": "Shadow House Peace Guest House", "location": "Ngororero", "tel": "No phone number"}, {"name": "Scheba Hotel", "location": "Ngororero", "tel": "No phone number"}, {"name": "Kigali Serena Hotel", "location": "Ngororero", "tel": "No phone number"}, {"name": "Hill View Hotel", "location": "Ngororero", "tel": "No phone number"}, {"name": "Radisson Blu Hotel & Convention Centre, Kigali", "location": "Ngororero", "tel": "No phone number"}, {"name": "Gorillas Golf Hotel", "location": "Ngororero", "tel": "No phone number"}, {"name": "Lemigo Hotel", "location": "Ngororero", "tel": "No phone number"}, {"name": "Dmall Hotel", "location": "Ngororero", "tel": "No phone number"}, {"name": "Five To Five Hotel", "location": "Ngororero", "tel": "No phone number"}, {"name": "The Court Boutique Hotel", "location": "Ngororero", "tel": "No phone number"}, {"name": "Karisimbi Hotel", "location": "Ngororero", "tel": "No phone number"}, {"name": "Garr Hotel", "location": "Ngororero", "tel": "No phone number"}, {"name": "Blessington Motel Ltd", "location": "Ngororero", "tel": "No phone number"}, {"name": "Cari Hotel", "location": "Ngororero", "tel": "No phone number"}, {"name": "5 Swiss Hotel", "location": "Ngororero", "tel": "No phone number"}, {"name": "Iwawe Hotel", "location": "Ngororero", "tel": "No phone number"}, {"name": "Stipp Hotel Kiyovu", "location": "Ngororero", "tel": "No phone number"}, {"name": "Diana Fossey Rutsiro", "location": "Ngororero", "tel": "No phone number"}, {"name": "The Manor Hotel", "location": "Ngororero", "tel": "No phone number"}, {"name": "Perle Boutique Hotel", "location": "Ngororero", "tel": "No phone number"}, {"name": "Kigali Diplomat Hotel", "location": "Ngororero", "tel": "No phone number"}, {"name": "Parkview Hotel", "location": "Ngororero", "tel": "No phone number"}, {"name": "Quiet Haven Hotel", "location": "Ngororero", "tel": "No phone number"}, {"name": "The Mirror Hotel", "location": "Ngororero", "tel": "No phone number"}, {"name": "Le Printemps Hotel Limited", "location": "Ngororero", "tel": "No phone number"}, {"name": "Grand Legacy Hotel", "location": "Ngororero", "tel": "No phone number"}, {"name": "Zebra Boutique Hotel", "location": "Ngororero", "tel": "No phone number"}, {"name": "Lebanon Hotel Kigali", "location": "Ngororero", "tel": "No phone number"}, {"name": "Anthurium Residential Hotel", "location": "Ngororero", "tel": "No phone number"}, {"name": "Amata n'Ubuki Boutique Hotel & Restaurant", "location": "Ngororero", "tel": "No phone number"}, {"name": "Amaris Hotel", "location": "Ngororero", "tel": "No phone number"}, {"name": "Zenith Hotel", "location": "Ngororero", "tel": "No phone number"}, {"name": "Hotel Villa Portofino Kigali", "location": "Ngororero", "tel": "No phone number"}, {"name": "Beaus\u00e9jour Hotel", "location": "Ngororero", "tel": "No phone number"}, {"name": "Andalusia Hotel Rwanda", "location": "Ngororero", "tel": "No phone number"}, {"name": "Wailers Guest House", "location": "Ngororero", "tel": "No phone number"}, {"name": "2000 Hotel", "location": "Ngororero", "tel": "No phone number"}, {"name": "Zenith Hotel Kigali", "location": "Ngororero", "tel": "No phone number"}, {"name": "Classic Hotel", "location": "Ngororero", "tel": "No phone number"}, {"name": "Star Hotel", "location": "Ngororero", "tel": "No phone number"}, {"name": "Bethany Hotel A", "location": "Ngororero", "tel": "No phone number"}, {"name": "Next-Gen Boutique Hotel", "location": "Ngororero", "tel": "No phone number"}, {"name": "La Palisse Hotel Nyamata", "location": "Ngororero", "tel": "No phone number"}, {"name": "Rainbow Hotel", "location": "Ngororero", "tel": "No phone number"}, {"name": "Guest House La Serenite", "location": "Ngororero", "tel": "No phone number"}, {"name": "Bougainvilla Boutique Hotel", "location": "Ngororero", "tel": "No phone number"}, {"name": "Champion Hotel", "location": "Ngororero", "tel": "No phone number"}, {"name": "Kivu Peace View Hotel", "location": "Ngororero", "tel": "No phone number"}, {"name": "Cari Hotel", "location": "Ngororero", "tel": "No phone number"}, {"name": "Hill View Hotel", "location": "Ngororero", "tel": "No phone number"}, {"name": "Hotel Gorillas Kigali City Centre", "location": "Ngororero", "tel": "No phone number"}, {"name": "The Country Inn Hotel", "location": "Ngororero", "tel": "No phone number"}, {"name": "Petit Bassam Hotel", "location": "Ngororero", "tel": "No phone number"}, {"name": "Nirvana Heights Hotel & Spa", "location": "Ngororero", "tel": "No phone number"}, {"name": "Civitas Hotel", "location": "Ngororero", "tel": "No phone number"}, {"name": "H\u00f4tel Chez Lando", "location": "Ngororero", "tel": "No phone number"}, {"name": "Hotel Sienna", "location": "Ngororero", "tel": "No phone number"}, {"name": "Hotel Isimbi", "location": "Ngororero", "tel": "No phone number"}, {"name": "Prime Hotels Kigali", "location": "Ngororero", "tel": "No phone number"}, {"name": "World House Gisozi Hotel", "location": "Ngororero", "tel": "No phone number"}, {"name": "Highlands Suites Hotel", "location": "Ngororero", "tel": "No phone number"}, {"name": "Olympic Hotel", "location": "Ngororero", "tel": "No phone number"}, {"name": "Gloria Hotel", "location": "Ngororero", "tel": "No phone number"}, {"name": "Asante Hotel Gisenyi", "location": "Ngororero", "tel": "No phone number"}, {"name": "Bloom Back Hotel", "location": "Ngororero", "tel": "No phone number"}, {"name": "Modern Villa Hotel", "location": "Ngororero", "tel": "No phone number"}, {"name": "Olympic Hotel", "location": "Ngororero", "tel": "No phone number"}, {"name": "Urban by CityBlue", "location": "Ngororero", "tel": "No phone number"}, {"name": "Extra Inn Kigali", "location": "Ngororero", "tel": "No phone number"}, {"name": "Dove Hotel Kigali", "location": "Ngororero", "tel": "No phone number"}, {"name": "Infinity Hotel", "location": "Ngororero", "tel": "No phone number"}, {"name": "Inzu Lodge", "location": "Ngororero", "tel": "No phone number"}, {"name": "Prime Hotels", "location": "Ngororero", "tel": "No phone number"}, {"name": "Select", "location": "Ngororero", "tel": "No phone number"}, {"name": "Kigali Airport Hotel", "location": "Ngororero", "tel": "No phone number"}, {"name": "Alink Hotel", "location": "Ngororero", "tel": "No phone number"}, {"name": "Flame Tree Village", "location": "Ngororero", "tel": "No phone number"}, {"name": "Rwiza Village.", "location": "Ngororero", "tel": "No phone number"}, {"name": "Step Town Motel", "location": "Ngororero", "tel": "No phone number"}, {"name": "St Augustine Hotel", "location": "Ngororero", "tel": "No phone number"}, {"name": "Musanto Hotel", "location": "Ngororero", "tel": "No phone number"}, {"name": "Elevate Suites", "location": "Ngororero", "tel": "No phone number"}, {"name": "Musanto Hotel", "location": "Ngororero", "tel": "No phone number"}, {"name": "Elevate Suites", "location": "Ngororero", "tel": "No phone number"}, {"name": "Nice Corner Guest House", "location": "Ngororero", "tel": "No phone number"}, {"name": "Hotel Italiano AL Lago", "location": "Ngororero", "tel": "No phone number"}, {"name": "Colours Club", "location": "Ngororero", "tel": "No phone number"}, {"name": "Hotel Tech", "location": "Ngororero", "tel": "No phone number"}, {"name": "Diana Fossey Nyiramacibiri Hotel", "location": "Ngororero", "tel": "No phone number"}, {"name": "Heaven Boutique Hotel Villa", "location": "Ngororero", "tel": "No phone number"}, {"name": "Waterfront Resort Lake Kivu", "location": "Ngororero", "tel": "No phone number"}, {"name": "Park View Hotel", "location": "Ngororero", "tel": "No phone number"}, {"name": "Hilltop Hotel and Country Club", "location": "Ngororero", "tel": "No phone number"}, {"name": "Keva Guest House", "location": "Ngororero", "tel": "No phone number"}, {"name": "Mountain Gorilla View", "location": "Ngororero", "tel": "No phone number"}]