[{"name": "Nobleza Hotel", "location": "Nyanza", "tel": "No phone number"}, {"name": "Nyanza Heritage Hotel", "location": "Nyanza", "tel": "No phone number"}, {"name": "Dayenu Hotel Nyanza", "location": "Nyanza", "tel": "No phone number"}, {"name": "Amacumbi Steclem", "location": "Nyanza", "tel": "No phone number"}, {"name": "Jambo Inn", "location": "Nyanza", "tel": "No phone number"}, {"name": "Goodlife Lodge", "location": "Nyanza", "tel": "No phone number"}, {"name": "HILL CREST HOTEL", "location": "Nyanza", "tel": "No phone number"}, {"name": "Homeland Bar", "location": "Nyanza", "tel": "No phone number"}, {"name": "Kinyange Gardens Hotel", "location": "Nyanza", "tel": "No phone number"}, {"name": "New Life Motel", "location": "Nyanza", "tel": "No phone number"}, {"name": "Umuco Hotel", "location": "Nyanza", "tel": "No phone number"}, {"name": "New Life Motel", "location": "Nyanza", "tel": "No phone number"}, {"name": "Kigali Genocide Memorial", "location": "Nyanza", "tel": "No phone number"}, {"name": "Dayenu Hotel", "location": "Nyanza", "tel": "No phone number"}, {"name": "Eden Palace Hotel", "location": "Nyanza", "tel": "No phone number"}, {"name": "Ibis Hotel", "location": "Nyanza", "tel": "No phone number"}, {"name": "Nyanza", "location": "Nyanza", "tel": "No phone number"}, {"name": "FOREST GARDEN Hotel", "location": "Nyanza", "tel": "No phone number"}]