[{"name": "Mijo Hostel", "location": "Nyarugenge", "tel": "No phone number"}, {"name": "Kigali Marriott Hotel", "location": "Nyarugenge", "tel": "No phone number"}, {"name": "H\u00f4tel des Mille Collines", "location": "Nyarugenge", "tel": "No phone number"}, {"name": "Urban by CityBlue", "location": "Nyarugenge", "tel": "No phone number"}, {"name": "Sweet Stay Guest House", "location": "Nyarugenge", "tel": "No phone number"}, {"name": "Mythos Boutique Hotel", "location": "Nyarugenge", "tel": "No phone number"}, {"name": "Perle Boutique Hotel", "location": "Nyarugenge", "tel": "No phone number"}, {"name": "Park Inn by Radisson Kigali", "location": "Nyarugenge", "tel": "No phone number"}, {"name": "Peace and Grace Motel", "location": "Nyarugenge", "tel": "No phone number"}, {"name": "Heaven Restaurant & Boutique Hotel", "location": "Nyarugenge", "tel": "No phone number"}, {"name": "La Posh Hotel", "location": "Nyarugenge", "tel": "No phone number"}, {"name": "Kigali Serena Hotel", "location": "Nyarugenge", "tel": "No phone number"}, {"name": "Heaven Boutique Hotel Villa", "location": "Nyarugenge", "tel": "No phone number"}, {"name": "Inside Afrika Hotel", "location": "Nyarugenge", "tel": "No phone number"}, {"name": "5 Swiss Hotel", "location": "Nyarugenge", "tel": "No phone number"}, {"name": "Ubumwe Grande Hotel", "location": "Nyarugenge", "tel": "No phone number"}, {"name": "Hotel Gloria", "location": "Nyarugenge", "tel": "No phone number"}, {"name": "2000 Hotel", "location": "Nyarugenge", "tel": "No phone number"}, {"name": "Hill View Hotel", "location": "Nyarugenge", "tel": "No phone number"}, {"name": "Onomo Hotel", "location": "Nyarugenge", "tel": "No phone number"}, {"name": "Mijo Hostel", "location": "Nyarugenge", "tel": "No phone number"}, {"name": "Kigali Marriott Hotel", "location": "Nyarugenge", "tel": "No phone number"}, {"name": "H\u00f4tel des Mille Collines", "location": "Nyarugenge", "tel": "No phone number"}, {"name": "Urban by CityBlue", "location": "Nyarugenge", "tel": "No phone number"}, {"name": "Sweet Stay Guest House", "location": "Nyarugenge", "tel": "No phone number"}, {"name": "Mythos Boutique Hotel", "location": "Nyarugenge", "tel": "No phone number"}, {"name": "Perle Boutique Hotel", "location": "Nyarugenge", "tel": "No phone number"}, {"name": "Park Inn by Radisson Kigali", "location": "Nyarugenge", "tel": "No phone number"}, {"name": "Peace and Grace Motel", "location": "Nyarugenge", "tel": "No phone number"}, {"name": "Heaven Restaurant & Boutique Hotel", "location": "Nyarugenge", "tel": "No phone number"}, {"name": "La Posh Hotel", "location": "Nyarugenge", "tel": "No phone number"}, {"name": "Kigali Serena Hotel", "location": "Nyarugenge", "tel": "No phone number"}, {"name": "Heaven Boutique Hotel Villa", "location": "Nyarugenge", "tel": "No phone number"}, {"name": "Inside Afrika Hotel", "location": "Nyarugenge", "tel": "No phone number"}, {"name": "5 Swiss Hotel", "location": "Nyarugenge", "tel": "No phone number"}, {"name": "Ubumwe Grande Hotel", "location": "Nyarugenge", "tel": "No phone number"}, {"name": "Hotel Gloria", "location": "Nyarugenge", "tel": "No phone number"}, {"name": "2000 Hotel", "location": "Nyarugenge", "tel": "No phone number"}, {"name": "Hill View Hotel", "location": "Nyarugenge", "tel": "No phone number"}, {"name": "Onomo Hotel", "location": "Nyarugenge", "tel": "No phone number"}]