[{"name": "Beach Garden BnB", "location": "Rubavu", "tel": "0785612169"}, {"name": "Discover Rwanda Gisenyi Beach", "location": "Rubavu", "tel": "No phone number"}, {"name": "Kivu Peace View Hotel", "location": "Rubavu", "tel": "No phone number"}, {"name": "Inzu Lodge", "location": "Rubavu", "tel": "No phone number"}, {"name": "Lake Kivu Serena Hotel", "location": "Rubavu", "tel": "No phone number"}, {"name": "The Palm Beach Resort", "location": "Rubavu", "tel": "No phone number"}, {"name": "Paradis Malahide", "location": "Rubavu", "tel": "No phone number"}, {"name": "Family Nest Kivu", "location": "Rubavu", "tel": "No phone number"}, {"name": "Fanad Hotel Gisenyi", "location": "Rubavu", "tel": "No phone number"}, {"name": "Kivu Peace View Hotel", "location": "Rubavu", "tel": "No phone number"}, {"name": "Kivu Paradis Resort", "location": "Rubavu", "tel": "No phone number"}, {"name": "Palm Garden Resort", "location": "Rubavu", "tel": "No phone number"}, {"name": "Musanto Hotel", "location": "Rubavu", "tel": "No phone number"}, {"name": "Nirvana Heights Hotel & Spa", "location": "Rubavu", "tel": "No phone number"}, {"name": "Gorillas Lake Kivu Hotel", "location": "Rubavu", "tel": "No phone number"}, {"name": "Ubumwe Hotel", "location": "Rubavu", "tel": "No phone number"}, {"name": "CAP TUNEKO", "location": "Rubavu", "tel": "No phone number"}, {"name": "Asante Hotel Gisenyi", "location": "Rubavu", "tel": "No phone number"}, {"name": "Le Paradis", "location": "Rubavu", "tel": "No phone number"}, {"name": "Hill View Hotel", "location": "Rubavu", "tel": "No phone number"}, {"name": "Hotel Linda", "location": "Rubavu", "tel": "No phone number"}, {"name": "Kivu Paradis Ltd", "location": "Rubavu", "tel": "No phone number"}, {"name": "The Palm Beach Resort Lake Kivu", "location": "Rubavu", "tel": "No phone number"}, {"name": "Nirvana Heights Resort and Spa", "location": "Rubavu", "tel": "No phone number"}, {"name": "Centre d'Accueil Isidore Bakanja", "location": "Rubavu", "tel": "No phone number"}, {"name": "Stipp Hotel Gisenyi", "location": "Rubavu", "tel": "No phone number"}, {"name": "Sawa Sawa Gisenyi", "location": "Rubavu", "tel": "No phone number"}, {"name": "Hakuna Matata2 lodge", "location": "Rubavu", "tel": "No phone number"}, {"name": "Hotel JERRYSON", "location": "Rubavu", "tel": "No phone number"}, {"name": "Hotel VIP", "location": "Rubavu", "tel": "No phone number"}, {"name": "Motel La Corniche", "location": "Rubavu", "tel": "No phone number"}, {"name": "Cafe De Rome", "location": "Rubavu", "tel": "No phone number"}, {"name": "Goma, CENTRE D'ACCUEIL CARITAS", "location": "Rubavu", "tel": "No phone number"}, {"name": "Belvedere Hotel", "location": "Rubavu", "tel": "No phone number"}, {"name": "Diana Fossey Nyiramacibiri Hotel", "location": "Rubavu", "tel": "No phone number"}, {"name": "Hakuna Matata", "location": "Rubavu", "tel": "No phone number"}, {"name": "Waterfront Resort Lake Kivu", "location": "Rubavu", "tel": "No phone number"}, {"name": "Lasharte Geust House", "location": "Rubavu", "tel": "No phone number"}, {"name": "Happy Garden Motel", "location": "Rubavu", "tel": "No phone number"}, {"name": "Le Mercure Guesthouse", "location": "Rubavu", "tel": "No phone number"}, {"name": "Kivu Park Hotel", "location": "Rubavu", "tel": "No phone number"}, {"name": "Lac Kivu Lodge", "location": "Rubavu", "tel": "No phone number"}, {"name": "La Liberta Rubavu", "location": "Rubavu", "tel": "No phone number"}, {"name": "Kunda Village Guest House", "location": "Rubavu", "tel": "No phone number"}, {"name": "MBIZA", "location": "Rubavu", "tel": "No phone number"}, {"name": "La Bella", "location": "Rubavu", "tel": "No phone number"}, {"name": "Mostej Hotel", "location": "Rubavu", "tel": "No phone number"}, {"name": "Blessington Motel Ltd", "location": "Rubavu", "tel": "No phone number"}, {"name": "Palm garden Resort", "location": "Rubavu", "tel": "No phone number"}, {"name": "Nganda Zela Ngai Guest House", "location": "Rubavu", "tel": "No phone number"}, {"name": "Impala Amacumbi Lodge", "location": "Rubavu", "tel": "No phone number"}, {"name": "Ihusi Hotel", "location": "Rubavu", "tel": "No phone number"}, {"name": "Dian Fossey", "location": "Rubavu", "tel": "No phone number"}, {"name": "MUHABURA MOUNTAIN LODGE", "location": "Rubavu", "tel": "No phone number"}, {"name": "MUHABURA MOUNTAIN LODGE", "location": "Rubavu", "tel": "No phone number"}, {"name": "Elevate Suites Hotel Gisenyi", "location": "Rubavu", "tel": "No phone number"}, {"name": "Honest Inn", "location": "Rubavu", "tel": "No phone number"}, {"name": "Hotel Italiano AL Lago", "location": "Rubavu", "tel": "No phone number"}, {"name": "Mostej Hotel Ltd", "location": "Rubavu", "tel": "No phone number"}, {"name": "Western Mountain Hotel", "location": "Rubavu", "tel": "No phone number"}, {"name": "H\u00f4tel Cap Kivu", "location": "Rubavu", "tel": "No phone number"}, {"name": "Arundinaria Guest House", "location": "Rubavu", "tel": "No phone number"}, {"name": "Hotel La Brisse", "location": "Rubavu", "tel": "No phone number"}, {"name": "Hotel Des Grands Lacs", "location": "Rubavu", "tel": "No phone number"}, {"name": "Sam Motel", "location": "Rubavu", "tel": "No phone number"}, {"name": "Centre d'accueil Caritas", "location": "Rubavu", "tel": "No phone number"}, {"name": "Hotel la Versailles Goma", "location": "Rubavu", "tel": "No phone number"}, {"name": "Ten To Ten Guest House", "location": "Rubavu", "tel": "No phone number"}, {"name": "Hotel Cirezi", "location": "Rubavu", "tel": "No phone number"}, {"name": "Ishango guest house", "location": "Rubavu", "tel": "No phone number"}, {"name": "Hotel La Benediction", "location": "Rubavu", "tel": "No phone number"}, {"name": "La Joie Plazza Hotel", "location": "Rubavu", "tel": "No phone number"}, {"name": "Planette Motel", "location": "Rubavu", "tel": "No phone number"}, {"name": "Hotel aux 2 paysages", "location": "Rubavu", "tel": "No phone number"}, {"name": "CENTRE D'ACCUEIL SAINT FRANCOIS XAVIER", "location": "Rubavu", "tel": "No phone number"}, {"name": "RUSINA APARTMENT", "location": "Rubavu", "tel": "No phone number"}, {"name": "Hotel Bassin du Congo", "location": "Rubavu", "tel": "No phone number"}, {"name": "Motel Mont Kirerema 2", "location": "Rubavu", "tel": "No phone number"}, {"name": "Ubumwe Hotel", "location": "Rubavu", "tel": "No phone number"}, {"name": "Eden Garden Motel", "location": "Rubavu", "tel": "No phone number"}, {"name": "Maji Matulivu", "location": "Rubavu", "tel": "No phone number"}, {"name": "Bungwe Guest House", "location": "Rubavu", "tel": "No phone number"}, {"name": "Restaurant And Guest Rooms", "location": "Rubavu", "tel": "No phone number"}, {"name": "H\u00f4tel Flamingo Grill-Lounge", "location": "Rubavu", "tel": "No phone number"}, {"name": "Planet Hotel", "location": "Rubavu", "tel": "No phone number"}, {"name": "Tchegera Island", "location": "Rubavu", "tel": "No phone number"}, {"name": "Bethanie Hotel", "location": "Rubavu", "tel": "No phone number"}, {"name": "Guest House La Serenite", "location": "Rubavu", "tel": "No phone number"}, {"name": "Volcano Gate Motel", "location": "Rubavu", "tel": "No phone number"}, {"name": "Best Choice Lodge", "location": "Rubavu", "tel": "No phone number"}, {"name": "Shadow House Peace Guest House", "location": "Rubavu", "tel": "No phone number"}, {"name": "Chaamban Hotel", "location": "Rubavu", "tel": "No phone number"}]