[{"name": "Eden Palace Hotel", "location": "Ruhango", "tel": "No phone number"}, {"name": "Umuco Hotel", "location": "Ruhango", "tel": "No phone number"}, {"name": "Jangwe Lodge", "location": "Ruhango", "tel": "No phone number"}, {"name": "Splendid Hotel", "location": "Ruhango", "tel": "No phone number"}, {"name": "Nyanza Heritage Hotel", "location": "Ruhango", "tel": "No phone number"}, {"name": "Dayenu Hotel Nyanza", "location": "Ruhango", "tel": "No phone number"}, {"name": "Mater Dei Motel", "location": "Ruhango", "tel": "No phone number"}, {"name": "Hotel Saint-Andre Kabgayi", "location": "Ruhango", "tel": "No phone number"}, {"name": "Goodlife Lodge", "location": "Ruhango", "tel": "No phone number"}, {"name": "Azizi Life", "location": "Ruhango", "tel": "0785781146"}, {"name": "Muhanga in Cyakabiri Motel", "location": "Ruhango", "tel": "No phone number"}, {"name": "Ururabo Guest House", "location": "Ruhango", "tel": "No phone number"}, {"name": "New Life Motel", "location": "Ruhango", "tel": "No phone number"}, {"name": "Sifa Guest House", "location": "Ruhango", "tel": "No phone number"}, {"name": "Amatana Center Lodge", "location": "Ruhango", "tel": "No phone number"}, {"name": "Super Galactico Motel", "location": "Ruhango", "tel": "No phone number"}, {"name": "Dayenu Hotel", "location": "Ruhango", "tel": "No phone number"}, {"name": "Homeland Bar", "location": "Ruhango", "tel": "No phone number"}, {"name": "Quality Inn Motel", "location": "Ruhango", "tel": "No phone number"}, {"name": "Kinyange Gardens Hotel", "location": "Ruhango", "tel": "No phone number"}, {"name": "Rufradu Hotel 1", "location": "Ruhango", "tel": "No phone number"}]