[{"name": "Mijo Hostel", "location": "Rulindo", "tel": "No phone number"}, {"name": "The Kingfish Beach Hotel", "location": "Rulindo", "tel": "No phone number"}, {"name": "Gisa Stay 103", "location": "Rulindo", "tel": "No phone number"}, {"name": "Salama Village", "location": "Rulindo", "tel": "No phone number"}, {"name": "Rouge by Desir", "location": "Rulindo", "tel": "No phone number"}, {"name": "Kigali Art Gallery", "location": "Rulindo", "tel": "No phone number"}, {"name": "Serenity Park", "location": "Rulindo", "tel": "No phone number"}, {"name": "Quiet Haven Hotel", "location": "Rulindo", "tel": "No phone number"}, {"name": "Mythos Boutique Hotel", "location": "Rulindo", "tel": "No phone number"}, {"name": "Gisa Stay 101", "location": "Rulindo", "tel": "No phone number"}, {"name": "Hotel Gloria", "location": "Rulindo", "tel": "No phone number"}, {"name": "Kigali Marriott Hotel", "location": "Rulindo", "tel": "No phone number"}, {"name": "Honey In Honey Motel", "location": "Rulindo", "tel": "No phone number"}, {"name": "Peponi Living Spaces", "location": "Rulindo", "tel": "No phone number"}, {"name": "Dove Hotel Kigali", "location": "Rulindo", "tel": "No phone number"}, {"name": "The Manor Hotel", "location": "Rulindo", "tel": "No phone number"}, {"name": "Heaven Boutique Hotel Villa", "location": "Rulindo", "tel": "No phone number"}, {"name": "H\u00f4tel des Mille Collines", "location": "Rulindo", "tel": "No phone number"}, {"name": "Ubumwe Grande Hotel", "location": "Rulindo", "tel": "No phone number"}, {"name": "Select", "location": "Rulindo", "tel": "No phone number"}, {"name": "Colours Club Spa", "location": "Rulindo", "tel": "0788521369"}, {"name": "Villa Belle Vue", "location": "Rulindo", "tel": "No phone number"}, {"name": "Kigali Castle", "location": "Rulindo", "tel": "No phone number"}, {"name": "Hill View Hotel", "location": "Rulindo", "tel": "No phone number"}, {"name": "Hotel Villa Portofino Kigali", "location": "Rulindo", "tel": "No phone number"}, {"name": "Lebanon Hotel Kigali", "location": "Rulindo", "tel": "No phone number"}, {"name": "Urban by CityBlue", "location": "Rulindo", "tel": "No phone number"}, {"name": "Landmark Suites Rwanda", "location": "Rulindo", "tel": "No phone number"}, {"name": "Urumuli Hotel", "location": "Rulindo", "tel": "No phone number"}, {"name": "New Impala Hotel", "location": "Rulindo", "tel": "No phone number"}, {"name": "Kanyinya Hills Hotel", "location": "Rulindo", "tel": "No phone number"}, {"name": "Kereth Living Space", "location": "Rulindo", "tel": "No phone number"}, {"name": "Kwetu Residence Inn", "location": "Rulindo", "tel": "No phone number"}, {"name": "5 Swiss Hotel", "location": "Rulindo", "tel": "No phone number"}, {"name": "Inside Afrika Hotel", "location": "Rulindo", "tel": "No phone number"}, {"name": "Park Inn by Radisson, Kigali", "location": "Rulindo", "tel": "No phone number"}, {"name": "Perle Boutique Hotel", "location": "Rulindo", "tel": "No phone number"}, {"name": "Silver Motel", "location": "Rulindo", "tel": "No phone number"}, {"name": "2000 Hotel", "location": "Rulindo", "tel": "No phone number"}, {"name": "Iwawe Hotel", "location": "Rulindo", "tel": "No phone number"}, {"name": "Cozy Safari", "location": "Rulindo", "tel": "No phone number"}, {"name": "Dmall Hotel", "location": "Rulindo", "tel": "No phone number"}, {"name": "Heaven Restaurant & Boutique Hotel", "location": "Rulindo", "tel": "No phone number"}, {"name": "Flame Tree Village", "location": "Rulindo", "tel": "No phone number"}, {"name": "Park View Courts", "location": "Rulindo", "tel": "No phone number"}, {"name": "Khana Khazana Boutique Hotel", "location": "Rulindo", "tel": "No phone number"}, {"name": "Murugo Rwanda Hostel", "location": "Rulindo", "tel": "No phone number"}, {"name": "World House Gisozi Hotel", "location": "Rulindo", "tel": "No phone number"}, {"name": "Mountain View Apartment", "location": "Rulindo", "tel": "No phone number"}, {"name": "Step Town Motel", "location": "Rulindo", "tel": "No phone number"}, {"name": "Radisson Blu Hotel & Convention Centre, Kigali", "location": "Rulindo", "tel": "No phone number"}, {"name": "Gaju House", "location": "Rulindo", "tel": "No phone number"}, {"name": "ViaVia Kigali", "location": "Rulindo", "tel": "No phone number"}, {"name": "Gorillas Golf Hotel", "location": "Rulindo", "tel": "No phone number"}, {"name": "AROMAS MOTEL", "location": "Rulindo", "tel": "No phone number"}, {"name": "Colours Club", "location": "Rulindo", "tel": "No phone number"}, {"name": "HILL CREST HOTEL", "location": "Rulindo", "tel": "No phone number"}, {"name": "Onomo Hotel", "location": "Rulindo", "tel": "No phone number"}, {"name": "Ezra Boutique Hotel", "location": "Rulindo", "tel": "No phone number"}, {"name": "Peace and Grace Motel", "location": "Rulindo", "tel": "No phone number"}, {"name": "The Court Boutique Hotel", "location": "Rulindo", "tel": "No phone number"}, {"name": "Hotel Okapi", "location": "Rulindo", "tel": "No phone number"}, {"name": "The Country Inn Hotel", "location": "Rulindo", "tel": "No phone number"}, {"name": "The Hut Restaurant & Boutique Hotel", "location": "Rulindo", "tel": "No phone number"}, {"name": "La Posh Hotel", "location": "Rulindo", "tel": "No phone number"}, {"name": "Scheba Hotel", "location": "Rulindo", "tel": "No phone number"}, {"name": "Rubangura Luxury Apartments", "location": "Rulindo", "tel": "No phone number"}, {"name": "Karisimbi Hotel", "location": "Rulindo", "tel": "No phone number"}, {"name": "Olympic Hotel", "location": "Rulindo", "tel": "No phone number"}, {"name": "Garr Hotel", "location": "Rulindo", "tel": "No phone number"}, {"name": "Five To Five Hotel", "location": "Rulindo", "tel": "No phone number"}, {"name": "The Nest Guesthouse", "location": "Rulindo", "tel": "No phone number"}, {"name": "Lemigo Hotel", "location": "Rulindo", "tel": "No phone number"}, {"name": "Great Seasons Hotel", "location": "Rulindo", "tel": "No phone number"}, {"name": "Kigali Serena Hotel", "location": "Rulindo", "tel": "No phone number"}, {"name": "Golf Eden Guest House", "location": "Rulindo", "tel": "No phone number"}, {"name": "Iwacu Guesthouse", "location": "Rulindo", "tel": "No phone number"}, {"name": "Greedy Five", "location": "Rulindo", "tel": "No phone number"}, {"name": "Heaven Boutique Hotel Garden Chalet", "location": "Rulindo", "tel": "No phone number"}, {"name": "Amata n'Ubuki Boutique Hotel & Restaurant", "location": "Rulindo", "tel": "No phone number"}, {"name": "Radius Guest Flats", "location": "Rulindo", "tel": "No phone number"}, {"name": "Park Inn by Radisson Kigali", "location": "Rulindo", "tel": "No phone number"}, {"name": "Greek Taverna at Hotel Hellenic", "location": "Rulindo", "tel": "No phone number"}, {"name": "Pili Pili", "location": "Rulindo", "tel": "No phone number"}, {"name": "Medi Motel", "location": "Rulindo", "tel": "No phone number"}, {"name": "Champion Hotel", "location": "Rulindo", "tel": "No phone number"}, {"name": "City Valley Motel", "location": "Rulindo", "tel": "No phone number"}, {"name": "Cari Hotel", "location": "Rulindo", "tel": "No phone number"}, {"name": "Azalea Guest House Gisozi", "location": "Rulindo", "tel": "No phone number"}, {"name": "Bethany Investment Group EPR Hostel", "location": "Rulindo", "tel": "No phone number"}, {"name": "Kereth Design Guest House", "location": "Rulindo", "tel": "No phone number"}, {"name": "Grazia Apartments", "location": "Rulindo", "tel": "No phone number"}, {"name": "Discover Rwanda Youth Hostel", "location": "Rulindo", "tel": "No phone number"}, {"name": "Umusambi B&B", "location": "Rulindo", "tel": "No phone number"}, {"name": "Vincenzo Homestay", "location": "Rulindo", "tel": "No phone number"}, {"name": "Remera Modern Guesthouse", "location": "Rulindo", "tel": "No phone number"}, {"name": "Victoria Blue Hotels and Apartments", "location": "Rulindo", "tel": "No phone number"}, {"name": "Mubwiza Courts", "location": "Rulindo", "tel": "No phone number"}, {"name": "DV Appart Hotel", "location": "Rulindo", "tel": "No phone number"}, {"name": "H\u00f4tel Le Garni", "location": "Rulindo", "tel": "No phone number"}, {"name": "RUJO ROOMS", "location": "Rulindo", "tel": "No phone number"}, {"name": "LION MOTEL", "location": "Rulindo", "tel": "No phone number"}, {"name": "KINGSMEN SUITES", "location": "Rulindo", "tel": "No phone number"}, {"name": "Legend Hotel", "location": "Rulindo", "tel": "No phone number"}, {"name": "Auberge St Jean Leopold", "location": "Rulindo", "tel": "No phone number"}, {"name": "Amaris Hotel", "location": "Rulindo", "tel": "No phone number"}, {"name": "KIM Hotel", "location": "Rulindo", "tel": "No phone number"}, {"name": "Sinai Suites Hotel and Apartments", "location": "Rulindo", "tel": "No phone number"}, {"name": "Rohi Apartments Hotel", "location": "Rulindo", "tel": "0788306040"}, {"name": "Iris Guesthouse", "location": "Rulindo", "tel": "No phone number"}, {"name": "The Retreat", "location": "Rulindo", "tel": "No phone number"}, {"name": "Kings Hospitality Centre", "location": "Rulindo", "tel": "No phone number"}, {"name": "Isimbi House", "location": "Rulindo", "tel": "No phone number"}, {"name": "AMIGO APARTMENT", "location": "Rulindo", "tel": "No phone number"}, {"name": "Kimenyi Home", "location": "Rulindo", "tel": "No phone number"}, {"name": "Mama Rwanda Hostel", "location": "Rulindo", "tel": "No phone number"}, {"name": "Zebra Tourism Hotel", "location": "Rulindo", "tel": "No phone number"}, {"name": "Kami Executive Apartments", "location": "Rulindo", "tel": "No phone number"}, {"name": "B.Maurice Guest House", "location": "Rulindo", "tel": "No phone number"}, {"name": "Klala Suites", "location": "Rulindo", "tel": "No phone number"}, {"name": "Park View Hotel", "location": "Rulindo", "tel": "No phone number"}, {"name": "INZOZI AFRICA HOUSE", "location": "Rulindo", "tel": "No phone number"}, {"name": "BELIZE MOTEL", "location": "Rulindo", "tel": "No phone number"}, {"name": "Tinho Guest House", "location": "Rulindo", "tel": "No phone number"}, {"name": "PALAZZO MOTEL @ KIGALI/KIMIRONKO", "location": "Rulindo", "tel": "No phone number"}, {"name": "Kami Executive Apartments", "location": "Rulindo", "tel": "No phone number"}, {"name": "Price Guest House", "location": "Rulindo", "tel": "No phone number"}, {"name": "Roots Inn", "location": "Rulindo", "tel": "No phone number"}, {"name": "Nicksters Home Inn", "location": "Rulindo", "tel": "No phone number"}, {"name": "Kigali Diplomat Hotel", "location": "Rulindo", "tel": "No phone number"}, {"name": "IGITEGO HOTEL", "location": "Rulindo", "tel": "No phone number"}, {"name": "Delhi Darbar Indian Restaurant & Villa", "location": "Rulindo", "tel": "No phone number"}, {"name": "Kings Hostel", "location": "Rulindo", "tel": "No phone number"}, {"name": "Beaus\u00e9jour Hotel", "location": "Rulindo", "tel": "No phone number"}, {"name": "Galaxy Hotel", "location": "Rulindo", "tel": "No phone number"}, {"name": "The Nest", "location": "Rulindo", "tel": "No phone number"}, {"name": "Tea House B&B", "location": "Rulindo", "tel": "No phone number"}, {"name": "Kimironko Sinai Suites", "location": "Rulindo", "tel": "No phone number"}, {"name": "Highlands Suites Hotel", "location": "Rulindo", "tel": "No phone number"}, {"name": "Olympic Hotel Kigali", "location": "Rulindo", "tel": "No phone number"}, {"name": "Zenith Hotel Kigali", "location": "Rulindo", "tel": "No phone number"}, {"name": "Happy Home and Dine", "location": "Rulindo", "tel": "No phone number"}, {"name": "Zebra Boutique Hotel", "location": "Rulindo", "tel": "No phone number"}, {"name": "Kiberinka Cultural Centre", "location": "Rulindo", "tel": "No phone number"}, {"name": "Hotel Gorillas Kigali City Centre", "location": "Rulindo", "tel": "No phone number"}, {"name": "INGANZI APARTMENTS", "location": "Rulindo", "tel": "No phone number"}, {"name": "Harvest Hills", "location": "Rulindo", "tel": "No phone number"}, {"name": "Nobilis Apartments", "location": "Rulindo", "tel": "No phone number"}, {"name": "Madison Hills Hotel", "location": "Rulindo", "tel": "No phone number"}, {"name": "Radius Guest Flats", "location": "Rulindo", "tel": "No phone number"}, {"name": "Hotel Sienna", "location": "Rulindo", "tel": "No phone number"}, {"name": "Root House", "location": "Rulindo", "tel": "No phone number"}, {"name": "KENT Residence", "location": "Rulindo", "tel": "No phone number"}, {"name": "Relax Resort", "location": "Rulindo", "tel": "No phone number"}, {"name": "Orient Park Hotel", "location": "Rulindo", "tel": "No phone number"}, {"name": "Next-Gen Boutique Hotel", "location": "Rulindo", "tel": "No phone number"}, {"name": "Le Printemps", "location": "Rulindo", "tel": "No phone number"}, {"name": "Mattina Motel", "location": "Rulindo", "tel": "No phone number"}, {"name": "Bougainvilla Boutique Hotel", "location": "Rulindo", "tel": "No phone number"}, {"name": "The Memory Makers Hospitality Service", "location": "Rulindo", "tel": "No phone number"}, {"name": "Auberge La Caverne", "location": "Rulindo", "tel": "No phone number"}, {"name": "Makutano Club and Resorts", "location": "Rulindo", "tel": "0780112228"}, {"name": "Accord Hotel", "location": "Rulindo", "tel": "No phone number"}, {"name": "Arcadia Motel", "location": "Rulindo", "tel": "No phone number"}, {"name": "The Hut", "location": "Rulindo", "tel": "No phone number"}, {"name": "Bloom Back Hotel", "location": "Rulindo", "tel": "No phone number"}, {"name": "Dream House - Kigali", "location": "Rulindo", "tel": "No phone number"}, {"name": "Kigali Guestlux Hotel", "location": "Rulindo", "tel": "No phone number"}, {"name": "Andalusia Hotel Rwanda", "location": "Rulindo", "tel": "No phone number"}, {"name": "Dehli Darbar Hotel & Restaurant", "location": "Rulindo", "tel": "No phone number"}, {"name": "Golf Hills Residence", "location": "Rulindo", "tel": "No phone number"}, {"name": "Hope Apartment", "location": "Rulindo", "tel": "No phone number"}, {"name": "Zenith Hotel", "location": "Rulindo", "tel": "No phone number"}, {"name": "2000 Hotel", "location": "Rulindo", "tel": "No phone number"}, {"name": "Home2Home B&B", "location": "Rulindo", "tel": "No phone number"}, {"name": "Parkview Hotel", "location": "Rulindo", "tel": "No phone number"}, {"name": "La Palisse Hotel, Kigali", "location": "Rulindo", "tel": "No phone number"}, {"name": "Gloria Hotel", "location": "Rulindo", "tel": "No phone number"}, {"name": "Palma Village Apart Hotel", "location": "Rulindo", "tel": "No phone number"}, {"name": "Humble Guest House", "location": "Rulindo", "tel": "No phone number"}, {"name": "Olympic Hotel", "location": "Rulindo", "tel": "No phone number"}, {"name": "Dmall Hotel", "location": "Rulindo", "tel": "No phone number"}, {"name": "Cari Hotel", "location": "Rulindo", "tel": "No phone number"}, {"name": "Pure Africa Cafe", "location": "Rulindo", "tel": "No phone number"}, {"name": "Hotel Isimbi", "location": "Rulindo", "tel": "No phone number"}, {"name": "Marasa Umubano Hotel", "location": "Rulindo", "tel": "No phone number"}, {"name": "Kigaliview Hotel and Apartments", "location": "Rulindo", "tel": "No phone number"}, {"name": "Kigali Holiday Hotel", "location": "Rulindo", "tel": "No phone number"}, {"name": "East African Villas Guest House", "location": "Rulindo", "tel": "No phone number"}, {"name": "Kigali Homestay", "location": "Rulindo", "tel": "0788501416"}, {"name": "Resident Hotel", "location": "Rulindo", "tel": "No phone number"}, {"name": "Star Hotel", "location": "Rulindo", "tel": "No phone number"}, {"name": "Ava House", "location": "Rulindo", "tel": "No phone number"}, {"name": "Freedom Hotel", "location": "Rulindo", "tel": "No phone number"}, {"name": "Infinity Hotel", "location": "Rulindo", "tel": "No phone number"}, {"name": "Kent Residence", "location": "Rulindo", "tel": "No phone number"}, {"name": "Victoria Blue Hotels and apartments(Hotel)", "location": "Rulindo", "tel": "No phone number"}, {"name": "Cameo Guest House", "location": "Rulindo", "tel": "No phone number"}, {"name": "Sainte Famille Hotel", "location": "Rulindo", "tel": "No phone number"}, {"name": "St Barnabas CAC", "location": "Rulindo", "tel": "No phone number"}, {"name": "Tavola Guest", "location": "Rulindo", "tel": "No phone number"}, {"name": "Ambiance Accommodation", "location": "Rulindo", "tel": "No phone number"}, {"name": "Jambo Guest House", "location": "Rulindo", "tel": "No phone number"}, {"name": "DoubleTree by Hilton Kigali City Centre", "location": "Rulindo", "tel": "No phone number"}, {"name": "HELLO HOME", "location": "Rulindo", "tel": "No phone number"}, {"name": "Kigali Havens", "location": "Rulindo", "tel": "No phone number"}, {"name": "Smart Inn Hotel", "location": "Rulindo", "tel": "No phone number"}, {"name": "Golf Eden Guest House", "location": "Rulindo", "tel": "No phone number"}, {"name": "Elevate Suites", "location": "Rulindo", "tel": "No phone number"}, {"name": "Courtesy Residence Apartment", "location": "Rulindo", "tel": "No phone number"}, {"name": "Champion Hotel", "location": "Rulindo", "tel": "No phone number"}, {"name": "Select Boutique Hotel", "location": "Rulindo", "tel": "No phone number"}, {"name": "Dream Guest House", "location": "Rulindo", "tel": "No phone number"}, {"name": "Scola Hotel and Apartment", "location": "Rulindo", "tel": "No phone number"}, {"name": "East African Villas Guest House", "location": "Rulindo", "tel": "No phone number"}, {"name": "Fat Mama's", "location": "Rulindo", "tel": "No phone number"}, {"name": "Ecoair Apartment Hotel", "location": "Rulindo", "tel": "No phone number"}, {"name": "Prince Guest House", "location": "Rulindo", "tel": "No phone number"}, {"name": "Kigali Labelle", "location": "Rulindo", "tel": "No phone number"}, {"name": "Cari Apartment", "location": "Rulindo", "tel": "No phone number"}, {"name": "Le Printemps Hotel Limited", "location": "Rulindo", "tel": "No phone number"}, {"name": "Green Apartments", "location": "Rulindo", "tel": "No phone number"}, {"name": "Glory Motel", "location": "Rulindo", "tel": "No phone number"}, {"name": "Vision Motel", "location": "Rulindo", "tel": "No phone number"}, {"name": "The Travellers Guest House", "location": "Rulindo", "tel": "No phone number"}, {"name": "Town View Guest House", "location": "Rulindo", "tel": "No phone number"}, {"name": "Airport Hill Guest House", "location": "Rulindo", "tel": "No phone number"}, {"name": "Plata Guesthouse", "location": "Rulindo", "tel": "No phone number"}, {"name": "Galaxy Hotel", "location": "Rulindo", "tel": "No phone number"}, {"name": "utalii best corner", "location": "Rulindo", "tel": "No phone number"}, {"name": "Infinity Hotel", "location": "Rulindo", "tel": "No phone number"}, {"name": "Mountain Gorilla View", "location": "Rulindo", "tel": "No phone number"}, {"name": "Blend Guesthouse", "location": "Rulindo", "tel": "No phone number"}, {"name": "Petit Bassam Hotel", "location": "Rulindo", "tel": "No phone number"}, {"name": "Dmall Supermarket", "location": "Rulindo", "tel": "No phone number"}, {"name": "Nice Corner Guest House", "location": "Rulindo", "tel": "No phone number"}, {"name": "Splendid Karisimbi", "location": "Rulindo", "tel": "No phone number"}]