[{"name": "Kitabi Eco-Center", "location": "Rusizi", "tel": "0787260016"}, {"name": "Emeraude Kivu Resort", "location": "Rusizi", "tel": "No phone number"}, {"name": "Peace Guest House", "location": "Rusizi", "tel": "No phone number"}, {"name": "H\u00f4tel Elila", "location": "Rusizi", "tel": "No phone number"}, {"name": "H\u00f4tel Rivi\u00e8re Ruzizi", "location": "Rusizi", "tel": "No phone number"}, {"name": "Nyungwe Nziza Ecolodge", "location": "Rusizi", "tel": "0784733417"}, {"name": "Airport Breeze Motel", "location": "Rusizi", "tel": "No phone number"}, {"name": "La Petite Isimbi", "location": "Rusizi", "tel": "No phone number"}, {"name": "Umucyo Lodge", "location": "Rusizi", "tel": "No phone number"}, {"name": "New Hope", "location": "Rusizi", "tel": "No phone number"}, {"name": "Orchids' Safari Club Hotel Restaurant", "location": "Rusizi", "tel": "No phone number"}, {"name": "KHeheda Hotel", "location": "Rusizi", "tel": "No phone number"}, {"name": "Nyungwe Top View Hill Hotel", "location": "Rusizi", "tel": "No phone number"}, {"name": "Heirdorm Hotel", "location": "Rusizi", "tel": "No phone number"}, {"name": "Rubavu Motel", "location": "Rusizi", "tel": "No phone number"}, {"name": "Munini Hill Motel", "location": "Rusizi", "tel": "No phone number"}, {"name": "Motel Gloria", "location": "Rusizi", "tel": "No phone number"}, {"name": "Gisakura Family Hostel", "location": "Rusizi", "tel": "No phone number"}, {"name": "Elizabeth Hotel Bukavu", "location": "Rusizi", "tel": "No phone number"}, {"name": "Horizon Hotel", "location": "Rusizi", "tel": "No phone number"}, {"name": "Kivu Sight Ltd", "location": "Rusizi", "tel": "No phone number"}, {"name": "Lodge Coco", "location": "Rusizi", "tel": "No phone number"}, {"name": "Rubava Motel", "location": "Rusizi", "tel": "No phone number"}, {"name": "Hotel Begonias", "location": "Rusizi", "tel": "No phone number"}, {"name": "Eden H\u00f4tel", "location": "Rusizi", "tel": "No phone number"}]