[{"name": "Macheo \u00c9colodge-camping", "location": "Rutsiro", "tel": "No phone number"}, {"name": "Diana Fossey Rutsiro", "location": "Rutsiro", "tel": "No phone number"}, {"name": "Moriah Hill Resort", "location": "Rutsiro", "tel": "No phone number"}, {"name": "Rwiza Village.", "location": "Rutsiro", "tel": "No phone number"}, {"name": "Home Saint Jean", "location": "Rutsiro", "tel": "No phone number"}, {"name": "Rebero Kivu Resort", "location": "Rutsiro", "tel": "0785821511"}, {"name": "Kivu Lodge", "location": "Rutsiro", "tel": "No phone number"}, {"name": "Rushel Kivu Lodge", "location": "Rutsiro", "tel": "No phone number"}, {"name": "Cormoran Lodge", "location": "Rutsiro", "tel": "No phone number"}, {"name": "Karongi Lake View Retreat", "location": "Rutsiro", "tel": "No phone number"}, {"name": "Delta Resort Hotel", "location": "Rutsiro", "tel": "No phone number"}, {"name": "Romantic Hotel", "location": "Rutsiro", "tel": "No phone number"}, {"name": "Centre Bethel", "location": "Rutsiro", "tel": "No phone number"}, {"name": "La Roche House", "location": "Rutsiro", "tel": "No phone number"}, {"name": "Spa Shallum", "location": "Rutsiro", "tel": "0789071756"}, {"name": "Bethany Hotel A", "location": "Rutsiro", "tel": "No phone number"}, {"name": "Golf Eden Rock Hotel/MUGAMBIRA Aphrodis /Karongi", "location": "Rutsiro", "tel": "No phone number"}, {"name": "Best western echo hotel", "location": "Rutsiro", "tel": "No phone number"}, {"name": "Mulberry Guest house", "location": "Rutsiro", "tel": "No phone number"}, {"name": "New Umunyinya House", "location": "Rutsiro", "tel": "No phone number"}, {"name": "Holiday Hotel", "location": "Rutsiro", "tel": "No phone number"}, {"name": "Nyenyeli Holiday Hotel", "location": "Rutsiro", "tel": "No phone number"}]