[{"name": "Dereva Hotel", "location": "Rwamagana", "tel": "No phone number"}, {"name": "Colours Club Spa & Village Resort", "location": "Rwamagana", "tel": "No phone number"}, {"name": "Destella Guest House Kayonza", "location": "Rwamagana", "tel": "No phone number"}, {"name": "Muhazi Beach Hotel", "location": "Rwamagana", "tel": "No phone number"}, {"name": "Centre Pastoral St. Augustin", "location": "Rwamagana", "tel": "No phone number"}, {"name": "Vintage Cottage", "location": "Rwamagana", "tel": "No phone number"}, {"name": "Motel Ikambere", "location": "Rwamagana", "tel": "No phone number"}, {"name": "Nyagasambu Realm Beach Hotel", "location": "Rwamagana", "tel": "No phone number"}, {"name": "Avega East Hostel", "location": "Rwamagana", "tel": "0788347018"}, {"name": "Elegancia Hotel", "location": "Rwamagana", "tel": "No phone number"}, {"name": "La Palisse Gashora", "location": "Rwamagana", "tel": "No phone number"}, {"name": "Eastern Country Hotel", "location": "Rwamagana", "tel": "No phone number"}, {"name": "Seed of Peace Center", "location": "Rwamagana", "tel": "No phone number"}, {"name": "Silent Hill Motel", "location": "Rwamagana", "tel": "No phone number"}, {"name": "Eastland Hotel", "location": "Rwamagana", "tel": "No phone number"}, {"name": "Seed of Peace Center", "location": "Rwamagana", "tel": "No phone number"}]