[
  {
    "name": "Benefactor David Clinic",
    "location": "Bugesera",
    "tel": "0787883570"
  },
  {
    "name": "BWIZA CLINIC AND DIAGNOSTIC CENTER LTD",
    "location": "Bugesera",
    "tel": "0780681459"
  },
  {
    "name": "Shema Clinic",
    "location": "Bugesera",
    "tel": "0788403594"
  },
  {
    "name": "CHK Clinic",
    "location": "Bugesera",
    "tel": "No phone number"
  },
  {
    "name": "Mariba Health Post",
    "location": "Burera",
    "tel": "No phone number"
  },
  {
    "name": "Gasiza Health Center",
    "location": "Burera",
    "tel": "No phone number"
  },
  {
    "name": "Cyabingo Health Center",
    "location": "Gakenke",
    "tel": "No phone number"
  },
  {
    "name": "Ruhinga Health Center",
    "location": "Gakenke",
    "tel": "No phone number"
  },
  {
    "name": "CHK Clinic",
    "location": "Gasabo",
    "tel": "No phone number"
  },
  {
    "name": "Polyclinique du Plateau",
    "location": "Gasabo",
    "tel": "0781293417"
  },
  {
    "name": "La Life Polyclinic ENT(ORL)",
    "location": "Gasabo",
    "tel": "0788520986"
  },
  {
    "name": "UR - Polyclinic",
    "location": "Gasabo",
    "tel": "0786689121"
  },
  {
    "name": "Rwanda Eye Clinic",
    "location": "Gasabo",
    "tel": "0783405711"
  },
  {
    "name": "Iranzi Clinic- Birth Centre",
    "location": "Gasabo",
    "tel": "0785022206"
  },
  {
    "name": "Imboni Ophthalmology Clinic of Dr Joseph Sebera",
    "location": "Gasabo",
    "tel": "0780257089"
  },
  {
    "name": "we actx",
    "location": "Gasabo",
    "tel": "0787334678"
  },
  {
    "name": "Doctors' Plaza Clinic",
    "location": "Gasabo",
    "tel": "0788609621"
  },
  {
    "name": "DK OPTICALS",
    "location": "Gasabo",
    "tel": "0789426659"
  },
  {
    "name": "TMC Technology Clinic",
    "location": "Gasabo",
    "tel": "No phone number"
  },
  {
    "name": "Le Bon Samaritain",
    "location": "Gasabo",
    "tel": "0788503434"
  },
  {
    "name": "Ivuriro Sante Clinic",
    "location": "Gasabo",
    "tel": "No phone number"
  },
  {
    "name": "Salem Clinic",
    "location": "Gasabo",
    "tel": "0781698861"
  },
  {
    "name": "Kagugu Medical Clinic",
    "location": "Gasabo",
    "tel": "No phone number"
  },
  {
    "name": "Clinique Solamer",
    "location": "Gasabo",
    "tel": "No phone number"
  },
  {
    "name": "Dr. Agarwal's Eye Hospital, Kigali",
    "location": "Gasabo",
    "tel": "0787303743"
  },
  {
    "name": "KIGALI MEDICAL CENTER ( KMC)",
    "location": "Gasabo",
    "tel": "0780864534"
  },
  {
    "name": "China Clinic",
    "location": "Gasabo",
    "tel": "No phone number"
  },
  {
    "name": "Viva Clinic RITCO",
    "location": "Gasabo",
    "tel": "No phone number"
  },
  {
    "name": "Harmony Clinic",
    "location": "Gasabo",
    "tel": "0788500497"
  },
  {
    "name": "Kigali Dialysis Center - Africa Healthcare Network",
    "location": "Gasabo",
    "tel": "0782637546"
  },
  {
    "name": "Ent (Orl) Clinic",
    "location": "Gasabo",
    "tel": "0787400577"
  },
  {
    "name": "Clinique Don de Dieu",
    "location": "Gasabo",
    "tel": "0788302839"
  },
  {
    "name": "BWIZA MEDICAL CLINIC AND DIAGNOSTIC CENTER LTD.",
    "location": "Gasabo",
    "tel": "0780681459"
  },
  {
    "name": "BWIZA CLINIC AND DIAGNOSTIC CENTER LTD",
    "location": "Gasabo",
    "tel": "0780681459"
  },
  {
    "name": "Shema Clinic",
    "location": "Gasabo",
    "tel": "0788403594"
  },
  {
    "name": "Ejo Heza Clinic",
    "location": "Gasabo",
    "tel": "0785845994"
  },
  {
    "name": "Dispensaire Amizero",
    "location": "Gasabo",
    "tel": "No phone number"
  },
  {
    "name": "Dispensaire Sanganirwa",
    "location": "Gasabo",
    "tel": "No phone number"
  },
  {
    "name": "Deva Medical Center",
    "location": "Gasabo",
    "tel": "No phone number"
  },
  {
    "name": "Le Sauveur Dispensary",
    "location": "Gasabo",
    "tel": "No phone number"
  },
  {
    "name": "Umwizerwa Medicare Centre",
    "location": "Gasabo",
    "tel": "0788760733"
  },
  {
    "name": "Nyarugenge Health Center",
    "location": "Gasabo",
    "tel": "No phone number"
  },
  {
    "name": "Ituze Clinic",
    "location": "Gasabo",
    "tel": "No phone number"
  },
  {
    "name": "Clinique Sainte Elisa",
    "location": "Gasabo",
    "tel": "0782172985"
  },
  {
    "name": "HOSPITAL -UBUZIMA POLYCLINIC",
    "location": "Gasabo",
    "tel": "No phone number"
  },
  {
    "name": "Clinic Ste Th\u00e9r\u00e8se",
    "location": "Gasabo",
    "tel": "No phone number"
  },
  {
    "name": "Pineda Dental Clinic",
    "location": "Gasabo",
    "tel": "0788564377"
  },
  {
    "name": "Traditional Chinese Medicine, TCM Technology",
    "location": "Gasabo",
    "tel": "No phone number"
  },
  {
    "name": "Polyclinique De L'Etoile",
    "location": "Gasabo",
    "tel": "No phone number"
  },
  {
    "name": "UN Clinic Rwanda",
    "location": "Gasabo",
    "tel": "No phone number"
  },
  {
    "name": "Caraes Neuropsychiatric Hospital Ndera",
    "location": "Gasabo",
    "tel": "0788827364"
  },
  {
    "name": "Cor Unum Healthcentre",
    "location": "Gasabo",
    "tel": "No phone number"
  },
  {
    "name": "RAPHA Medical Clinic",
    "location": "Gasabo",
    "tel": "0788679290"
  },
  {
    "name": "Kigali Adventist Medical Clinic",
    "location": "Gasabo",
    "tel": "No phone number"
  },
  {
    "name": "Rwanda Travel",
    "location": "Gasabo",
    "tel": "0788878762"
  },
  {
    "name": "Gitega Health Center",
    "location": "Gasabo",
    "tel": "No phone number"
  },
  {
    "name": "Icyizere Psychotherapeutic Center",
    "location": "Gasabo",
    "tel": "0783375550"
  },
  {
    "name": "Girimpuhwe Health Centre",
    "location": "Gasabo",
    "tel": "0788473523"
  },
  {
    "name": "Dispensaire INEZA Ivuriro",
    "location": "Gasabo",
    "tel": "No phone number"
  },
  {
    "name": "Asha Medical Services (Manipal Group of Hospitals)",
    "location": "Gasabo",
    "tel": "No phone number"
  },
  {
    "name": "IJABO Physiotherapy and Rehabilitation Clinics",
    "location": "Gasabo",
    "tel": "0787921473"
  },
  {
    "name": "Legacy Clinics",
    "location": "Gasabo",
    "tel": "0788382000"
  },
  {
    "name": "Dispensaire La Patience",
    "location": "Gasabo",
    "tel": "No phone number"
  },
  {
    "name": "Kigali Dermatology Center",
    "location": "Gasabo",
    "tel": "0782742943"
  },
  {
    "name": "Baho Medical Center",
    "location": "Gasabo",
    "tel": "No phone number"
  },
  {
    "name": "Medicus Humanus Clinic",
    "location": "Gasabo",
    "tel": "0788340264"
  },
  {
    "name": "Adventist Dental Clinic",
    "location": "Gasabo",
    "tel": "No phone number"
  },
  {
    "name": "Ma\u00efsha Optical Center",
    "location": "Gasabo",
    "tel": "No phone number"
  },
  {
    "name": "CBN",
    "location": "Gasabo",
    "tel": "No phone number"
  },
  {
    "name": "Clinique Don De Dieu",
    "location": "Gasabo",
    "tel": "0781803675"
  },
  {
    "name": "Legacy Dental Clinic",
    "location": "Gasabo",
    "tel": "No phone number"
  },
  {
    "name": "BETSAIDA Clinic",
    "location": "Gasabo",
    "tel": "No phone number"
  },
  {
    "name": "Kigali Hill Side Clinic (KHSC)",
    "location": "Gasabo",
    "tel": "0789353363"
  },
  {
    "name": "SALEM CLINIC",
    "location": "Gasabo",
    "tel": "No phone number"
  },
  {
    "name": "KIGALI SALEM CLINIC",
    "location": "Gasabo",
    "tel": "No phone number"
  },
  {
    "name": "Cyamuhinda Health Center",
    "location": "Gatsibo",
    "tel": "No phone number"
  },
  {
    "name": "Muko Health Center",
    "location": "Gatsibo",
    "tel": "No phone number"
  },
  {
    "name": "Muhura Health Center",
    "location": "Gatsibo",
    "tel": "0782548096"
  },
  {
    "name": "KABARORE Health center",
    "location": "Gatsibo",
    "tel": "No phone number"
  },
  {
    "name": "BWIZA CLINIC AND DIAGNOSTIC CENTER LTD",
    "location": "Gatsibo",
    "tel": "0780681459"
  },
  {
    "name": "Gasange Health Center",
    "location": "Gatsibo",
    "tel": "No phone number"
  },
  {
    "name": "Iranzi Clinic- Birth Centre",
    "location": "Gatsibo",
    "tel": "0785022206"
  },
  {
    "name": "Munyinya Health Center",
    "location": "Gicumbi",
    "tel": "No phone number"
  },
  {
    "name": "Kayanga Health Center",
    "location": "Gicumbi",
    "tel": "No phone number"
  },
  {
    "name": "Mulindi Health Center",
    "location": "Gicumbi",
    "tel": "No phone number"
  },
  {
    "name": "Caraes Neuropsychiatric Hospital Ndera",
    "location": "Gisagara",
    "tel": "0788827364"
  },
  {
    "name": "Salus Clinic",
    "location": "Huye",
    "tel": "No phone number"
  },
  {
    "name": "BWIZA CLINIC AND DIAGNOSTIC CENTER LTD",
    "location": "Kamonyi",
    "tel": "0780681459"
  },
  {
    "name": "Kamonyi Health Center",
    "location": "Kamonyi",
    "tel": "No phone number"
  },
  {
    "name": "CHK Clinic",
    "location": "Kamonyi",
    "tel": "No phone number"
  },
  {
    "name": "Kayenzi Health Center",
    "location": "Kamonyi",
    "tel": "No phone number"
  },
  {
    "name": "Ituze Clinic",
    "location": "Kamonyi",
    "tel": "No phone number"
  },
  {
    "name": "Busoro Health Clinic",
    "location": "Kamonyi",
    "tel": "No phone number"
  },
  {
    "name": "Ivuriro Sante Clinic",
    "location": "Kamonyi",
    "tel": "No phone number"
  },
  {
    "name": "Kiziba Health Center",
    "location": "Karongi",
    "tel": "No phone number"
  },
  {
    "name": "Mukarange Health Center",
    "location": "Kayonza",
    "tel": "No phone number"
  },
  {
    "name": "Dispensaire Sanganirwa",
    "location": "Kicukiro",
    "tel": "No phone number"
  },
  {
    "name": "Clinic Ste Therese",
    "location": "Kicukiro",
    "tel": "No phone number"
  },
  {
    "name": "Clinique Don de Dieu",
    "location": "Kicukiro",
    "tel": "0788302839"
  },
  {
    "name": "ALPHA Pro-line ltd",
    "location": "Kicukiro",
    "tel": "0788814618"
  },
  {
    "name": "BETSAIDA Clinic",
    "location": "Kicukiro",
    "tel": "No phone number"
  },
  {
    "name": "TMC Technology Clinic",
    "location": "Kicukiro",
    "tel": "No phone number"
  },
  {
    "name": "Ent (Orl) Clinic",
    "location": "Kicukiro",
    "tel": "0787400577"
  },
  {
    "name": "Le Bon Samaritain",
    "location": "Kicukiro",
    "tel": "0788503434"
  },
  {
    "name": "Traditional Chinese Medicine, TCM Technology",
    "location": "Kicukiro",
    "tel": "No phone number"
  },
  {
    "name": "Iranzi Clinic- Birth Centre",
    "location": "Kicukiro",
    "tel": "0785022206"
  },
  {
    "name": "BWIZA CLINIC AND DIAGNOSTIC CENTER LTD",
    "location": "Kicukiro",
    "tel": "0780681459"
  },
  {
    "name": "Kigali Dialysis Center - Africa Healthcare Network",
    "location": "Kicukiro",
    "tel": "0782637546"
  },
  {
    "name": "CHK Clinic",
    "location": "Kicukiro",
    "tel": "No phone number"
  },
  {
    "name": "Doctors' Plaza Clinic",
    "location": "Kicukiro",
    "tel": "0788609621"
  },
  {
    "name": "Dr. Agarwal's Eye Hospital, Kigali",
    "location": "Kicukiro",
    "tel": "0787303743"
  },
  {
    "name": "China Clinic",
    "location": "Kicukiro",
    "tel": "No phone number"
  },
  {
    "name": "La Life Polyclinic ENT(ORL)",
    "location": "Kicukiro",
    "tel": "0788520986"
  },
  {
    "name": "Ivuriro Sante Clinic",
    "location": "Kicukiro",
    "tel": "No phone number"
  },
  {
    "name": "Icyizere Psychotherapeutic Center",
    "location": "Kicukiro",
    "tel": "0783375550"
  },
  {
    "name": "Umwizerwa Medicare Centre",
    "location": "Kicukiro",
    "tel": "0788760733"
  },
  {
    "name": "Harmony Clinic",
    "location": "Kicukiro",
    "tel": "0788500497"
  },
  {
    "name": "Polyclinique du Plateau",
    "location": "Kicukiro",
    "tel": "0781293417"
  },
  {
    "name": "Le Sauveur Dispensary",
    "location": "Kicukiro",
    "tel": "No phone number"
  },
  {
    "name": "Rusumo Health Centre",
    "location": "Kirehe",
    "tel": "No phone number"
  },
  {
    "name": "Kabuye Health Center",
    "location": "Kirehe",
    "tel": "0788885153"
  },
  {
    "name": "Ivuriro Isango",
    "location": "Muhanga",
    "tel": "0788691380"
  },
  {
    "name": "Umurage Medical Clinic",
    "location": "Muhanga",
    "tel": "0788404430"
  },
  {
    "name": "Ineza clinique",
    "location": "Muhanga",
    "tel": "0788663911"
  },
  {
    "name": "Muhororo Eye Clinic",
    "location": "Muhanga",
    "tel": "No phone number"
  },
  {
    "name": "Nyabikenke Health Center",
    "location": "Muhanga",
    "tel": "No phone number"
  },
  {
    "name": "Busoro Health Clinic",
    "location": "Muhanga",
    "tel": "No phone number"
  },
  {
    "name": "BWIZA CLINIC AND DIAGNOSTIC CENTER LTD",
    "location": "Muhanga",
    "tel": "0780681459"
  },
  {
    "name": "Gitega Health Centre",
    "location": "Muhanga",
    "tel": "No phone number"
  },
  {
    "name": "Polyclinique De Musanze",
    "location": "Musanze",
    "tel": "No phone number"
  },
  {
    "name": "Kimonyi Health Center",
    "location": "Musanze",
    "tel": "No phone number"
  },
  {
    "name": "Busogo Health Center",
    "location": "Musanze",
    "tel": "No phone number"
  },
  {
    "name": "Rwaza Health Center",
    "location": "Musanze",
    "tel": "No phone number"
  },
  {
    "name": "Nyarubuye Health Center",
    "location": "Musanze",
    "tel": "No phone number"
  },
  {
    "name": "Shingiro Health Center",
    "location": "Musanze",
    "tel": "No phone number"
  },
  {
    "name": "Gasiza Health Center",
    "location": "Musanze",
    "tel": "No phone number"
  },
  {
    "name": "Kabere Health Center",
    "location": "Musanze",
    "tel": "No phone number"
  },
  {
    "name": "Gashaki Health Centre",
    "location": "Musanze",
    "tel": "No phone number"
  },
  {
    "name": "Remera Health Center",
    "location": "Ngoma",
    "tel": "No phone number"
  },
  {
    "name": "Muhororo Eye Clinic",
    "location": "Ngororero",
    "tel": "No phone number"
  },
  {
    "name": "Kageyo Health Center",
    "location": "Ngororero",
    "tel": "No phone number"
  },
  {
    "name": "Bigogwe Health Clinic",
    "location": "Nyabihu",
    "tel": "No phone number"
  },
  {
    "name": "Icyizere Psychotherapeutic Center",
    "location": "Nyagatare",
    "tel": "0783375550"
  },
  {
    "name": "Caraes Neuropsychiatric Hospital Ndera",
    "location": "Nyagatare",
    "tel": "0788827364"
  },
  {
    "name": "Ejo Heza Clinic",
    "location": "Nyagatare",
    "tel": "0785845994"
  },
  {
    "name": "Kinyamakara Clinic",
    "location": "Nyamagabe",
    "tel": "No phone number"
  },
  {
    "name": "Ejo Heza Clinic",
    "location": "Nyamasheke",
    "tel": "0785845994"
  },
  {
    "name": "Legacy Clinics",
    "location": "Nyamasheke",
    "tel": "0788382000"
  },
  {
    "name": "Polyclinique du Plateau",
    "location": "Nyanza",
    "tel": "0781293417"
  },
  {
    "name": "Ejo Heza Clinic",
    "location": "Nyanza",
    "tel": "0785845994"
  },
  {
    "name": "CHK Clinic",
    "location": "Nyarugenge",
    "tel": "No phone number"
  },
  {
    "name": "Polyclinique du Plateau",
    "location": "Nyarugenge",
    "tel": "0781293417"
  },
  {
    "name": "La Life Polyclinic ENT(ORL)",
    "location": "Nyarugenge",
    "tel": "0788520986"
  },
  {
    "name": "Rwanda Eye Clinic",
    "location": "Nyarugenge",
    "tel": "0783405711"
  },
  {
    "name": "UR - Polyclinic",
    "location": "Nyarugenge",
    "tel": "0786689121"
  },
  {
    "name": "Ivuriro Sante Clinic",
    "location": "Nyarugenge",
    "tel": "No phone number"
  },
  {
    "name": "Imboni Ophthalmology Clinic of Dr Joseph Sebera",
    "location": "Nyarugenge",
    "tel": "0780257089"
  },
  {
    "name": "Viva Clinic RITCO",
    "location": "Nyarugenge",
    "tel": "No phone number"
  },
  {
    "name": "we actx",
    "location": "Nyarugenge",
    "tel": "0787334678"
  },
  {
    "name": "DK OPTICALS",
    "location": "Nyarugenge",
    "tel": "0789426659"
  },
  {
    "name": "Harmony Clinic",
    "location": "Nyarugenge",
    "tel": "0788500497"
  },
  {
    "name": "Ejo Heza Clinic",
    "location": "Nyarugenge",
    "tel": "0785845994"
  },
  {
    "name": "Nyarugenge Health Center",
    "location": "Nyarugenge",
    "tel": "No phone number"
  },
  {
    "name": "Pineda Dental Clinic",
    "location": "Nyarugenge",
    "tel": "0788564377"
  },
  {
    "name": "BWIZA CLINIC AND DIAGNOSTIC CENTER LTD",
    "location": "Nyarugenge",
    "tel": "0780681459"
  },
  {
    "name": "Clinique Solamer",
    "location": "Nyarugenge",
    "tel": "No phone number"
  },
  {
    "name": "Ituze Clinic",
    "location": "Nyarugenge",
    "tel": "No phone number"
  },
  {
    "name": "Gitega Health Center",
    "location": "Nyarugenge",
    "tel": "No phone number"
  },
  {
    "name": "Asha Medical Services (Manipal Group of Hospitals)",
    "location": "Nyarugenge",
    "tel": "No phone number"
  },
  {
    "name": "Clinique Isango",
    "location": "Nyarugenge",
    "tel": "0788481226"
  },
  {
    "name": "Polyclinique De L'Etoile",
    "location": "Nyarugenge",
    "tel": "No phone number"
  },
  {
    "name": "Baho Medical Center",
    "location": "Nyarugenge",
    "tel": "No phone number"
  },
  {
    "name": "CBN",
    "location": "Nyarugenge",
    "tel": "No phone number"
  },
  {
    "name": "Kigali Dialysis Center - Africa Healthcare Network",
    "location": "Nyarugenge",
    "tel": "0782637546"
  },
  {
    "name": "Dispensaire INEZA Ivuriro",
    "location": "Nyarugenge",
    "tel": "No phone number"
  },
  {
    "name": "Clinique Sainte Elisa",
    "location": "Nyarugenge",
    "tel": "0782172985"
  },
  {
    "name": "Iranzi Clinic- Birth Centre",
    "location": "Nyarugenge",
    "tel": "0785022206"
  },
  {
    "name": "Umwizerwa Medicare Centre",
    "location": "Nyarugenge",
    "tel": "0788760733"
  },
  {
    "name": "International Dispensary Kigali",
    "location": "Nyarugenge",
    "tel": "0788300353"
  },
  {
    "name": "China Clinic",
    "location": "Nyarugenge",
    "tel": "No phone number"
  },
  {
    "name": "Dispensaire Amizero",
    "location": "Nyarugenge",
    "tel": "No phone number"
  },
  {
    "name": "Kagugu Medical Clinic",
    "location": "Nyarugenge",
    "tel": "No phone number"
  },
  {
    "name": "Salem Clinic",
    "location": "Nyarugenge",
    "tel": "0781698861"
  },
  {
    "name": "TMC Technology Clinic",
    "location": "Nyarugenge",
    "tel": "No phone number"
  },
  {
    "name": "Dispensaire La Patience",
    "location": "Nyarugenge",
    "tel": "No phone number"
  },
  {
    "name": "Ejo Heza Clinic",
    "location": "Nyaruguru",
    "tel": "0785845994"
  },
  {
    "name": "Legacy Clinics",
    "location": "Nyaruguru",
    "tel": "0788382000"
  },
  {
    "name": "CHINA CLINIC",
    "location": "Rubavu",
    "tel": "No phone number"
  },
  {
    "name": "Charity medical Clinic",
    "location": "Rubavu",
    "tel": "0785196386"
  },
  {
    "name": "BWIZA CLINIC AND DIAGNOSTIC CENTER LTD",
    "location": "Ruhango",
    "tel": "0780681459"
  },
  {
    "name": "Polyclinique du Plateau",
    "location": "Ruhango",
    "tel": "0781293417"
  },
  {
    "name": "Kamonyi Health Center",
    "location": "Ruhango",
    "tel": "No phone number"
  },
  {
    "name": "Ejo Heza Clinic",
    "location": "Ruhango",
    "tel": "0785845994"
  },
  {
    "name": "BWIZA CLINIC AND DIAGNOSTIC CENTER LTD",
    "location": "Rulindo",
    "tel": "0780681459"
  },
  {
    "name": "UBUVUZI GAKONDO",
    "location": "Rulindo",
    "tel": "0782506955"
  },
  {
    "name": "CHK Clinic",
    "location": "Rulindo",
    "tel": "No phone number"
  },
  {
    "name": "Rutonde Health Center",
    "location": "Rulindo",
    "tel": "No phone number"
  },
  {
    "name": "Clinique RUHIGITA Site Muhumba",
    "location": "Rusizi",
    "tel": "No phone number"
  },
  {
    "name": "St Francois Health Center",
    "location": "Rusizi",
    "tel": "No phone number"
  },
  {
    "name": "Asili",
    "location": "Rusizi",
    "tel": "No phone number"
  },
  {
    "name": "Ejo Heza Clinic",
    "location": "Rutsiro",
    "tel": "0785845994"
  },
  {
    "name": "Ivuriro Isango",
    "location": "Rutsiro",
    "tel": "0788691380"
  },
  {
    "name": "Rwamagana Hospital",
    "location": "Rwamagana",
    "tel": "No phone number"
  }
]
