[{"name": "Bugesera District Hospital\"ADEPR Hospital\"", "location": "Bugesera", "tel": "No phone number"}, {"name": "Nyamata Hospital", "location": "Bugesera", "tel": "No phone number"}, {"name": "Kibenga Health Post", "location": "Bugesera", "tel": "No phone number"}, {"name": "Mareba Health Centre", "location": "Bugesera", "tel": "No phone number"}, {"name": "Muyange Health Centre", "location": "Bugesera", "tel": "No phone number"}, {"name": "Mazane Health Center", "location": "Bugesera", "tel": "No phone number"}, {"name": "Centre Chirurgie Orthop\u00e9dique P\u00e9diatrique Et R\u00e9habilitation, Sainte Marie Rilima", "location": "Bugesera", "tel": "0783312831"}, {"name": "Gihinga Health Centre", "location": "Bugesera", "tel": "No phone number"}, {"name": "Rango Health Post", "location": "Bugesera", "tel": "No phone number"}, {"name": "Rwanda Military Hospital", "location": "Bugesera", "tel": "No phone number"}, {"name": "University Teaching Hospital of Kigali", "location": "Bugesera", "tel": "No phone number"}, {"name": "La Croix du Sud Hospital", "location": "Bugesera", "tel": "0785246882"}, {"name": "Masaka Hospital", "location": "Bugesera", "tel": "0728878194"}, {"name": "Inkuru Nziza Orthopedic Hospital", "location": "Bugesera", "tel": "0788528238"}, {"name": "Rwanda Military Hospital", "location": "Bugesera", "tel": "No phone number"}, {"name": "King Faisal Hospital", "location": "Bugesera", "tel": "0788384877"}, {"name": "Yashoda Hospitals Medical Information Centre", "location": "Bugesera", "tel": "No phone number"}, {"name": "Burera District Hospital", "location": "Burera", "tel": "No phone number"}, {"name": "Poste De Sant\u00e9 De Birwa", "location": "Burera", "tel": "No phone number"}, {"name": "Gaseke Health Post", "location": "Burera", "tel": "No phone number"}, {"name": "Bungwe Health Post", "location": "Burera", "tel": "No phone number"}, {"name": "Karwasa Health Centre", "location": "Burera", "tel": "No phone number"}, {"name": "Gasakuza Health Post", "location": "Burera", "tel": "No phone number"}, {"name": "Musenda Health Post", "location": "Burera", "tel": "No phone number"}, {"name": "Kivuye Health Centre", "location": "Burera", "tel": "No phone number"}, {"name": "Ruhunde Health Centre", "location": "Burera", "tel": "No phone number"}, {"name": "Gaseke Health Post", "location": "Burera", "tel": "No phone number"}, {"name": "Gitare Health Centre", "location": "Burera", "tel": "No phone number"}, {"name": "Kinyababa Health Center", "location": "Burera", "tel": "No phone number"}, {"name": "Kabyiniro Health Centre", "location": "Burera", "tel": "No phone number"}, {"name": "Rwerere Health Centre", "location": "Burera", "tel": "No phone number"}, {"name": "Ntaruka Health Centre", "location": "Burera", "tel": "No phone number"}, {"name": "Kamubuga Health Post", "location": "Burera", "tel": "No phone number"}, {"name": "Nyamuguri Health Centre", "location": "Burera", "tel": "No phone number"}, {"name": "Rugarama Health Centre", "location": "Burera", "tel": "No phone number"}, {"name": "Mutara Health Centre", "location": "Burera", "tel": "No phone number"}, {"name": "Kumaya heath center", "location": "Burera", "tel": "No phone number"}, {"name": "Nemba Hospital", "location": "Gakenke", "tel": "No phone number"}, {"name": "Ruli District Hospital", "location": "Gakenke", "tel": "No phone number"}, {"name": "Shyira Hospital", "location": "Gakenke", "tel": "0788561751"}, {"name": "Rwankuba Health Centre", "location": "Gakenke", "tel": "No phone number"}, {"name": "Rutake Health Centre", "location": "Gakenke", "tel": "No phone number"}, {"name": "Nemba hospital", "location": "Gakenke", "tel": "No phone number"}, {"name": "Karambo Health Centre", "location": "Gakenke", "tel": "No phone number"}, {"name": "Minazi Health Post", "location": "Gakenke", "tel": "No phone number"}, {"name": "Birehe Health Centre", "location": "Gakenke", "tel": "No phone number"}, {"name": "Rushoka Health Centre", "location": "Gakenke", "tel": "No phone number"}, {"name": "SHYIRA HOSPITAL", "location": "Gakenke", "tel": "No phone number"}, {"name": "Rutenderi Health Centre", "location": "Gakenke", "tel": "No phone number"}, {"name": "Rwahi Health Centre", "location": "Gakenke", "tel": "No phone number"}, {"name": "Busengo Health Centre", "location": "Gakenke", "tel": "No phone number"}, {"name": "Butare Health Post", "location": "Gakenke", "tel": "No phone number"}, {"name": "Mataba Health Centre", "location": "Gakenke", "tel": "No phone number"}, {"name": "Buyange Health Post", "location": "Gakenke", "tel": "No phone number"}, {"name": "Maternity building", "location": "Gakenke", "tel": "No phone number"}, {"name": "Kamubuga Health Post", "location": "Gakenke", "tel": "No phone number"}, {"name": "Bumba Health Post", "location": "Gakenke", "tel": "No phone number"}, {"name": "Byakiriba Health Centre", "location": "Gakenke", "tel": "No phone number"}, {"name": "Vunga Health Post", "location": "Gakenke", "tel": "No phone number"}, {"name": "Nganzo Health Post", "location": "Gakenke", "tel": "No phone number"}, {"name": "Nyundo Health Centre", "location": "Gakenke", "tel": "No phone number"}, {"name": "Rusororo Health Centre", "location": "Gakenke", "tel": "No phone number"}, {"name": "Tare Hospital", "location": "Gakenke", "tel": "No phone number"}, {"name": "Ngeru Health Post", "location": "Gakenke", "tel": "No phone number"}, {"name": "Janja Health Centre", "location": "Gakenke", "tel": "No phone number"}, {"name": "Rukura Health Centre", "location": "Gakenke", "tel": "No phone number"}, {"name": "Rushashi Health Centre", "location": "Gakenke", "tel": "No phone number"}, {"name": "Nyakigezi Health Centre", "location": "Gakenke", "tel": "No phone number"}, {"name": "New Vision Veterinary Hospital", "location": "Gakenke", "tel": "0781204364"}, {"name": "Nyamuguri Health Centre", "location": "Gakenke", "tel": "No phone number"}, {"name": "Gasagara Health Centre", "location": "Gakenke", "tel": "No phone number"}, {"name": "University Teaching Hospital of Kigali", "location": "Gasabo", "tel": "No phone number"}, {"name": "King Faisal Hospital", "location": "Gasabo", "tel": "0788384877"}, {"name": "Kibagabaga Hospital", "location": "Gasabo", "tel": "0788732945"}, {"name": "Ejo Heza Clinic", "location": "Gasabo", "tel": "0785845994"}, {"name": "La Croix du Sud Hospital", "location": "Gasabo", "tel": "0785246882"}, {"name": "Baho International Hospital", "location": "Gasabo", "tel": "0782343710"}, {"name": "Baho Medical Center", "location": "Gasabo", "tel": "0788564753"}, {"name": "Muhima Hospital", "location": "Gasabo", "tel": "0728283887"}, {"name": "Rwanda Military Hospital", "location": "Gasabo", "tel": "No phone number"}, {"name": "Deva Medical Center", "location": "Gasabo", "tel": "0788333111"}, {"name": "Omega Hospital", "location": "Gasabo", "tel": "No phone number"}, {"name": "TTP hospital", "location": "Gasabo", "tel": "0786317897"}, {"name": "Ivuriro Polyfam", "location": "Gasabo", "tel": "0784161745"}, {"name": "Polyclinique La Medicale (Dr Kanimba Hospital)", "location": "Gasabo", "tel": "0788305661"}, {"name": "Kacyiru Hospital", "location": "Gasabo", "tel": "0785061906"}, {"name": "Advanced Dental Centre Remera", "location": "Gasabo", "tel": "0783013034"}, {"name": "Avega Kigali", "location": "Gasabo", "tel": "No phone number"}, {"name": "NEW VISION Veterinary Hospital Outpost", "location": "Gasabo", "tel": "0780836952"}, {"name": "Yashoda Hospitals Medical Information Centre", "location": "Gasabo", "tel": "No phone number"}, {"name": "Nyiranuma Healthcentre", "location": "Gasabo", "tel": "No phone number"}, {"name": "HOPITAL LA CROIX DU SUD KWA NYIRINKWAYA", "location": "Gasabo", "tel": "0785246882"}, {"name": "Muslims New Hospital", "location": "Gasabo", "tel": "No phone number"}, {"name": "Hospital", "location": "Gasabo", "tel": "No phone number"}, {"name": "Le Bon Samaritan Polyclinique", "location": "Gasabo", "tel": "No phone number"}, {"name": "Rwanda Military Hospital", "location": "Gasabo", "tel": "No phone number"}, {"name": "Centre de Sante Kimirono", "location": "Gasabo", "tel": "No phone number"}, {"name": "Masaka Hospital", "location": "Gasabo", "tel": "0728878194"}, {"name": "Icyizere Psychotherapeutic Center", "location": "Gasabo", "tel": "0783375550"}, {"name": "PET VETERINARY AND PET SHOP KIGALI RWANDA", "location": "Gasabo", "tel": "0788843318"}, {"name": "Legacy Clinics", "location": "Gasabo", "tel": "0788382000"}, {"name": "RAPHA Medical Clinic", "location": "Gasabo", "tel": "0788679290"}, {"name": "Medicus, Humunus", "location": "Gasabo", "tel": "No phone number"}, {"name": "HOSPITAL -UBUZIMA POLYCLINIC", "location": "Gasabo", "tel": "No phone number"}, {"name": "Centre Medical Orkide", "location": "Gasabo", "tel": "No phone number"}, {"name": "Kigali Ivf And Fertility Clinic", "location": "Gasabo", "tel": "No phone number"}, {"name": "Neza Health Post", "location": "Gasabo", "tel": "No phone number"}, {"name": "PRIMO Clinic", "location": "Gasabo", "tel": "No phone number"}, {"name": "Medicus Humanus Clinic", "location": "Gasabo", "tel": "0788340264"}, {"name": "Inkuru Nziza Orthopedic Hospital", "location": "Gasabo", "tel": "0788528238"}, {"name": "Kigali Dermatology Center", "location": "Gasabo", "tel": "0782742943"}, {"name": "Gikomero Health Centre", "location": "Gasabo", "tel": "No phone number"}, {"name": "Rubungo Health Centre", "location": "Gasabo", "tel": "No phone number"}, {"name": "Ngiryi Health Post", "location": "Gasabo", "tel": "No phone number"}, {"name": "Polyclinique du Carrefour", "location": "Gasabo", "tel": "0784840500"}, {"name": "Polyclinique M\u00e9dico-Sociale", "location": "Gasabo", "tel": "No phone number"}, {"name": "Karuruma Hospital", "location": "Gasabo", "tel": "No phone number"}, {"name": "Silowamu Medical Clinic", "location": "Gasabo", "tel": "0789403022"}, {"name": "Veterinary", "location": "Gasabo", "tel": "0788843318"}, {"name": "Gikondo Health Centre", "location": "Gasabo", "tel": "No phone number"}, {"name": "PolyClinique du carrefour", "location": "Gasabo", "tel": "0784840500"}, {"name": "Dr. Jhon Cloths,", "location": "Gasabo", "tel": "No phone number"}, {"name": "BETSAIDA Clinic", "location": "Gasabo", "tel": "No phone number"}, {"name": "HVP/Gatenga-Gikondo", "location": "Gasabo", "tel": "No phone number"}, {"name": "Asha Medical Services (Manipal Group of Hospitals)", "location": "Gasabo", "tel": "No phone number"}, {"name": "HEALTHCARE PHARMACY", "location": "Gasabo", "tel": "0788872220"}, {"name": "Bweramvura Health Post", "location": "Gasabo", "tel": "No phone number"}, {"name": "Izere Health Post", "location": "Gasabo", "tel": "No phone number"}, {"name": "St peter biomedical laboratories clinic", "location": "Gasabo", "tel": "0788672818"}, {"name": "Kajevuba Health Centre", "location": "Gasabo", "tel": "No phone number"}, {"name": "Nanuri Medical Center", "location": "Gasabo", "tel": "0782720337"}, {"name": "Projet San Francisco", "location": "Gasabo", "tel": "No phone number"}, {"name": "BEATRICE POLYCLINIC", "location": "Gasabo", "tel": "No phone number"}, {"name": "Dynapharm Rwanda", "location": "Gasabo", "tel": "0782816888"}, {"name": "Jali Health Centre", "location": "Gasabo", "tel": "No phone number"}, {"name": "Impuhwe Health Post", "location": "Gasabo", "tel": "No phone number"}, {"name": "IBN-Sinai", "location": "Gasabo", "tel": "No phone number"}, {"name": "Heritage Medical Park", "location": "Gasabo", "tel": "0788344613"}, {"name": "Imirasire Youth Clinic Laboratory", "location": "Gasabo", "tel": "No phone number"}, {"name": "Polyclinic Du Bon Berger", "location": "Gasabo", "tel": "No phone number"}, {"name": "King Faisal Hospital - Kigali", "location": "Gasabo", "tel": "0788384877"}, {"name": "Polyclinique Saint Jean", "location": "Gasabo", "tel": "0786635315"}, {"name": "Soeurs Des Anges", "location": "Gasabo", "tel": "No phone number"}, {"name": "NKOTO HP", "location": "Gasabo", "tel": "No phone number"}, {"name": "LEGACY DIAGNOSTICS LAB", "location": "Gasabo", "tel": "No phone number"}, {"name": "WIWO Hospital", "location": "Gasabo", "tel": "0733444444"}, {"name": "Nyampeta Ladislas", "location": "Gasabo", "tel": "No phone number"}, {"name": "VPDD", "location": "Gasabo", "tel": "No phone number"}, {"name": "Sainte Cecile Health Post", "location": "Gasabo", "tel": "No phone number"}, {"name": "Rutongo Hospital", "location": "Gasabo", "tel": "0784085503"}, {"name": "Impuhwe Health Pussy", "location": "Gasabo", "tel": "No phone number"}, {"name": "BAZA MUGANGA", "location": "Gasabo", "tel": "0722198296"}, {"name": "La Divine", "location": "Gasabo", "tel": "No phone number"}, {"name": "Minas Medical Center", "location": "Gasabo", "tel": "No phone number"}, {"name": "Proposed General hospital", "location": "Gasabo", "tel": "No phone number"}, {"name": "Muyumba Health Centre", "location": "Gasabo", "tel": "No phone number"}, {"name": "Dr. Agarwal's Eye Hospital, Kigali", "location": "Gasabo", "tel": "0787303743"}, {"name": "Kanombe Hospital", "location": "Gasabo", "tel": "No phone number"}, {"name": "VIVA CLINIC Masaka", "location": "Gasabo", "tel": "0788357735"}, {"name": "Rwesero Health Centre", "location": "Gasabo", "tel": "No phone number"}, {"name": "Village Amahumbezi", "location": "Gasabo", "tel": "No phone number"}, {"name": "Remera-Rukoma Hospital", "location": "Gasabo", "tel": "No phone number"}, {"name": "Ejo Heza Surgical Center", "location": "Gasabo", "tel": "No phone number"}, {"name": "Nzove Health Post", "location": "Gasabo", "tel": "No phone number"}, {"name": "Horebu Medical Clinic", "location": "Gasabo", "tel": "No phone number"}, {"name": "Caraes Neuropsychiatric Hospital Ndera", "location": "Gasabo", "tel": "0788827364"}, {"name": "Kiyanza Health Centre", "location": "Gasabo", "tel": "No phone number"}, {"name": "Rukoma Health Centre", "location": "Gasabo", "tel": "No phone number"}, {"name": "Giti Health Centre", "location": "Gasabo", "tel": "No phone number"}, {"name": "Masaka Hospital", "location": "Gasabo", "tel": "No phone number"}, {"name": "Nyarugenge Health Center", "location": "Gasabo", "tel": "No phone number"}, {"name": "Kiziguro Hospital", "location": "Gatsibo", "tel": "No phone number"}, {"name": "Ngarama Hospital", "location": "Gatsibo", "tel": "No phone number"}, {"name": "Gitoki Health Centre", "location": "Gatsibo", "tel": "No phone number"}, {"name": "Nyabiheke Health Centre", "location": "Gatsibo", "tel": "No phone number"}, {"name": "Cyamuhanda", "location": "Gatsibo", "tel": "No phone number"}, {"name": "Nyabisindu Health Post", "location": "Gatsibo", "tel": "No phone number"}, {"name": "Kibondo Health Centre", "location": "Gatsibo", "tel": "No phone number"}, {"name": "Humure Health Centre", "location": "Gatsibo", "tel": "No phone number"}, {"name": "Nyamatete Health Centre", "location": "Gatsibo", "tel": "No phone number"}, {"name": "Urukundo Health Post", "location": "Gatsibo", "tel": "No phone number"}, {"name": "Ryamanyoni Health Center", "location": "Gatsibo", "tel": "No phone number"}, {"name": "Mayange Health Post", "location": "Gatsibo", "tel": "No phone number"}, {"name": "Musenyi Health Post", "location": "Gatsibo", "tel": "No phone number"}, {"name": "Nyagahanga Health Centre", "location": "Gatsibo", "tel": "No phone number"}, {"name": "Hunga Health Post", "location": "Gatsibo", "tel": "No phone number"}, {"name": "Nyagihita Health Centre", "location": "Gatsibo", "tel": "No phone number"}, {"name": "Mimuli Health Centre", "location": "Gatsibo", "tel": "No phone number"}, {"name": "Muhambo Health Center", "location": "Gatsibo", "tel": "No phone number"}, {"name": "Ruhunda Health Center", "location": "Gatsibo", "tel": "No phone number"}, {"name": "gitoki health centre", "location": "Gatsibo", "tel": "No phone number"}, {"name": "Bataba Health Centre", "location": "Gatsibo", "tel": "No phone number"}, {"name": "Murambi Health Centre", "location": "Gatsibo", "tel": "No phone number"}, {"name": "Gisiza Health Centre", "location": "Gatsibo", "tel": "No phone number"}, {"name": "Giti Health Centre", "location": "Gatsibo", "tel": "No phone number"}, {"name": "Byumba Hospital", "location": "Gicumbi", "tel": "No phone number"}, {"name": "Gisagara Health Centre", "location": "Gisagara", "tel": "No phone number"}, {"name": "Gishubi Health Centre", "location": "Gisagara", "tel": "No phone number"}, {"name": "Gakoma Hospital", "location": "Gisagara", "tel": "No phone number"}, {"name": "Musha Health Centre", "location": "Gisagara", "tel": "No phone number"}, {"name": "Kirarambogo Health Centre", "location": "Gisagara", "tel": "No phone number"}, {"name": "GIKONKO HC", "location": "Gisagara", "tel": "No phone number"}, {"name": "Gikore Health Centre", "location": "Gisagara", "tel": "No phone number"}, {"name": "Kabutare Hospital", "location": "Gisagara", "tel": "No phone number"}, {"name": "Kansi Health Centre", "location": "Gisagara", "tel": "No phone number"}, {"name": "Kibirizi Health Centre", "location": "Gisagara", "tel": "No phone number"}, {"name": "University Teaching Hospital of Butare (CHUB)", "location": "Gisagara", "tel": "0788300952"}, {"name": "University Teaching Hospital of Butare (CHUB)", "location": "Huye", "tel": "0788300952"}, {"name": "Matyazo Health Centre", "location": "Huye", "tel": "0788000000"}, {"name": "Kabutare Hospital", "location": "Huye", "tel": "No phone number"}, {"name": "Rukira Health Centre", "location": "Huye", "tel": "No phone number"}, {"name": "University Central Hospital of Butare", "location": "Huye", "tel": "No phone number"}, {"name": "Surgery dept.", "location": "Huye", "tel": "No phone number"}, {"name": "Police Clinic", "location": "Huye", "tel": "No phone number"}, {"name": "Kabutare", "location": "Huye", "tel": "No phone number"}, {"name": "Maternity", "location": "Huye", "tel": "No phone number"}, {"name": "National Centre for Blood Transfusion", "location": "Huye", "tel": "0722201309"}, {"name": "Laboratoire Universitaire", "location": "Huye", "tel": "No phone number"}, {"name": "Pediatrics Dept", "location": "Huye", "tel": "No phone number"}, {"name": "Simbi Health Centre", "location": "Huye", "tel": "No phone number"}, {"name": "Ruhashya Health Post", "location": "Huye", "tel": "No phone number"}, {"name": "Bukomeye Health Post", "location": "Huye", "tel": "No phone number"}, {"name": "Kinyamakara Health Centre", "location": "Huye", "tel": "No phone number"}, {"name": "Edson Gidion", "location": "Huye", "tel": "No phone number"}, {"name": "Ngera Health Centre", "location": "Huye", "tel": "No phone number"}, {"name": "Rwaniro Health Center", "location": "Huye", "tel": "No phone number"}, {"name": "MUKURA HEALTH CENTER/HUYE", "location": "Huye", "tel": "0785152912"}, {"name": "Remera-Rukoma Hospital", "location": "Kamonyi", "tel": "No phone number"}, {"name": "Rukoma Health Centre", "location": "Kamonyi", "tel": "No phone number"}, {"name": "Ruli District Hospital", "location": "Kamonyi", "tel": "No phone number"}, {"name": "Musumbira Health Center", "location": "Kamonyi", "tel": "No phone number"}, {"name": "Kivumu Health Center", "location": "Kamonyi", "tel": "No phone number"}, {"name": "Nyamiyaga Health Centre", "location": "Kamonyi", "tel": "No phone number"}, {"name": "Rutobwe Health Post", "location": "Kamonyi", "tel": "No phone number"}, {"name": "Ngoma Health Post", "location": "Kamonyi", "tel": "No phone number"}, {"name": "Rwahi Health Centre", "location": "Kamonyi", "tel": "No phone number"}, {"name": "Bugoba Health Post", "location": "Kamonyi", "tel": "No phone number"}, {"name": "Rwanda Charity Eye Hospital", "location": "Kamonyi", "tel": "0782256252"}, {"name": "Mbuye Health Centre", "location": "Kamonyi", "tel": "No phone number"}, {"name": "Nzove Health Post", "location": "Kamonyi", "tel": "No phone number"}, {"name": "Jali Health Centre", "location": "Kamonyi", "tel": "No phone number"}, {"name": "University Teaching Hospital of Kigali", "location": "Kamonyi", "tel": "No phone number"}, {"name": "Kabgayi Hospital", "location": "Kamonyi", "tel": "No phone number"}, {"name": "Muhima Hospital", "location": "Kamonyi", "tel": "0728283887"}, {"name": "Gitarama Health Centre", "location": "Kamonyi", "tel": "No phone number"}, {"name": "Cyanza Health Centre", "location": "Kamonyi", "tel": "No phone number"}, {"name": "Polyclinique La Medicale (Dr Kanimba Hospital)", "location": "Kamonyi", "tel": "0788305661"}, {"name": "King Faisal Hospital", "location": "Kamonyi", "tel": "0788384877"}, {"name": "Inkuru Nziza Orthopedic Hospital", "location": "Kamonyi", "tel": "0788528238"}, {"name": "Ejo Heza Clinic", "location": "Kamonyi", "tel": "0785845994"}, {"name": "Karongi Hospital", "location": "Karongi", "tel": "No phone number"}, {"name": "Mpembe health centre", "location": "Karongi", "tel": "No phone number"}, {"name": "Mugonero Hospital", "location": "Karongi", "tel": "No phone number"}, {"name": "Kirinda District Hospital", "location": "Karongi", "tel": "0788394927"}, {"name": "Mubuga Health Centre", "location": "Karongi", "tel": "No phone number"}, {"name": "Gatwaro Health Centre", "location": "Karongi", "tel": "No phone number"}, {"name": "Munzanga Health Centre", "location": "Karongi", "tel": "No phone number"}, {"name": "Bubazi Health Centre", "location": "Karongi", "tel": "No phone number"}, {"name": "Gisovu Health Centre", "location": "Karongi", "tel": "No phone number"}, {"name": "Mahembe Health Centre", "location": "Karongi", "tel": "No phone number"}, {"name": "Karambo Health Centre", "location": "Karongi", "tel": "No phone number"}, {"name": "Muremure Health Centre", "location": "Karongi", "tel": "No phone number"}, {"name": "Birambo Health Centre", "location": "Karongi", "tel": "No phone number"}, {"name": "Rugabano Health Centre", "location": "Karongi", "tel": "No phone number"}, {"name": "E.S. Mubuga", "location": "Karongi", "tel": "No phone number"}, {"name": "Bisesero Health Centre", "location": "Karongi", "tel": "No phone number"}, {"name": "Police Clinic", "location": "Karongi", "tel": "No phone number"}, {"name": "Mwendo Health Centre", "location": "Karongi", "tel": "No phone number"}, {"name": "Mugano Health Centre", "location": "Karongi", "tel": "No phone number"}, {"name": "Kavumu Health Post", "location": "Karongi", "tel": "No phone number"}, {"name": "Mukungu Health Centre", "location": "Karongi", "tel": "No phone number"}, {"name": "Nyange II Health Centre", "location": "Karongi", "tel": "No phone number"}, {"name": "Karora Health Centre", "location": "Karongi", "tel": "No phone number"}, {"name": "Rufungo Health Centre", "location": "Karongi", "tel": "No phone number"}, {"name": "Biguhu Health Centre", "location": "Karongi", "tel": "No phone number"}, {"name": "Nyarwungo Health Centre", "location": "Karongi", "tel": "No phone number"}, {"name": "Mukura Health Centre", "location": "Karongi", "tel": "No phone number"}, {"name": "Buhoro Health Centre", "location": "Karongi", "tel": "No phone number"}, {"name": "Mushubati Health Centre", "location": "Karongi", "tel": "No phone number"}, {"name": "Murambi Health Centre", "location": "Karongi", "tel": "No phone number"}, {"name": "Bigugu Health Center", "location": "Karongi", "tel": "No phone number"}, {"name": "Musango Health Centre", "location": "Karongi", "tel": "No phone number"}, {"name": "Muyunzwe Health Centre", "location": "Karongi", "tel": "No phone number"}, {"name": "Gishweru Health Centre", "location": "Karongi", "tel": "No phone number"}, {"name": "Rwinkwavu Hospital", "location": "Kayonza", "tel": "0785287160"}, {"name": "Nyamirama Health Center", "location": "Kayonza", "tel": "No phone number"}, {"name": "Rutare Health Center", "location": "Kayonza", "tel": "No phone number"}, {"name": "Rwamagana Hospital", "location": "Kayonza", "tel": "No phone number"}, {"name": "Ruramira Health Center", "location": "Kayonza", "tel": "No phone number"}, {"name": "Rwamagana Health Centre", "location": "Kayonza", "tel": "No phone number"}, {"name": "Nyakabungo Health Center", "location": "Kayonza", "tel": "No phone number"}, {"name": "Rundu Health Post", "location": "Kayonza", "tel": "No phone number"}, {"name": "Ryamanyoni Health Center", "location": "Kayonza", "tel": "No phone number"}, {"name": "Buhabwa Health Center", "location": "Kayonza", "tel": "No phone number"}, {"name": "Nyamirama Health Center", "location": "Kayonza", "tel": "No phone number"}, {"name": "Gahini Health Centre", "location": "Kayonza", "tel": "No phone number"}, {"name": "Karama Health Centre", "location": "Kayonza", "tel": "No phone number"}, {"name": "Gishanda Health Post", "location": "Kayonza", "tel": "No phone number"}, {"name": "Bahubwa Health Centre", "location": "Kayonza", "tel": "No phone number"}, {"name": "Icyizere Psychotherapeutic Center", "location": "Kicukiro", "tel": "0783375550"}, {"name": "Impuhwe Health Post", "location": "Kicukiro", "tel": "No phone number"}, {"name": "BETSAIDA Clinic", "location": "Kicukiro", "tel": "No phone number"}, {"name": "Izere Health Post", "location": "Kicukiro", "tel": "No phone number"}, {"name": "Yashoda Hospitals Medical Information Centre", "location": "Kicukiro", "tel": "No phone number"}, {"name": "PolyClinique du carrefour", "location": "Kicukiro", "tel": "0784840500"}, {"name": "La Croix du Sud Hospital", "location": "Kicukiro", "tel": "0785246882"}, {"name": "Polyclinique du Carrefour", "location": "Kicukiro", "tel": "0784840500"}, {"name": "King Faisal Hospital", "location": "Kicukiro", "tel": "0788384877"}, {"name": "Projet San Francisco", "location": "Kicukiro", "tel": "No phone number"}, {"name": "University Teaching Hospital of Kigali", "location": "Kicukiro", "tel": "No phone number"}, {"name": "Inkuru Nziza Orthopedic Hospital", "location": "Kicukiro", "tel": "0788528238"}, {"name": "Ivuriro Polyfam", "location": "Kicukiro", "tel": "0784161745"}, {"name": "Gikondo Health Centre", "location": "Kicukiro", "tel": "No phone number"}, {"name": "Le Bon Samaritan Polyclinique", "location": "Kicukiro", "tel": "No phone number"}, {"name": "TTP hospital", "location": "Kicukiro", "tel": "0786317897"}, {"name": "VPDD", "location": "Kicukiro", "tel": "No phone number"}, {"name": "NEW VISION Veterinary Hospital Outpost", "location": "Kicukiro", "tel": "0780836952"}, {"name": "Avega Kigali", "location": "Kicukiro", "tel": "No phone number"}, {"name": "Baho International Hospital", "location": "Kicukiro", "tel": "0782343710"}, {"name": "HOPITAL LA CROIX DU SUD KWA NYIRINKWAYA", "location": "Kicukiro", "tel": "0785246882"}, {"name": "Kibagabaga Hospital", "location": "Kicukiro", "tel": "0788732945"}, {"name": "Deva Medical Center", "location": "Kicukiro", "tel": "0788333111"}, {"name": "Muslims New Hospital", "location": "Kicukiro", "tel": "No phone number"}, {"name": "Advanced Dental Centre Remera", "location": "Kicukiro", "tel": "0783013034"}, {"name": "Polyclinique La Medicale (Dr Kanimba Hospital)", "location": "Kicukiro", "tel": "0788305661"}, {"name": "Centre Medical Orkide", "location": "Kicukiro", "tel": "No phone number"}, {"name": "HVP/Gatenga-Gikondo", "location": "Kicukiro", "tel": "No phone number"}, {"name": "Muhima Hospital", "location": "Kicukiro", "tel": "0728283887"}, {"name": "Ejo Heza Clinic", "location": "Kicukiro", "tel": "0785845994"}, {"name": "Kirehe Hospital", "location": "Kirehe", "tel": "No phone number"}, {"name": "Kirehe Health Center", "location": "Kirehe", "tel": "No phone number"}, {"name": "Bukira Health Centre", "location": "Kirehe", "tel": "No phone number"}, {"name": "Ntaruka Health Centre", "location": "Kirehe", "tel": "No phone number"}, {"name": "Nyarubuye Health Centre", "location": "Kirehe", "tel": "No phone number"}, {"name": "Health Center Bukora", "location": "Kirehe", "tel": "No phone number"}, {"name": "Kabigembe Health Centre", "location": "Kirehe", "tel": "No phone number"}, {"name": "Kiyanzi Health Center", "location": "Kirehe", "tel": "No phone number"}, {"name": "Nyabitare Health Centre", "location": "Kirehe", "tel": "No phone number"}, {"name": "Rukira Health Centre", "location": "Kirehe", "tel": "No phone number"}, {"name": "Munini Health Centre", "location": "Kirehe", "tel": "No phone number"}, {"name": "Kabgayi Hospital", "location": "Muhanga", "tel": "No phone number"}, {"name": "Kabgayi District Hospital", "location": "Muhanga", "tel": "No phone number"}, {"name": "Muhororo Hospital", "location": "Muhanga", "tel": "No phone number"}, {"name": "Birehe Health Centre", "location": "Muhanga", "tel": "No phone number"}, {"name": "Ruhango Health Post", "location": "Muhanga", "tel": "No phone number"}, {"name": "Mushishiro Health Centre", "location": "Muhanga", "tel": "No phone number"}, {"name": "Kabgayi Health Centre", "location": "Muhanga", "tel": "No phone number"}, {"name": "Nyarusange Health Post", "location": "Muhanga", "tel": "No phone number"}, {"name": "Mount Ndiza", "location": "Muhanga", "tel": "No phone number"}, {"name": "Kibyimba Health Centre", "location": "Muhanga", "tel": "No phone number"}, {"name": "Cyeza Health Post", "location": "Muhanga", "tel": "No phone number"}, {"name": "Ngoma Health Post", "location": "Muhanga", "tel": "No phone number"}, {"name": "Kavumu Health Post", "location": "Muhanga", "tel": "No phone number"}, {"name": "Gasovu Health Centre", "location": "Muhanga", "tel": "No phone number"}, {"name": "Rutongo Health Post", "location": "Muhanga", "tel": "No phone number"}, {"name": "Gitarama Health Centre", "location": "Muhanga", "tel": "No phone number"}, {"name": "Cyanza Health Centre", "location": "Muhanga", "tel": "No phone number"}, {"name": "Shyogwe Health Centre", "location": "Muhanga", "tel": "No phone number"}, {"name": "Buhoro Health Centre", "location": "Muhanga", "tel": "No phone number"}, {"name": "Rutobwe Health Post", "location": "Muhanga", "tel": "No phone number"}, {"name": "Rubona Health Center", "location": "Muhanga", "tel": "No phone number"}, {"name": "Ngeru Health Post", "location": "Muhanga", "tel": "No phone number"}, {"name": "Kiziguro Health Centre", "location": "Muhanga", "tel": "No phone number"}, {"name": "Muhororo Health Center", "location": "Muhanga", "tel": "No phone number"}, {"name": "Kivumu Health Center", "location": "Muhanga", "tel": "No phone number"}, {"name": "Beula Health Post", "location": "Muhanga", "tel": "No phone number"}, {"name": "Gishweru Health Centre", "location": "Muhanga", "tel": "No phone number"}, {"name": "Ruli District Hospital", "location": "Muhanga", "tel": "No phone number"}, {"name": "Busoro Health Clinic", "location": "Muhanga", "tel": "No phone number"}, {"name": "Nyange I Health Centre", "location": "Muhanga", "tel": "No phone number"}, {"name": "Musumbira Health Center", "location": "Muhanga", "tel": "No phone number"}, {"name": "Bitabage Health Post", "location": "Muhanga", "tel": "No phone number"}, {"name": "Nyange II Health Centre", "location": "Muhanga", "tel": "No phone number"}, {"name": "Gatumba Health Centre", "location": "Muhanga", "tel": "No phone number"}, {"name": "Mbuye Health Centre", "location": "Muhanga", "tel": "No phone number"}, {"name": "Shyira Hospital", "location": "Muhanga", "tel": "0788561751"}, {"name": "Mataba Health Centre", "location": "Muhanga", "tel": "No phone number"}, {"name": "Clinic La providences", "location": "Muhanga", "tel": "No phone number"}, {"name": "Musanze Hospital", "location": "Musanze", "tel": "0788294727"}, {"name": "Karwasa Health Centre", "location": "Musanze", "tel": "No phone number"}, {"name": "Pro Omnibus Polyclinic", "location": "Musanze", "tel": "0783739549"}, {"name": "Gasakuza Health Post", "location": "Musanze", "tel": "No phone number"}, {"name": "Musanze District HIV Stop Center", "location": "Musanze", "tel": "No phone number"}, {"name": "Rwankeri Hospital", "location": "Musanze", "tel": "No phone number"}, {"name": "Nyundo Health Centre", "location": "Musanze", "tel": "No phone number"}, {"name": "Musanze Hospital", "location": "Musanze", "tel": "No phone number"}, {"name": "Shingiro Hospital", "location": "Musanze", "tel": "No phone number"}, {"name": "Kamubuga Health Post", "location": "Musanze", "tel": "No phone number"}, {"name": "Rushoka Health Centre", "location": "Musanze", "tel": "No phone number"}, {"name": "Ntaruka Health Centre", "location": "Musanze", "tel": "No phone number"}, {"name": "Mutara Health Centre", "location": "Musanze", "tel": "No phone number"}, {"name": "Busengo Health Centre", "location": "Musanze", "tel": "No phone number"}, {"name": "Kintobo Health Post", "location": "Musanze", "tel": "No phone number"}, {"name": "Shyira Hospital", "location": "Musanze", "tel": "0788561751"}, {"name": "New Vision Veterinary Hospital", "location": "Musanze", "tel": "0781204364"}, {"name": "Kareba Health Centre", "location": "Musanze", "tel": "No phone number"}, {"name": "Nemba Hospital", "location": "Musanze", "tel": "No phone number"}, {"name": "Gasiza Health Centre", "location": "Musanze", "tel": "No phone number"}, {"name": "Kimonyi Health Center", "location": "Musanze", "tel": "No phone number"}, {"name": "Poste De Sant\u00e9 De Birwa", "location": "Musanze", "tel": "No phone number"}, {"name": "Burera District Hospital", "location": "Musanze", "tel": "No phone number"}, {"name": "Kabyiniro Health Centre", "location": "Musanze", "tel": "No phone number"}, {"name": "Rwaza Health Center", "location": "Musanze", "tel": "No phone number"}, {"name": "Nyakigezi Health Centre", "location": "Musanze", "tel": "No phone number"}, {"name": "Byakiriba Health Centre", "location": "Musanze", "tel": "No phone number"}, {"name": "Busogo Health Center", "location": "Musanze", "tel": "No phone number"}, {"name": "Rugarama Health Centre", "location": "Musanze", "tel": "No phone number"}, {"name": "Shingiro Health Center", "location": "Musanze", "tel": "No phone number"}, {"name": "Rutake Health Centre", "location": "Musanze", "tel": "No phone number"}, {"name": "Nemba hospital", "location": "Musanze", "tel": "No phone number"}, {"name": "Kibungo Hospital", "location": "Ngoma", "tel": "No phone number"}, {"name": "Muhororo Hospital", "location": "Ngororero", "tel": "No phone number"}, {"name": "Ngororero Health Post", "location": "Ngororero", "tel": "No phone number"}, {"name": "Nyange I Health Centre", "location": "Ngororero", "tel": "No phone number"}, {"name": "Ntaganzwa Health Centre", "location": "Ngororero", "tel": "No phone number"}, {"name": "Hindiro Health Post", "location": "Ngororero", "tel": "No phone number"}, {"name": "Gitwa Health Post", "location": "Ngororero", "tel": "No phone number"}, {"name": "Gatumba Health Centre", "location": "Ngororero", "tel": "No phone number"}, {"name": "Muhororo Health Center", "location": "Ngororero", "tel": "No phone number"}, {"name": "Kiziguro Health Centre", "location": "Ngororero", "tel": "No phone number"}, {"name": "Iwacu Health Centre", "location": "Ngororero", "tel": "No phone number"}, {"name": "Muramba Health Centre", "location": "Ngororero", "tel": "No phone number"}, {"name": "Ramba Health Center", "location": "Ngororero", "tel": "No phone number"}, {"name": "Buhoro Health Centre", "location": "Ngororero", "tel": "No phone number"}, {"name": "Ruhango Health Post", "location": "Ngororero", "tel": "No phone number"}, {"name": "Shyira Hospital", "location": "Nyabihu", "tel": "0788561751"}, {"name": "SHYIRA HOSPITAL", "location": "Nyabihu", "tel": "No phone number"}, {"name": "Rwankeri Hospital", "location": "Nyabihu", "tel": "No phone number"}, {"name": "Kintobo Health Post", "location": "Nyabihu", "tel": "No phone number"}, {"name": "Rurembo Health Centre", "location": "Nyabihu", "tel": "No phone number"}, {"name": "Vunga Health Post", "location": "Nyabihu", "tel": "No phone number"}, {"name": "Maternity building", "location": "Nyabihu", "tel": "No phone number"}, {"name": "Byakiriba Health Centre", "location": "Nyabihu", "tel": "No phone number"}, {"name": "Rwankeri Health Centre", "location": "Nyabihu", "tel": "No phone number"}, {"name": "Nyakigezi Health Centre", "location": "Nyabihu", "tel": "No phone number"}, {"name": "Kareba Health Centre", "location": "Nyabihu", "tel": "No phone number"}, {"name": "Kabaya Hospital", "location": "Nyabihu", "tel": "No phone number"}, {"name": "Nyiragikokora Health Post", "location": "Nyabihu", "tel": "No phone number"}, {"name": "Bugeshi Health Post", "location": "Nyabihu", "tel": "No phone number"}, {"name": "Janja Health Centre", "location": "Nyabihu", "tel": "No phone number"}, {"name": "Mudende Health Centre", "location": "Nyabihu", "tel": "No phone number"}, {"name": "Iwacu Health Centre", "location": "Nyabihu", "tel": "No phone number"}, {"name": "Jomba Health Centre", "location": "Nyabihu", "tel": "No phone number"}, {"name": "Nyundo Health Centre", "location": "Nyabihu", "tel": "No phone number"}, {"name": "Musanze Hospital", "location": "Nyabihu", "tel": "No phone number"}, {"name": "Nyagatare Hospital", "location": "Nyagatare", "tel": "No phone number"}, {"name": "Nyagatare Hospital", "location": "Nyagatare", "tel": "No phone number"}, {"name": "Nyagatare Health Center", "location": "Nyagatare", "tel": "No phone number"}, {"name": "Cyabayaga Health Centre", "location": "Nyagatare", "tel": "No phone number"}, {"name": "Nyendo Health Centre", "location": "Nyagatare", "tel": "No phone number"}, {"name": "Kabuga Health Centre", "location": "Nyagatare", "tel": "No phone number"}, {"name": "Nyakigando Health Centre", "location": "Nyagatare", "tel": "No phone number"}, {"name": "Ntoma Health Center", "location": "Nyagatare", "tel": "No phone number"}, {"name": "Muhambo Health Centre", "location": "Nyagatare", "tel": "No phone number"}, {"name": "Kanyundo Health Center", "location": "Nyagatare", "tel": "No phone number"}, {"name": "Ndama Health Center", "location": "Nyagatare", "tel": "No phone number"}, {"name": "Rwenjara Health Center", "location": "Nyagatare", "tel": "No phone number"}, {"name": "Hunga Health Post", "location": "Nyagatare", "tel": "No phone number"}, {"name": "Nyagihita Health Centre", "location": "Nyagatare", "tel": "No phone number"}, {"name": "Rwembasha Health Center", "location": "Nyagatare", "tel": "No phone number"}, {"name": "KARANGAZI Health center", "location": "Nyagatare", "tel": "No phone number"}, {"name": "Ngarama Hospital", "location": "Nyagatare", "tel": "No phone number"}, {"name": "Rurenge Health Centre", "location": "Nyagatare", "tel": "No phone number"}, {"name": "Bugaragara Health Centre", "location": "Nyagatare", "tel": "No phone number"}, {"name": "Burera District Hospital", "location": "Nyagatare", "tel": "No phone number"}, {"name": "Musenyi Health Post", "location": "Nyagatare", "tel": "No phone number"}, {"name": "Nyagihanga Health Center", "location": "Nyagatare", "tel": "No phone number"}, {"name": "Muhambo Health Center", "location": "Nyagatare", "tel": "No phone number"}, {"name": "Ineza Clinic", "location": "Nyagatare", "tel": "No phone number"}, {"name": "Mimuli Health Centre", "location": "Nyagatare", "tel": "No phone number"}, {"name": "Mayange Health Post", "location": "Nyagatare", "tel": "No phone number"}, {"name": "Rushaki Health Center", "location": "Nyagatare", "tel": "No phone number"}, {"name": "Kibondo Health Centre", "location": "Nyagatare", "tel": "No phone number"}, {"name": "Matimba Health Center", "location": "Nyagatare", "tel": "No phone number"}, {"name": "Cyondo Health Centre", "location": "Nyagatare", "tel": "No phone number"}, {"name": "Bungwe Health Post", "location": "Nyagatare", "tel": "No phone number"}, {"name": "Kiziguro Hospital", "location": "Nyagatare", "tel": "No phone number"}, {"name": "Musenda Health Post", "location": "Nyagatare", "tel": "No phone number"}, {"name": "COU Kisui Hospital", "location": "Nyagatare", "tel": "No phone number"}, {"name": "Gaseke Health Post", "location": "Nyagatare", "tel": "No phone number"}, {"name": "Nyagatare", "location": "Nyagatare", "tel": "No phone number"}, {"name": "Bukinda HC IV", "location": "Nyagatare", "tel": "No phone number"}, {"name": "Rugarama Hospital", "location": "Nyagatare", "tel": "No phone number"}, {"name": "Kigeme Hospital", "location": "Nyamagabe", "tel": "No phone number"}, {"name": "Kaduha Hospital", "location": "Nyamagabe", "tel": "No phone number"}, {"name": "Kigeme Hospital", "location": "Nyamagabe", "tel": "No phone number"}, {"name": "Cyanika Health Centre", "location": "Nyamagabe", "tel": "No phone number"}, {"name": "Bamba Health Centre", "location": "Nyamagabe", "tel": "No phone number"}, {"name": "Kirambi Health Centre", "location": "Nyamagabe", "tel": "No phone number"}, {"name": "Cyinyonza Health Post", "location": "Nyamagabe", "tel": "No phone number"}, {"name": "Kinyamakara Health Centre", "location": "Nyamagabe", "tel": "No phone number"}, {"name": "Nyarusiza Health Centre", "location": "Nyamagabe", "tel": "No phone number"}, {"name": "Bugarama Health Post", "location": "Nyamagabe", "tel": "No phone number"}, {"name": "Mucubira Health Centre", "location": "Nyamagabe", "tel": "No phone number"}, {"name": "Mushubi Health Centre", "location": "Nyamagabe", "tel": "No phone number"}, {"name": "Gatare Health Centre", "location": "Nyamagabe", "tel": "No phone number"}, {"name": "Mugano Health Centre", "location": "Nyamagabe", "tel": "No phone number"}, {"name": "Kitabi Health Centre", "location": "Nyamagabe", "tel": "No phone number"}, {"name": "Cyahafi Health Centre", "location": "Nyamagabe", "tel": "No phone number"}, {"name": "Mukungu Health Centre", "location": "Nyamagabe", "tel": "No phone number"}, {"name": "Ngara Health Centre", "location": "Nyamagabe", "tel": "No phone number"}, {"name": "Gishike Health Centre", "location": "Nyamagabe", "tel": "No phone number"}, {"name": "Rugege Health Centre", "location": "Nyamagabe", "tel": "No phone number"}, {"name": "Uwinkinji Health Centre", "location": "Nyamagabe", "tel": "No phone number"}, {"name": "Biguhu Health Centre", "location": "Nyamagabe", "tel": "No phone number"}, {"name": "Nyarwungo Health Centre", "location": "Nyamagabe", "tel": "No phone number"}, {"name": "Jenda Health Centre", "location": "Nyamagabe", "tel": "No phone number"}, {"name": "Mbuga Health Centre", "location": "Nyamagabe", "tel": "No phone number"}, {"name": "Health Center De Musebeya", "location": "Nyamagabe", "tel": "No phone number"}, {"name": "Kivu Health Centre", "location": "Nyamagabe", "tel": "No phone number"}, {"name": "Nyamagabe Health Centre", "location": "Nyamagabe", "tel": "No phone number"}, {"name": "Kirinda District Hospital", "location": "Nyamagabe", "tel": "0788394927"}, {"name": "Nyamasheke Health Centre", "location": "Nyamasheke", "tel": "0722753776"}, {"name": "Kibogora Hospital", "location": "Nyamasheke", "tel": "0788256602"}, {"name": "Gisakura Health Center", "location": "Nyamasheke", "tel": "No phone number"}, {"name": "Mugonero Hospital", "location": "Nyamasheke", "tel": "No phone number"}, {"name": "Bushenge Hospital", "location": "Nyamasheke", "tel": "No phone number"}, {"name": "Bushenge Hospital", "location": "Nyamasheke", "tel": "No phone number"}, {"name": "Mibirizi Hospital", "location": "Nyamasheke", "tel": "No phone number"}, {"name": "Kibogora District Hospital", "location": "Nyamasheke", "tel": "No phone number"}, {"name": "Karambi Health Centre", "location": "Nyamasheke", "tel": "No phone number"}, {"name": "Rangiro Health Centre", "location": "Nyamasheke", "tel": "No phone number"}, {"name": "Shara Health Centre", "location": "Nyamasheke", "tel": "No phone number"}, {"name": "Muyange Health Center", "location": "Nyamasheke", "tel": "No phone number"}, {"name": "Mahembe Health Centre", "location": "Nyamasheke", "tel": "No phone number"}, {"name": "Kibingo Health Centre", "location": "Nyamasheke", "tel": "No phone number"}, {"name": "Banda Health Post", "location": "Nyamasheke", "tel": "No phone number"}, {"name": "Nyabitimbo Health Centre", "location": "Nyamasheke", "tel": "No phone number"}, {"name": "Mukoma Health Centre", "location": "Nyamasheke", "tel": "No phone number"}, {"name": "Kizibira Health Centre", "location": "Nyamasheke", "tel": "No phone number"}, {"name": "Shangi Health Centre", "location": "Nyamasheke", "tel": "No phone number"}, {"name": "Mwito Health Center", "location": "Nyamasheke", "tel": "No phone number"}, {"name": "Ruheru Health Centre", "location": "Nyamasheke", "tel": "No phone number"}, {"name": "Gihundwe Health Centre", "location": "Nyamasheke", "tel": "No phone number"}, {"name": "Mugera Health Centre", "location": "Nyamasheke", "tel": "No phone number"}, {"name": "Mubirizi Health Centre", "location": "Nyamasheke", "tel": "No phone number"}, {"name": "Nkungu Health Centre", "location": "Nyamasheke", "tel": "No phone number"}, {"name": "Murambi Health Post", "location": "Nyamasheke", "tel": "No phone number"}, {"name": "Mwenzi Health Centre", "location": "Nyamasheke", "tel": "No phone number"}, {"name": "Nyakabuye Health Post", "location": "Nyamasheke", "tel": "No phone number"}, {"name": "Jarama Health Centre", "location": "Nyamasheke", "tel": "No phone number"}, {"name": "Mubuga Health Centre", "location": "Nyamasheke", "tel": "No phone number"}, {"name": "Kibagabaga Hospital", "location": "Nyanza", "tel": "0788732945"}, {"name": "King Faisal Hospital", "location": "Nyanza", "tel": "0788384877"}, {"name": "Muhima Hospital", "location": "Nyanza", "tel": "0728283887"}, {"name": "University Teaching Hospital of Kigali", "location": "Nyanza", "tel": "No phone number"}, {"name": "Polyclinique La Medicale (Dr Kanimba Hospital)", "location": "Nyanza", "tel": "0788305661"}, {"name": "Ejo Heza Clinic", "location": "Nyanza", "tel": "0785845994"}, {"name": "Dream Medical Center Hospital", "location": "Nyanza", "tel": "0782749660"}, {"name": "King Faisal Hospital - Kigali", "location": "Nyanza", "tel": "0788384877"}, {"name": "Rutongo Hospital", "location": "Nyanza", "tel": "0784085503"}, {"name": "Muyunzwe Health Centre", "location": "Nyanza", "tel": "No phone number"}, {"name": "Nyamata Hospital", "location": "Nyanza", "tel": "No phone number"}, {"name": "Hvp Gatagara", "location": "Nyanza", "tel": "No phone number"}, {"name": "Masaka Hospital", "location": "Nyanza", "tel": "No phone number"}, {"name": "Ruli District Hospital", "location": "Nyanza", "tel": "No phone number"}, {"name": "Kiziguro Hospital", "location": "Nyanza", "tel": "No phone number"}, {"name": "Kabgayi Hospital", "location": "Nyanza", "tel": "No phone number"}, {"name": "Rwamagana Hospital", "location": "Nyanza", "tel": "No phone number"}, {"name": "Ngarama Hospital", "location": "Nyanza", "tel": "No phone number"}, {"name": "Nemba Hospital", "location": "Nyanza", "tel": "No phone number"}, {"name": "Gitwe Hospital", "location": "Nyanza", "tel": "No phone number"}, {"name": "Gakoma Hospital", "location": "Nyanza", "tel": "No phone number"}, {"name": "Shyira Hospital", "location": "Nyanza", "tel": "0788561751"}, {"name": "Rwinkwavu Hospital", "location": "Nyanza", "tel": "0785287160"}, {"name": "Kirehe Hospital", "location": "Nyanza", "tel": "No phone number"}, {"name": "Kaduha Hospital", "location": "Nyanza", "tel": "No phone number"}, {"name": "Kigeme Hospital", "location": "Nyanza", "tel": "No phone number"}, {"name": "Burera District Hospital", "location": "Nyanza", "tel": "No phone number"}, {"name": "Kabutare Hospital", "location": "Nyanza", "tel": "No phone number"}, {"name": "Murunda Hospital", "location": "Nyanza", "tel": "No phone number"}, {"name": "Kabaya Hospital", "location": "Nyanza", "tel": "No phone number"}, {"name": "Mugonero Hospital", "location": "Nyanza", "tel": "No phone number"}, {"name": "Gisenyi Hospital", "location": "Nyanza", "tel": "No phone number"}, {"name": "Kigeme Hospital", "location": "Nyanza", "tel": "No phone number"}, {"name": "Hospital Nyanza-Lac", "location": "Nyanza", "tel": "No phone number"}, {"name": "Gihundwe District Hospital", "location": "Nyanza", "tel": "No phone number"}, {"name": "Muslims New Hospital", "location": "Nyarugenge", "tel": "No phone number"}, {"name": "University Teaching Hospital of Kigali", "location": "Nyarugenge", "tel": "No phone number"}, {"name": "Biryogo Health centre", "location": "Nyarugenge", "tel": "No phone number"}, {"name": "Ejo Heza Clinic", "location": "Nyarugenge", "tel": "0785845994"}, {"name": "Soeurs Bernadine", "location": "Nyarugenge", "tel": "No phone number"}, {"name": "Baho Medical Center", "location": "Nyarugenge", "tel": "0788564753"}, {"name": "Muhima Hospital", "location": "Nyarugenge", "tel": "0728283887"}, {"name": "Polyclinique La Medicale (Dr Kanimba Hospital)", "location": "Nyarugenge", "tel": "0788305661"}, {"name": "Asha Medical Services (Manipal Group of Hospitals)", "location": "Nyarugenge", "tel": "No phone number"}, {"name": "St peter biomedical laboratories clinic", "location": "Nyarugenge", "tel": "0788672818"}, {"name": "Dynapharm Rwanda", "location": "Nyarugenge", "tel": "0782816888"}, {"name": "King Faisal Hospital", "location": "Nyarugenge", "tel": "0788384877"}, {"name": "Inkuru Nziza Orthopedic Hospital", "location": "Nyarugenge", "tel": "0788528238"}, {"name": "Dr. Jhon Cloths,", "location": "Nyarugenge", "tel": "No phone number"}, {"name": "Kacyiru Hospital", "location": "Nyarugenge", "tel": "0785061906"}, {"name": "Polyclinique Saint Jean", "location": "Nyarugenge", "tel": "0786635315"}, {"name": "Gikondo Health Centre", "location": "Nyarugenge", "tel": "No phone number"}, {"name": "TTP hospital", "location": "Nyarugenge", "tel": "0786317897"}, {"name": "La Croix du Sud Hospital", "location": "Nyarugenge", "tel": "0785246882"}, {"name": "Baho International Hospital", "location": "Nyarugenge", "tel": "0782343710"}, {"name": "Polyclinique M\u00e9dico-Sociale", "location": "Nyarugenge", "tel": "No phone number"}, {"name": "Kibagabaga Hospital", "location": "Nyarugenge", "tel": "0788732945"}, {"name": "Polyclinic Du Bon Berger", "location": "Nyarugenge", "tel": "No phone number"}, {"name": "Nyarugenge Health Center", "location": "Nyarugenge", "tel": "No phone number"}, {"name": "Munini Hospital", "location": "Nyaruguru", "tel": "No phone number"}, {"name": "Centre De SANTE DE NYABIMATA", "location": "Nyaruguru", "tel": "No phone number"}, {"name": "Ruheru Health Center", "location": "Nyaruguru", "tel": "No phone number"}, {"name": "Ngoma Health Centre", "location": "Nyaruguru", "tel": "No phone number"}, {"name": "Coko Health Centre", "location": "Nyaruguru", "tel": "No phone number"}, {"name": "Bukomeye Health Post", "location": "Nyaruguru", "tel": "No phone number"}, {"name": "Kansi Health Centre", "location": "Nyaruguru", "tel": "No phone number"}, {"name": "Runyombyi Health Centre", "location": "Nyaruguru", "tel": "No phone number"}, {"name": "Gakaranka Health Centre", "location": "Nyaruguru", "tel": "No phone number"}, {"name": "Cyahinda Health Centre", "location": "Nyaruguru", "tel": "No phone number"}, {"name": "Busoro-Gishamvu Health Centre", "location": "Nyaruguru", "tel": "No phone number"}, {"name": "Nyantanga Health Centre", "location": "Nyaruguru", "tel": "No phone number"}, {"name": "Kabilizi Health Centre", "location": "Nyaruguru", "tel": "No phone number"}, {"name": "Nyabimata Health Center", "location": "Nyaruguru", "tel": "No phone number"}, {"name": "Ngera Health Centre", "location": "Nyaruguru", "tel": "No phone number"}, {"name": "Kigembe Health Centre", "location": "Nyaruguru", "tel": "No phone number"}, {"name": "Maraba Health Centre", "location": "Nyaruguru", "tel": "No phone number"}, {"name": "Kivu Health Centre", "location": "Nyaruguru", "tel": "No phone number"}, {"name": "Muganza Health Centre", "location": "Nyaruguru", "tel": "No phone number"}, {"name": "Rubamba Health Centre", "location": "Nyaruguru", "tel": "No phone number"}, {"name": "Nyamyumba Health Centre", "location": "Nyaruguru", "tel": "No phone number"}, {"name": "Gisenyi Hospital", "location": "Rubavu", "tel": "No phone number"}, {"name": "Maman Catherine Health Post", "location": "Rubavu", "tel": "No phone number"}, {"name": "Nyundo Health Center", "location": "Rubavu", "tel": "No phone number"}, {"name": "Pharmacie Du District De Rubavu", "location": "Rubavu", "tel": "No phone number"}, {"name": "Ivuriro", "location": "Rubavu", "tel": "No phone number"}, {"name": "Clinic Horana Ubuzima LTD", "location": "Rubavu", "tel": "0785014749"}, {"name": "Iwacu Clinic", "location": "Rubavu", "tel": "No phone number"}, {"name": "Kigufi Health Center", "location": "Rubavu", "tel": "No phone number"}, {"name": "Gisenyi Dialysis Center - Africa Healthcare Network", "location": "Rubavu", "tel": "0782984610"}, {"name": "Ndengera Health Post", "location": "Rubavu", "tel": "No phone number"}, {"name": "Medical Clinic De L'arche", "location": "Rubavu", "tel": "0786226457"}, {"name": "Ruhango Health Centre", "location": "Ruhango", "tel": "No phone number"}, {"name": "Ihumure", "location": "Ruhango", "tel": "No phone number"}, {"name": "Ruhango Provincial Hospital", "location": "Ruhango", "tel": "No phone number"}, {"name": "Gitwe Hospital", "location": "Ruhango", "tel": "No phone number"}, {"name": "Kabgayi Hospital", "location": "Ruhango", "tel": "No phone number"}, {"name": "Hvp Gatagara", "location": "Ruhango", "tel": "No phone number"}, {"name": "Kigoma Health Centre", "location": "Ruhango", "tel": "No phone number"}, {"name": "Gitwe Hospital", "location": "Ruhango", "tel": "No phone number"}, {"name": "Kabgayi District Hospital", "location": "Ruhango", "tel": "No phone number"}, {"name": "Umufasha", "location": "Ruhango", "tel": "No phone number"}, {"name": "Kizibere Health Centre", "location": "Ruhango", "tel": "No phone number"}, {"name": "Muhima Hospital", "location": "Ruhango", "tel": "0728283887"}, {"name": "King Faisal Hospital", "location": "Ruhango", "tel": "0788384877"}, {"name": "Kibagabaga Hospital", "location": "Ruhango", "tel": "0788732945"}, {"name": "Cyanza Health Centre", "location": "Ruhango", "tel": "No phone number"}, {"name": "Kaduha Hospital", "location": "Ruhango", "tel": "No phone number"}, {"name": "Gakoma Hospital", "location": "Ruhango", "tel": "No phone number"}, {"name": "Shyogwe Health Centre", "location": "Ruhango", "tel": "No phone number"}, {"name": "Gitwe Health Centre", "location": "Ruhango", "tel": "No phone number"}, {"name": "Kigeme Hospital", "location": "Ruhango", "tel": "No phone number"}, {"name": "Ruhango Health Centre", "location": "Ruhango", "tel": "No phone number"}, {"name": "Ihumure", "location": "Ruhango", "tel": "No phone number"}, {"name": "Rutongo Hospital", "location": "Rulindo", "tel": "0784085503"}, {"name": "Kinihira Provincial Hospital", "location": "Rulindo", "tel": "0783455576"}, {"name": "Ngiryi Health Post", "location": "Rulindo", "tel": "No phone number"}, {"name": "Tare Hospital", "location": "Rulindo", "tel": "No phone number"}, {"name": "Kajevuba Health Centre", "location": "Rulindo", "tel": "No phone number"}, {"name": "Rutongo Ditsrict Hospital", "location": "Rulindo", "tel": "No phone number"}, {"name": "Jali Health Centre", "location": "Rulindo", "tel": "No phone number"}, {"name": "Kiyanza Health Centre", "location": "Rulindo", "tel": "No phone number"}, {"name": "Murambi Health Centre", "location": "Rulindo", "tel": "No phone number"}, {"name": "Rwahi Health Centre", "location": "Rulindo", "tel": "No phone number"}, {"name": "Nyabuko Health Post", "location": "Rulindo", "tel": "No phone number"}, {"name": "Bumba Health Post", "location": "Rulindo", "tel": "No phone number"}, {"name": "Tumba Health Centre", "location": "Rulindo", "tel": "No phone number"}, {"name": "Base Health Centre", "location": "Rulindo", "tel": "No phone number"}, {"name": "Bweramvura Health Post", "location": "Rulindo", "tel": "No phone number"}, {"name": "Hospital", "location": "Rulindo", "tel": "No phone number"}, {"name": "University Teaching Hospital of Kigali", "location": "Rulindo", "tel": "No phone number"}, {"name": "Kinihira District Hospital (Rulindo)", "location": "Rulindo", "tel": "No phone number"}, {"name": "Muhima Hospital", "location": "Rulindo", "tel": "0728283887"}, {"name": "Ruli District Hospital", "location": "Rulindo", "tel": "No phone number"}, {"name": "Musenyi Health Centre", "location": "Rulindo", "tel": "No phone number"}, {"name": "King Faisal Hospital", "location": "Rulindo", "tel": "0788384877"}, {"name": "Polyclinique La Medicale (Dr Kanimba Hospital)", "location": "Rulindo", "tel": "0788305661"}, {"name": "Rwankuba Health Centre", "location": "Rulindo", "tel": "No phone number"}, {"name": "Muhondo Health Centre", "location": "Rulindo", "tel": "No phone number"}, {"name": "Gihundwe District Hospital", "location": "Rusizi", "tel": "No phone number"}, {"name": "Mibirizi Hospital", "location": "Rusizi", "tel": "No phone number"}, {"name": "Rusizi Health Centre", "location": "Rusizi", "tel": "No phone number"}, {"name": "Bushenge Hospital", "location": "Rusizi", "tel": "No phone number"}, {"name": "Bushenge provincial hospital", "location": "Rusizi", "tel": "No phone number"}, {"name": "Hospital Military Fac", "location": "Rusizi", "tel": "No phone number"}, {"name": "Nyabitimbo Health Centre", "location": "Rusizi", "tel": "No phone number"}, {"name": "Bweyeye Health Centre", "location": "Rusizi", "tel": "No phone number"}, {"name": "Skyborne Hospital", "location": "Rusizi", "tel": "No phone number"}, {"name": "Nkanka Health Center", "location": "Rusizi", "tel": "No phone number"}, {"name": "Bugarama Health Center", "location": "Rusizi", "tel": "No phone number"}, {"name": "EAR Hospital", "location": "Rusizi", "tel": "No phone number"}, {"name": "Panzi Hospital", "location": "Rusizi", "tel": "No phone number"}, {"name": "Nkombo Health Centre", "location": "Rusizi", "tel": "No phone number"}, {"name": "New Hope Hospital Bukavu", "location": "Rusizi", "tel": "No phone number"}, {"name": "Gasumo Health Centre", "location": "Rusizi", "tel": "No phone number"}, {"name": "Nkungu Health Centre", "location": "Rusizi", "tel": "No phone number"}, {"name": "Nyantende Hospital", "location": "Rusizi", "tel": "No phone number"}, {"name": "Gihundwe Health Centre", "location": "Rusizi", "tel": "No phone number"}, {"name": "Mashesha Health Centre", "location": "Rusizi", "tel": "No phone number"}, {"name": "Vubiro Health Post", "location": "Rusizi", "tel": "No phone number"}, {"name": "Rasano Health Centre", "location": "Rusizi", "tel": "No phone number"}, {"name": "Bugarama Health Centre", "location": "Rusizi", "tel": "No phone number"}, {"name": "Mont Cyangugu Health Center", "location": "Rusizi", "tel": "No phone number"}, {"name": "Gahungeri Health Centre", "location": "Rusizi", "tel": "No phone number"}, {"name": "Clinique Ruhigita - Site Lena", "location": "Rusizi", "tel": "No phone number"}, {"name": "Nyakarenzo Health Centre", "location": "Rusizi", "tel": "No phone number"}, {"name": "Ch Bioglodi", "location": "Rusizi", "tel": "No phone number"}, {"name": "Mwito Health Center", "location": "Rusizi", "tel": "No phone number"}, {"name": "Mubirizi Health Centre", "location": "Rusizi", "tel": "No phone number"}, {"name": "Poste Of", "location": "Rusizi", "tel": "No phone number"}, {"name": "Hopital Biosadec", "location": "Rusizi", "tel": "No phone number"}, {"name": "Tara Health Centre", "location": "Rusizi", "tel": "No phone number"}, {"name": "Nzahaha Health Post", "location": "Rusizi", "tel": "No phone number"}, {"name": "Amizero Health Post", "location": "Rusizi", "tel": "No phone number"}, {"name": "Kamatita Health Centre", "location": "Rusizi", "tel": "No phone number"}, {"name": "Al-imdaad Foundation Democratic Republic Of Congo Branch Office South Kivu Province", "location": "Rusizi", "tel": "No phone number"}, {"name": "Mushaka Health Center", "location": "Rusizi", "tel": "0783188102"}, {"name": "Hospital Center Regideso", "location": "Rusizi", "tel": "No phone number"}, {"name": "Mwenzi Health Centre", "location": "Rusizi", "tel": "No phone number"}, {"name": "CLINIQUE SAINT LUC DE BUKAVU", "location": "Rusizi", "tel": "No phone number"}, {"name": "Clinique Ruhigita - Site Mibulano", "location": "Rusizi", "tel": "No phone number"}, {"name": "Nyakabuye Health Post", "location": "Rusizi", "tel": "No phone number"}, {"name": "Hospital Provincial General Reference De Bukavu", "location": "Rusizi", "tel": "No phone number"}, {"name": "Cimerwa Health Centre", "location": "Rusizi", "tel": "No phone number"}, {"name": "Dr. Agarwals Eye Hospital, Rusizi, Rwanda", "location": "Rusizi", "tel": "No phone number"}, {"name": "Polyclinic Impact Medical", "location": "Rusizi", "tel": "No phone number"}, {"name": "Hospital Center 8\u00e8me Cepac/Cahi", "location": "Rusizi", "tel": "No phone number"}, {"name": "Hospital General De Kadutu", "location": "Rusizi", "tel": "No phone number"}, {"name": "Hospital Center Saint Vincent", "location": "Rusizi", "tel": "No phone number"}, {"name": "Health Center De Kalagane", "location": "Rusizi", "tel": "No phone number"}, {"name": "Murunda Hospital Pediatrie", "location": "Rutsiro", "tel": "No phone number"}, {"name": "Congo Nil Health Centre", "location": "Rutsiro", "tel": "No phone number"}, {"name": "Iwawa Health Center", "location": "Rutsiro", "tel": "No phone number"}, {"name": "Murunda Hospital", "location": "Rutsiro", "tel": "No phone number"}, {"name": "Mushubati Health Centre", "location": "Rutsiro", "tel": "No phone number"}, {"name": "Musasa Health Centre", "location": "Rutsiro", "tel": "No phone number"}, {"name": "Rutsiro Health Centre", "location": "Rutsiro", "tel": "No phone number"}, {"name": "Kinunu Health Centre", "location": "Rutsiro", "tel": "No phone number"}, {"name": "Kayove Health Centre", "location": "Rutsiro", "tel": "No phone number"}, {"name": "Gatare Health Post", "location": "Rutsiro", "tel": "No phone number"}, {"name": "Mukura Health Centre", "location": "Rutsiro", "tel": "No phone number"}, {"name": "Bitenga Health Centre", "location": "Rutsiro", "tel": "No phone number"}, {"name": "Karumbi Health Centre", "location": "Rutsiro", "tel": "No phone number"}, {"name": "Kabona Health Centre", "location": "Rutsiro", "tel": "No phone number"}, {"name": "Murunda Hospital Office", "location": "Rutsiro", "tel": "No phone number"}, {"name": "Kigeyo Health Centre", "location": "Rutsiro", "tel": "No phone number"}, {"name": "Kibingo Health Centre", "location": "Rutsiro", "tel": "No phone number"}, {"name": "Gashumbi Health Centre", "location": "Rutsiro", "tel": "No phone number"}, {"name": "Cyimbili Health Centre", "location": "Rutsiro", "tel": "No phone number"}, {"name": "Rufungo Health Centre", "location": "Rutsiro", "tel": "No phone number"}, {"name": "Karambi Health Post", "location": "Rutsiro", "tel": "No phone number"}, {"name": "Murambi Health Centre", "location": "Rutsiro", "tel": "No phone number"}, {"name": "Rwamagana Hospital", "location": "Rwamagana", "tel": "No phone number"}, {"name": "Rwamagana Health Centre", "location": "Rwamagana", "tel": "No phone number"}, {"name": "Gishari Health Post", "location": "Rwamagana", "tel": "No phone number"}, {"name": "Avega Health Center", "location": "Rwamagana", "tel": "No phone number"}, {"name": "Gahengeri Health Centre", "location": "Rwamagana", "tel": "No phone number"}, {"name": "Rubona Health Centre", "location": "Rwamagana", "tel": "No phone number"}, {"name": "Murehe Health Post", "location": "Rwamagana", "tel": "No phone number"}, {"name": "Ruhunda Health Center", "location": "Rwamagana", "tel": "No phone number"}, {"name": "Fumbwe Health Post", "location": "Rwamagana", "tel": "No phone number"}, {"name": "Munini Health Centre", "location": "Rwamagana", "tel": "No phone number"}, {"name": "Kiziguro Hospital", "location": "Rwamagana", "tel": "No phone number"}, {"name": "Ruramira Health Center", "location": "Rwamagana", "tel": "No phone number"}, {"name": "Murambi Health Centre", "location": "Rwamagana", "tel": "No phone number"}, {"name": "Rwinkwavu Hospital", "location": "Rwamagana", "tel": "0785287160"}, {"name": "Nyamirama Health Center", "location": "Rwamagana", "tel": "No phone number"}, {"name": "Gahini Health Centre", "location": "Rwamagana", "tel": "No phone number"}, {"name": "Nyamirama Health Center", "location": "Rwamagana", "tel": "No phone number"}, {"name": "Masaka Hospital", "location": "Rwamagana", "tel": "0728878194"}, {"name": "Rundu Health Post", "location": "Rwamagana", "tel": "No phone number"}, {"name": "Nyabisindu Health Post", "location": "Rwamagana", "tel": "No phone number"}, {"name": "Rwanda Military Hospital", "location": "Rwamagana", "tel": "No phone number"}]