[{"name": "Palast Rock Hotel", "location": "Bugesera", "tel": "No phone number"}, {"name": "Palast Rock Hotel", "location": "Bugesera", "tel": "No phone number"}, {"name": "Bugesera Lodge", "location": "Bugesera", "tel": "No phone number"}, {"name": "Golden Tulip Hotel", "location": "Bugesera", "tel": "No phone number"}, {"name": "LA PALISSE HOTEL NYAMATA", "location": "Bugesera", "tel": "No phone number"}, {"name": "Cari Hotel", "location": "Bugesera", "tel": "No phone number"}, {"name": "Amakoro Songa Lodge", "location": "Burera", "tel": "No phone number"}, {"name": "Ruhondo Beach Resort", "location": "Burera", "tel": "No phone number"}, {"name": "Bunyonyi Safaris Resort", "location": "Burera", "tel": "No phone number"}, {"name": "Paradise Eco-Hub", "location": "Burera", "tel": "No phone number"}, {"name": "Ruhondo Beach Resort", "location": "Burera", "tel": "No phone number"}, {"name": "Red Rocks Rwanda", "location": "Burera", "tel": "No phone number"}, {"name": "Virunga Lodge", "location": "Burera", "tel": "No phone number"}, {"name": "Montana Vista Hotel - Rwanda, Africa", "location": "Burera", "tel": "No phone number"}, {"name": "Twin Lakes Lodge", "location": "Burera", "tel": "No phone number"}, {"name": "Entusi Resort and Retreat Center", "location": "Burera", "tel": "No phone number"}, {"name": "OM HOSTEL BUNYONYI", "location": "Burera", "tel": "No phone number"}, {"name": "La Paillotte Cyuza Island", "location": "Burera", "tel": "No phone number"}, {"name": "Filon d'Or Guest House and Campsite", "location": "Burera", "tel": "No phone number"}, {"name": "Virunga Hotel and Campsite", "location": "Burera", "tel": "No phone number"}, {"name": "La Locanda", "location": "Burera", "tel": "No phone number"}, {"name": "Isange Paradise Resort", "location": "Burera", "tel": "No phone number"}, {"name": "My Hill Eco Lodge", "location": "Burera", "tel": "No phone number"}, {"name": "Lake Chahafi Resort", "location": "Burera", "tel": "No phone number"}, {"name": "Amahoro Guesthouse", "location": "Burera", "tel": "No phone number"}, {"name": "Itambira Island, Seeds of Hope", "location": "Burera", "tel": "No phone number"}, {"name": "Gorillas Volcanoes Hotel", "location": "Burera", "tel": "No phone number"}, {"name": "Bunyonyi Overland Resort", "location": "Burera", "tel": "No phone number"}, {"name": "Supreme Adventure Park Bunyonyi", "location": "Burera", "tel": "No phone number"}, {"name": "Golden Monkey Guesthouse", "location": "Burera", "tel": "No phone number"}, {"name": "Bunyonyi Overland Resort", "location": "Burera", "tel": "No phone number"}, {"name": "Byiza Lodge", "location": "Burera", "tel": "No phone number"}, {"name": "Faraja Hotel", "location": "Burera", "tel": "No phone number"}, {"name": "MUHABURA MOTEL", "location": "Burera", "tel": "No phone number"}, {"name": "Urugano Virunga Palace", "location": "Burera", "tel": "No phone number"}, {"name": "Heritage Lodge, Habuharo", "location": "Burera", "tel": "No phone number"}, {"name": "Auberge Ikaze", "location": "Burera", "tel": "No phone number"}, {"name": "The Garden Place Hotel", "location": "Burera", "tel": "No phone number"}, {"name": "Bushara Island Camp", "location": "Burera", "tel": "No phone number"}, {"name": "Hawk's Eye Lodge Bunyonyi", "location": "Burera", "tel": "No phone number"}, {"name": "Heras Country Resort", "location": "Burera", "tel": "No phone number"}, {"name": "Bunyonyi View resort", "location": "Burera", "tel": "No phone number"}, {"name": "Hawk's Eye Campsite", "location": "Burera", "tel": "No phone number"}, {"name": "East Africa Amazon Guest House Musanze", "location": "Burera", "tel": "No phone number"}, {"name": "Danita House", "location": "Burera", "tel": "No phone number"}, {"name": "Snow Hotel Rwanda", "location": "Burera", "tel": "No phone number"}, {"name": "Gorillas Volcanoes Hotel", "location": "Burera", "tel": "No phone number"}, {"name": "Virunga Hotel", "location": "Burera", "tel": "No phone number"}, {"name": "Mt.Muhabura Climbers Rest Camp", "location": "Burera", "tel": "No phone number"}, {"name": "Musanze Caves Hotel", "location": "Burera", "tel": "No phone number"}, {"name": "Arcadia Lodges Lake Bunyonyi", "location": "Burera", "tel": "No phone number"}, {"name": "Lake Bunyonyi Rock Resort", "location": "Burera", "tel": "No phone number"}, {"name": "La Silene", "location": "Burera", "tel": "0783785399"}, {"name": "Pearl Guest House", "location": "Burera", "tel": "No phone number"}, {"name": "Kisoro Tourist Hotel", "location": "Burera", "tel": "No phone number"}, {"name": "Crater Bay Cottage", "location": "Burera", "tel": "No phone number"}, {"name": "Fatima Hotel", "location": "Burera", "tel": "No phone number"}, {"name": "Home Inn", "location": "Burera", "tel": "No phone number"}, {"name": "Gloria Lodge", "location": "Burera", "tel": "No phone number"}, {"name": "Twin Lakes Lodge", "location": "Burera", "tel": "No phone number"}, {"name": "Amahoro Guest House", "location": "Burera", "tel": "No phone number"}, {"name": "Mount Gahinga Lodge", "location": "Burera", "tel": "No phone number"}, {"name": "The Bishop's House Rwanda", "location": "Burera", "tel": "No phone number"}, {"name": "Volcano View B&B", "location": "Burera", "tel": "No phone number"}, {"name": "Hotel Muhabura", "location": "Burera", "tel": "No phone number"}, {"name": "La Voisina Motel", "location": "Burera", "tel": "No phone number"}, {"name": "Ikoro Hotel", "location": "Burera", "tel": "No phone number"}, {"name": "Travellers Rest Hotel", "location": "Burera", "tel": "No phone number"}, {"name": "Gorrillaland Guesthouse", "location": "Burera", "tel": "No phone number"}, {"name": "Best View Hotel", "location": "Burera", "tel": "No phone number"}, {"name": "La Palme Hotel", "location": "Burera", "tel": "No phone number"}, {"name": "Sainte Anne", "location": "Burera", "tel": "No phone number"}, {"name": "Venus Villa Guest House 02", "location": "Burera", "tel": "No phone number"}, {"name": "Byoona Amagara Island Retreat", "location": "Burera", "tel": "No phone number"}, {"name": "Bunyonyi kalebas Resort", "location": "Burera", "tel": "No phone number"}, {"name": "SuPa's Bistro & Guesthouse", "location": "Burera", "tel": "No phone number"}, {"name": "Mt. Muhabura Climbers Rest Camp", "location": "Burera", "tel": "No phone number"}, {"name": "Urugaga Imbaraga", "location": "Burera", "tel": "No phone number"}, {"name": "Bugombe Gateway Camp", "location": "Burera", "tel": "No phone number"}, {"name": "FIDOS GUEST HOUSE & SAFARIS", "location": "Burera", "tel": "No phone number"}, {"name": "Arcadia Cottage Lake Bunyonyi", "location": "Burera", "tel": "No phone number"}, {"name": "Tourland Cottages Kisoro", "location": "Burera", "tel": "No phone number"}, {"name": "Craterbay Cottages And Camp Lake Bunyonyi", "location": "Burera", "tel": "No phone number"}, {"name": "Venus Villa Guest House 01", "location": "Burera", "tel": "No phone number"}, {"name": "Edirisa on Lake Bunyonyi", "location": "Burera", "tel": "No phone number"}, {"name": "Centre Pastoral Notre Dame de Fatima", "location": "Burera", "tel": "No phone number"}, {"name": "Classic Lodge", "location": "Burera", "tel": "No phone number"}, {"name": "Hotel Urumuli", "location": "Burera", "tel": "No phone number"}, {"name": "Arcadia Lodge Lake Bunyonyi", "location": "Burera", "tel": "No phone number"}, {"name": "Snow Hotel", "location": "Burera", "tel": "No phone number"}, {"name": "Jaro Landmark HotelLodge", "location": "Burera", "tel": "No phone number"}, {"name": "Graceland Motel", "location": "Burera", "tel": "No phone number"}, {"name": "Red Rocks Cultural Center", "location": "Burera", "tel": "No phone number"}, {"name": "Fatima Hotel", "location": "Burera", "tel": "No phone number"}, {"name": "Bunyonyi Apple Farmstay", "location": "Burera", "tel": "No phone number"}, {"name": "Heritage Inn", "location": "Burera", "tel": "No phone number"}, {"name": "The Kansiime Backpackers", "location": "Burera", "tel": "No phone number"}, {"name": "Kyahugye Island", "location": "Burera", "tel": "No phone number"}, {"name": "Miami tours and travel hotel", "location": "Burera", "tel": "No phone number"}, {"name": "Bavah Guesthouse", "location": "Burera", "tel": "No phone number"}, {"name": "Gorilla Heights Lodge", "location": "Burera", "tel": "No phone number"}, {"name": "Gorilla Heights Lodge", "location": "Burera", "tel": "No phone number"}, {"name": "Ian Point Hotel", "location": "Burera", "tel": "No phone number"}, {"name": "western mountain hotel", "location": "Burera", "tel": "No phone number"}, {"name": "Rafiki Guest House", "location": "Burera", "tel": "No phone number"}, {"name": "Migano hotel", "location": "Burera", "tel": "No phone number"}, {"name": "Amajambere Iwacu Community Camp", "location": "Burera", "tel": "No phone number"}, {"name": "Virunga Hotel Camp Site and Back Packers", "location": "Burera", "tel": "No phone number"}, {"name": "Crested Crane", "location": "Burera", "tel": "No phone number"}, {"name": "Lovinghearts Art Gallery", "location": "Burera", "tel": "No phone number"}, {"name": "Mubano Hotel", "location": "Burera", "tel": "No phone number"}, {"name": "Tourland Cottgges", "location": "Burera", "tel": "No phone number"}, {"name": "Sainte Anne Hotel", "location": "Burera", "tel": "No phone number"}, {"name": "Mondi Lodge Kisoro", "location": "Burera", "tel": "No phone number"}, {"name": "Mondi Lodge Kisoro", "location": "Burera", "tel": "No phone number"}, {"name": "Mutanda Lake Resort", "location": "Burera", "tel": "No phone number"}, {"name": "Bam Rest House", "location": "Burera", "tel": "No phone number"}, {"name": "Kalebas Camp", "location": "Burera", "tel": "No phone number"}, {"name": "Bunyonyi View Gorilla Packers", "location": "Burera", "tel": "No phone number"}, {"name": "Heras Country Resort", "location": "Burera", "tel": "No phone number"}, {"name": "New Silver Hotel", "location": "Burera", "tel": "No phone number"}, {"name": "Nature's Prime Island", "location": "Burera", "tel": "No phone number"}, {"name": "Lake Bunyoni Hotel", "location": "Burera", "tel": "No phone number"}, {"name": "Kalebas Camp Bunyonyi", "location": "Burera", "tel": "No phone number"}, {"name": "Sawa Sawa Guest House", "location": "Burera", "tel": "No phone number"}, {"name": "Red Rocks Rwanda", "location": "Gakenke", "tel": "No phone number"}, {"name": "La Silene", "location": "Gakenke", "tel": "0783785399"}, {"name": "Virunga Hotel", "location": "Gakenke", "tel": "No phone number"}, {"name": "Snow Hotel Rwanda", "location": "Gakenke", "tel": "No phone number"}, {"name": "Sainte Anne", "location": "Gakenke", "tel": "No phone number"}, {"name": "Classic Lodge", "location": "Gakenke", "tel": "No phone number"}, {"name": "Red Rocks Cultural Center", "location": "Gakenke", "tel": "No phone number"}, {"name": "Hotel Urumuli", "location": "Gakenke", "tel": "No phone number"}, {"name": "western mountain hotel", "location": "Gakenke", "tel": "No phone number"}, {"name": "Migano hotel", "location": "Gakenke", "tel": "No phone number"}, {"name": "Mater Dei Motel", "location": "Gakenke", "tel": "No phone number"}, {"name": "New Silver Hotel", "location": "Gakenke", "tel": "No phone number"}, {"name": "Mijo Hostel", "location": "Gasabo", "tel": "No phone number"}, {"name": "Colours Club Spa", "location": "Gasabo", "tel": "0788521369"}, {"name": "Gisa Stay 101", "location": "Gasabo", "tel": "No phone number"}, {"name": "Rouge by Desir", "location": "Gasabo", "tel": "No phone number"}, {"name": "Peponi Living Spaces", "location": "Gasabo", "tel": "No phone number"}, {"name": "Gisa Stay 103", "location": "Gasabo", "tel": "No phone number"}, {"name": "Radisson Blu Hotel & Convention Centre, Kigali", "location": "Gasabo", "tel": "No phone number"}, {"name": "Serenity Park", "location": "Gasabo", "tel": "No phone number"}, {"name": "The Manor Hotel", "location": "Gasabo", "tel": "No phone number"}, {"name": "The Kingfish Beach Hotel", "location": "Gasabo", "tel": "No phone number"}, {"name": "Five To Five Hotel", "location": "Gasabo", "tel": "No phone number"}, {"name": "Colours Club", "location": "Gasabo", "tel": "No phone number"}, {"name": "Rainbow Hotel", "location": "Gasabo", "tel": "No phone number"}, {"name": "Grazia Apartments", "location": "Gasabo", "tel": "No phone number"}, {"name": "Hotel Villa Portofino Kigali", "location": "Gasabo", "tel": "No phone number"}, {"name": "World House Gisozi Hotel", "location": "Gasabo", "tel": "No phone number"}, {"name": "HILL CREST HOTEL", "location": "Gasabo", "tel": "No phone number"}, {"name": "Kigali Art Gallery", "location": "Gasabo", "tel": "No phone number"}, {"name": "Great Seasons Hotel", "location": "Gasabo", "tel": "No phone number"}, {"name": "Mythos Boutique Hotel", "location": "Gasabo", "tel": "No phone number"}, {"name": "Wailers Guest House", "location": "Gasabo", "tel": "No phone number"}, {"name": "Remera Modern Guesthouse", "location": "Gasabo", "tel": "No phone number"}, {"name": "Lebanon Hotel Kigali", "location": "Gasabo", "tel": "No phone number"}, {"name": "Greedy Five", "location": "Gasabo", "tel": "No phone number"}, {"name": "Select", "location": "Gasabo", "tel": "No phone number"}, {"name": "GISA STAY 104", "location": "Gasabo", "tel": "No phone number"}, {"name": "Gaju House", "location": "Gasabo", "tel": "No phone number"}, {"name": "Victoria Blue Hotels and Apartments", "location": "Gasabo", "tel": "No phone number"}, {"name": "Flame Tree Village", "location": "Gasabo", "tel": "No phone number"}, {"name": "Grand Legacy Hotel", "location": "Gasabo", "tel": "No phone number"}, {"name": "Salama Village", "location": "Gasabo", "tel": "No phone number"}, {"name": "Dove Hotel Kigali", "location": "Gasabo", "tel": "No phone number"}, {"name": "Murugo Rwanda Hostel", "location": "Gasabo", "tel": "No phone number"}, {"name": "Villa Belle Vue", "location": "Gasabo", "tel": "No phone number"}, {"name": "Cenetra Hotel", "location": "Gasabo", "tel": "No phone number"}, {"name": "The Nest Guesthouse", "location": "Gasabo", "tel": "No phone number"}, {"name": "Kereth Living Space", "location": "Gasabo", "tel": "No phone number"}, {"name": "Mountain View Apartment", "location": "Gasabo", "tel": "No phone number"}, {"name": "Ezra Boutique Hotel", "location": "Gasabo", "tel": "No phone number"}, {"name": "The Court Boutique Hotel", "location": "Gasabo", "tel": "No phone number"}, {"name": "Feel At Home", "location": "Gasabo", "tel": "No phone number"}, {"name": "Kigali Castle", "location": "Gasabo", "tel": "No phone number"}, {"name": "Amata n'Ubuki Boutique Hotel & Restaurant", "location": "Gasabo", "tel": "No phone number"}, {"name": "Kigali Marriott Hotel", "location": "Gasabo", "tel": "No phone number"}, {"name": "Park View Courts", "location": "Gasabo", "tel": "No phone number"}, {"name": "Quiet Haven Hotel", "location": "Gasabo", "tel": "No phone number"}, {"name": "Landmark Suites Rwanda", "location": "Gasabo", "tel": "No phone number"}, {"name": "Peace and Grace Motel", "location": "Gasabo", "tel": "No phone number"}, {"name": "The Mirror Hotel", "location": "Gasabo", "tel": "No phone number"}, {"name": "KIM Hotel", "location": "Gasabo", "tel": "No phone number"}, {"name": "The Hut Restaurant & Boutique Hotel", "location": "Gasabo", "tel": "No phone number"}, {"name": "Greek Taverna at Hotel Hellenic", "location": "Gasabo", "tel": "No phone number"}, {"name": "Rohi Apartments Hotel", "location": "Gasabo", "tel": "0788306040"}, {"name": "Gorillas Golf Hotel", "location": "Gasabo", "tel": "No phone number"}, {"name": "Kwetu Residence Inn", "location": "Gasabo", "tel": "No phone number"}, {"name": "Iwawe Hotel", "location": "Gasabo", "tel": "No phone number"}, {"name": "Inside Afrika Hotel", "location": "Gasabo", "tel": "No phone number"}, {"name": "Isimbi Murugo", "location": "Gasabo", "tel": "0783904586"}, {"name": "Iwacu Guesthouse", "location": "Gasabo", "tel": "No phone number"}, {"name": "Keva Guest House", "location": "Gasabo", "tel": "No phone number"}, {"name": "Pili Pili", "location": "Gasabo", "tel": "No phone number"}, {"name": "Greenpage Suites", "location": "Gasabo", "tel": "No phone number"}, {"name": "H\u00f4tel Chez Lando", "location": "Gasabo", "tel": "No phone number"}, {"name": "DV Appart Hotel", "location": "Gasabo", "tel": "No phone number"}, {"name": "Ishema Kigali Home", "location": "Gasabo", "tel": "No phone number"}, {"name": "GISA STAY 102", "location": "Gasabo", "tel": "No phone number"}, {"name": "Khana Khazana Boutique Hotel", "location": "Gasabo", "tel": "No phone number"}, {"name": "INZOZI AFRICA HOUSE", "location": "Gasabo", "tel": "No phone number"}, {"name": "Kami Executive Apartments", "location": "Gasabo", "tel": "No phone number"}, {"name": "LION MOTEL", "location": "Gasabo", "tel": "No phone number"}, {"name": "Discover Rwanda Youth Hostel", "location": "Gasabo", "tel": "No phone number"}, {"name": "Lemigo Hotel", "location": "Gasabo", "tel": "No phone number"}, {"name": "Garr Hotel", "location": "Gasabo", "tel": "No phone number"}, {"name": "Centre d'Acceuil Bonne Esp\u00e9rance", "location": "Gasabo", "tel": "No phone number"}, {"name": "RUJO ROOMS", "location": "Gasabo", "tel": "No phone number"}, {"name": "Perle Boutique Hotel", "location": "Gasabo", "tel": "No phone number"}, {"name": "H\u00f4tel des Mille Collines", "location": "Gasabo", "tel": "No phone number"}, {"name": "Villa Asimba", "location": "Gasabo", "tel": "No phone number"}, {"name": "ViaVia Kigali", "location": "Gasabo", "tel": "No phone number"}, {"name": "Olympic Hotel", "location": "Gasabo", "tel": "No phone number"}, {"name": "Kereth Design Guest House", "location": "Gasabo", "tel": "No phone number"}, {"name": "Legend Hotel", "location": "Gasabo", "tel": "No phone number"}, {"name": "Tinho Guest House", "location": "Gasabo", "tel": "No phone number"}, {"name": "Park Inn by Radisson, Kigali", "location": "Gasabo", "tel": "No phone number"}, {"name": "KINGSMEN SUITES", "location": "Gasabo", "tel": "No phone number"}, {"name": "Amaris Hotel", "location": "Gasabo", "tel": "No phone number"}, {"name": "Beaus\u00e9jour Hotel", "location": "Gasabo", "tel": "No phone number"}, {"name": "The Country Inn Hotel", "location": "Gasabo", "tel": "No phone number"}, {"name": "Golf Eden Guest House", "location": "Gasabo", "tel": "No phone number"}, {"name": "Plata Guest House", "location": "Gasabo", "tel": "No phone number"}, {"name": "Tea House B&B", "location": "Gasabo", "tel": "No phone number"}, {"name": "Onomo Hotel", "location": "Gasabo", "tel": "No phone number"}, {"name": "Park Inn by Radisson Kigali", "location": "Gasabo", "tel": "No phone number"}, {"name": "Auberge St Jean Leopold", "location": "Gasabo", "tel": "No phone number"}, {"name": "Amahoro Smart Motel", "location": "Gasabo", "tel": "No phone number"}, {"name": "Mubwiza Courts", "location": "Gasabo", "tel": "No phone number"}, {"name": "Cozy Safari", "location": "Gasabo", "tel": "No phone number"}, {"name": "Isimbi House", "location": "Gasabo", "tel": "No phone number"}, {"name": "Civitas Hotel", "location": "Gasabo", "tel": "No phone number"}, {"name": "Hotel Okapi", "location": "Gasabo", "tel": "No phone number"}, {"name": "Hakurya Gasabo Lodge", "location": "Gasabo", "tel": "No phone number"}, {"name": "BELIZE MOTEL", "location": "Gasabo", "tel": "No phone number"}, {"name": "Kanyinya Hills Hotel", "location": "Gasabo", "tel": "No phone number"}, {"name": "Park View Hotel", "location": "Gasabo", "tel": "No phone number"}, {"name": "AROMAS MOTEL", "location": "Gasabo", "tel": "No phone number"}, {"name": "Nova Apartment", "location": "Gasabo", "tel": "No phone number"}, {"name": "Kami Executive Apartments", "location": "Gasabo", "tel": "No phone number"}, {"name": "Nyumbani Cottages", "location": "Gasabo", "tel": "No phone number"}, {"name": "Medi Motel", "location": "Gasabo", "tel": "No phone number"}, {"name": "Mama Rwanda Hostel", "location": "Gasabo", "tel": "No phone number"}, {"name": "AMIGO APARTMENT", "location": "Gasabo", "tel": "No phone number"}, {"name": "Rubangura Luxury Apartments", "location": "Gasabo", "tel": "No phone number"}, {"name": "Olympic Hotel Kigali", "location": "Gasabo", "tel": "No phone number"}, {"name": "Delhi Darbar Indian Restaurant & Villa", "location": "Gasabo", "tel": "No phone number"}, {"name": "Kimenyi Home", "location": "Gasabo", "tel": "No phone number"}, {"name": "Romalo Guest House", "location": "Gasabo", "tel": "No phone number"}, {"name": "Silver Motel", "location": "Gasabo", "tel": "No phone number"}, {"name": "Urban by CityBlue", "location": "Gasabo", "tel": "No phone number"}, {"name": "Hilltop Hotel and Country Club", "location": "Gasabo", "tel": "No phone number"}, {"name": "Kigali Serena Hotel", "location": "Gasabo", "tel": "No phone number"}, {"name": "HOLLY GUESTINN", "location": "Gasabo", "tel": "No phone number"}, {"name": "Corina K Guesthouse", "location": "Gasabo", "tel": "No phone number"}, {"name": "Joy Guesthouse", "location": "Gasabo", "tel": "No phone number"}, {"name": "PALAZZO MOTEL @ KIGALI/KIMIRONKO", "location": "Gasabo", "tel": "No phone number"}, {"name": "Happy Home and Dine", "location": "Gasabo", "tel": "No phone number"}, {"name": "Kings Hospitality Centre", "location": "Gasabo", "tel": "No phone number"}, {"name": "Bougainvilla Boutique Hotel", "location": "Gasabo", "tel": "No phone number"}, {"name": "Heaven Restaurant & Boutique Hotel", "location": "Gasabo", "tel": "No phone number"}, {"name": "Champion Hotel", "location": "Gasabo", "tel": "No phone number"}, {"name": "Kigali Diplomat Hotel", "location": "Gasabo", "tel": "No phone number"}, {"name": "Umusambi B&B", "location": "Gasabo", "tel": "No phone number"}, {"name": "Dmall Hotel", "location": "Gasabo", "tel": "No phone number"}, {"name": "Kigali Guestlux Hotel", "location": "Gasabo", "tel": "No phone number"}, {"name": "Dehli Darbar Hotel & Restaurant", "location": "Gasabo", "tel": "No phone number"}, {"name": "Madison Hills Hotel", "location": "Gasabo", "tel": "No phone number"}, {"name": "Zebra Tourism Hotel", "location": "Gasabo", "tel": "No phone number"}, {"name": "B.Maurice Guest House", "location": "Gasabo", "tel": "No phone number"}, {"name": "Zenith Hotel Kigali", "location": "Gasabo", "tel": "No phone number"}, {"name": "Ikaze B&B", "location": "Gasabo", "tel": "No phone number"}, {"name": "Yerbis Guest House", "location": "Gasabo", "tel": "No phone number"}, {"name": "Radius Guest Flats", "location": "Gasabo", "tel": "No phone number"}, {"name": "Roots Inn", "location": "Gasabo", "tel": "No phone number"}, {"name": "5 Swiss Hotel", "location": "Gasabo", "tel": "No phone number"}, {"name": "Good News Guest House", "location": "Gasabo", "tel": "No phone number"}, {"name": "Orient Park Hotel", "location": "Gasabo", "tel": "No phone number"}, {"name": "Kings Hostel", "location": "Gasabo", "tel": "No phone number"}, {"name": "Best Inn Motel", "location": "Gasabo", "tel": "No phone number"}, {"name": "Vincenzo Homestay", "location": "Gasabo", "tel": "No phone number"}, {"name": "Root House", "location": "Gasabo", "tel": "No phone number"}, {"name": "Kiberinka Cultural Centre", "location": "Gasabo", "tel": "No phone number"}, {"name": "La Palisse Hotel, Kigali", "location": "Gasabo", "tel": "No phone number"}, {"name": "Greenwich Hotel", "location": "Gasabo", "tel": "No phone number"}, {"name": "Peaceful Home Away From Home", "location": "Gasabo", "tel": "No phone number"}, {"name": "Sinai Suites Hotel and Apartments", "location": "Gasabo", "tel": "No phone number"}, {"name": "Karisimbi Hotel", "location": "Gasabo", "tel": "No phone number"}, {"name": "Great Apartment Hotel", "location": "Gasabo", "tel": "No phone number"}, {"name": "Marasa Umubano Hotel", "location": "Gasabo", "tel": "No phone number"}, {"name": "Accord Hotel", "location": "Gasabo", "tel": "No phone number"}, {"name": "Kimironko Sinai Suites", "location": "Gasabo", "tel": "No phone number"}, {"name": "Price Guest House", "location": "Gasabo", "tel": "No phone number"}, {"name": "Airport Apartments", "location": "Gasabo", "tel": "No phone number"}, {"name": "The Sunshine Villa", "location": "Gasabo", "tel": "No phone number"}, {"name": "Corina K Guest house", "location": "Gasabo", "tel": "No phone number"}, {"name": "Next-Gen Boutique Hotel", "location": "Gasabo", "tel": "No phone number"}, {"name": "Ubumwe Grande Hotel", "location": "Gasabo", "tel": "No phone number"}, {"name": "Hill View Hotel", "location": "Gasabo", "tel": "No phone number"}, {"name": "Highlands Suites Hotel", "location": "Gasabo", "tel": "No phone number"}, {"name": "New Impala Hotel", "location": "Gasabo", "tel": "No phone number"}, {"name": "City Valley Motel", "location": "Gasabo", "tel": "No phone number"}, {"name": "Elegance Hotel", "location": "Gasabo", "tel": "No phone number"}, {"name": "Cari Hotel", "location": "Gasabo", "tel": "No phone number"}, {"name": "Martin Aviator Motel", "location": "Gasabo", "tel": "No phone number"}, {"name": "UMUGANO Guest House", "location": "Gasabo", "tel": "No phone number"}, {"name": "La Posh Hotel", "location": "Gasabo", "tel": "No phone number"}, {"name": "Iris Guesthouse", "location": "Gasabo", "tel": "No phone number"}, {"name": "IGITEGO HOTEL", "location": "Gasabo", "tel": "No phone number"}, {"name": "INGANZI APARTMENTS", "location": "Gasabo", "tel": "No phone number"}, {"name": "Nicksters Home Inn", "location": "Gasabo", "tel": "No phone number"}, {"name": "Hotel Gloria", "location": "Gasabo", "tel": "No phone number"}, {"name": "2000 Hotel", "location": "Gasabo", "tel": "No phone number"}, {"name": "Modern Villa Hotel", "location": "Gasabo", "tel": "No phone number"}, {"name": "The Nest", "location": "Gasabo", "tel": "No phone number"}, {"name": "Bethany Investment Group EPR Hostel", "location": "Gasabo", "tel": "No phone number"}, {"name": "Galaxy Hotel", "location": "Gasabo", "tel": "No phone number"}, {"name": "Nobilis Apartments", "location": "Gasabo", "tel": "No phone number"}, {"name": "Phoenix Plaza Apartment For Sale", "location": "Gasabo", "tel": "No phone number"}, {"name": "Step Town Motel", "location": "Gasabo", "tel": "No phone number"}, {"name": "Hotel Gorillas Kigali City Centre", "location": "Gasabo", "tel": "No phone number"}, {"name": "H\u00f4tel Le Garni", "location": "Gasabo", "tel": "No phone number"}, {"name": "East African Villas Guest House", "location": "Gasabo", "tel": "No phone number"}, {"name": "Le Printemps", "location": "Gasabo", "tel": "No phone number"}, {"name": "Golf Hills Residence", "location": "Gasabo", "tel": "No phone number"}, {"name": "Harvest Hills", "location": "Gasabo", "tel": "No phone number"}, {"name": "Home2Home B&B", "location": "Gasabo", "tel": "No phone number"}, {"name": "Radius Guest Flats", "location": "Gasabo", "tel": "No phone number"}, {"name": "Scheba Hotel", "location": "Gasabo", "tel": "No phone number"}, {"name": "The Hut", "location": "Gasabo", "tel": "No phone number"}, {"name": "Gloria Hotel", "location": "Gasabo", "tel": "No phone number"}, {"name": "Zebra Boutique Hotel", "location": "Gasabo", "tel": "No phone number"}, {"name": "Parkview Hotel", "location": "Gasabo", "tel": "No phone number"}, {"name": "KENT Residence", "location": "Gasabo", "tel": "No phone number"}, {"name": "Elegance Motel", "location": "Gasabo", "tel": "No phone number"}, {"name": "The Retreat", "location": "Gasabo", "tel": "No phone number"}, {"name": "Hotel Hilltop and Country Club", "location": "Gasabo", "tel": "No phone number"}, {"name": "Ava House", "location": "Gasabo", "tel": "No phone number"}, {"name": "Stipp Hotel Kiyovu", "location": "Gasabo", "tel": "No phone number"}, {"name": "Amani Guesthouse", "location": "Gasabo", "tel": "No phone number"}, {"name": "Greater Apartments", "location": "Gasabo", "tel": "No phone number"}, {"name": "LA DIFFERENCE GUEST HOUSE", "location": "Gasabo", "tel": "No phone number"}, {"name": "Centre Saint Vincent Pallotti", "location": "Gasabo", "tel": "No phone number"}, {"name": "Prince Guest House", "location": "Gasabo", "tel": "No phone number"}, {"name": "Makutano Club and Resorts", "location": "Gasabo", "tel": "0780112228"}, {"name": "Cameo Guest House", "location": "Gasabo", "tel": "No phone number"}, {"name": "Elevate Suites", "location": "Gasabo", "tel": "No phone number"}, {"name": "Dream Guest House", "location": "Gasabo", "tel": "No phone number"}, {"name": "Bloom Back Hotel", "location": "Gasabo", "tel": "No phone number"}, {"name": "Pure Africa Cafe", "location": "Gasabo", "tel": "No phone number"}, {"name": "Hotel Sienna", "location": "Gasabo", "tel": "No phone number"}, {"name": "Tea House Bis", "location": "Gasabo", "tel": "No phone number"}, {"name": "Hope Apartment", "location": "Gasabo", "tel": "No phone number"}, {"name": "Resident Hotel", "location": "Gasabo", "tel": "No phone number"}, {"name": "Kent Residence", "location": "Gasabo", "tel": "No phone number"}, {"name": "Andalusia Hotel Rwanda", "location": "Gasabo", "tel": "No phone number"}, {"name": "Upendo Guest House", "location": "Gasabo", "tel": "No phone number"}, {"name": "Olympic Hotel", "location": "Gasabo", "tel": "No phone number"}, {"name": "Infinity Hotel", "location": "Gasabo", "tel": "No phone number"}, {"name": "Classic Hotel", "location": "Gasabo", "tel": "No phone number"}, {"name": "Palma Village Apart Hotel", "location": "Gasabo", "tel": "No phone number"}, {"name": "B VILLA HOTEL", "location": "Gasabo", "tel": "No phone number"}, {"name": "Kigali Homestay", "location": "Gasabo", "tel": "0788501416"}, {"name": "Cari Hotel", "location": "Gasabo", "tel": "No phone number"}, {"name": "Courtesy Residence Apartment", "location": "Gasabo", "tel": "No phone number"}, {"name": "Sergion Guest House", "location": "Gasabo", "tel": "No phone number"}, {"name": "Batik Maison d'H\u00f4te", "location": "Gasabo", "tel": "No phone number"}, {"name": "Michas' Guest House", "location": "Gasabo", "tel": "No phone number"}, {"name": "Mattina Motel", "location": "Gasabo", "tel": "No phone number"}, {"name": "Hotel Isimbi", "location": "Gasabo", "tel": "No phone number"}, {"name": "Dmall Hotel", "location": "Gasabo", "tel": "No phone number"}, {"name": "Jambo Guest House", "location": "Gasabo", "tel": "No phone number"}, {"name": "Freedom Hotel", "location": "Gasabo", "tel": "No phone number"}, {"name": "PANDA THEME GUEST HOUSE", "location": "Gasabo", "tel": "No phone number"}, {"name": "Kigaliview Hotel and Apartments", "location": "Gasabo", "tel": "No phone number"}, {"name": "Parador Motel", "location": "Gasabo", "tel": "No phone number"}, {"name": "Select Boutique Hotel", "location": "Gasabo", "tel": "No phone number"}, {"name": "Ecoair Apartment Hotel", "location": "Gasabo", "tel": "No phone number"}, {"name": "Stipp Hotel Kiyovu", "location": "Gasabo", "tel": "No phone number"}, {"name": "Sainte Famille Hotel", "location": "Gasabo", "tel": "No phone number"}, {"name": "Hoteltech Rwanda", "location": "Gasabo", "tel": "No phone number"}, {"name": "Jambo Inn", "location": "Gasabo", "tel": "No phone number"}, {"name": "Kigali Labelle", "location": "Gasabo", "tel": "No phone number"}, {"name": "Phoenix Plaza_for sale", "location": "Gasabo", "tel": "No phone number"}, {"name": "Le Printemps Hotel Limited", "location": "Gasabo", "tel": "No phone number"}, {"name": "Airport Hill Guest House", "location": "Gasabo", "tel": "No phone number"}, {"name": "Phoenix Square", "location": "Gasabo", "tel": "No phone number"}, {"name": "Kigali Royal Harvest Motel", "location": "Gasabo", "tel": "No phone number"}, {"name": "Colours Club Spa & Village Resort", "location": "Gatsibo", "tel": "No phone number"}, {"name": "Akagera Resort And Country Club", "location": "Gatsibo", "tel": "No phone number"}, {"name": "Nyagasambu Realm Beach Hotel", "location": "Gatsibo", "tel": "No phone number"}, {"name": "Muhazi Beach Hotel", "location": "Gatsibo", "tel": "No phone number"}, {"name": "Seed of Peace Center", "location": "Gatsibo", "tel": "No phone number"}, {"name": "Seed of Peace Center", "location": "Gatsibo", "tel": "No phone number"}, {"name": "The Kingfish Beach Hotel", "location": "Gicumbi", "tel": "No phone number"}, {"name": "Urumuli Hotel", "location": "Gicumbi", "tel": "No phone number"}, {"name": "Nyagasambu Realm Beach Hotel", "location": "Gicumbi", "tel": "No phone number"}, {"name": "East African Villas Guest House", "location": "Gicumbi", "tel": "No phone number"}, {"name": "Hotel Twiga", "location": "Gisagara", "tel": "No phone number"}, {"name": "KU Guesthouse", "location": "Gisagara", "tel": "No phone number"}, {"name": "H\u00f4tel Maisons-Sifa", "location": "Gisagara", "tel": "No phone number"}, {"name": "Light House Hotel", "location": "Gisagara", "tel": "No phone number"}, {"name": "Residence Astrida", "location": "Gisagara", "tel": "No phone number"}, {"name": "Kolibri Paradise", "location": "Gisagara", "tel": "No phone number"}, {"name": "Casa Hotel Ltd", "location": "Gisagara", "tel": "No phone number"}, {"name": "Mont Huye Motel", "location": "Gisagara", "tel": "No phone number"}, {"name": "Barthos Hotel", "location": "Gisagara", "tel": "No phone number"}, {"name": "Hotel Ibis", "location": "Gisagara", "tel": "No phone number"}, {"name": "Motel du Mont Huye", "location": "Gisagara", "tel": "No phone number"}, {"name": "Mater Boni Consilii", "location": "Gisagara", "tel": "No phone number"}, {"name": "Petit Prince (Four Steps) Hotel", "location": "Gisagara", "tel": "No phone number"}, {"name": "Hotel Credo", "location": "Gisagara", "tel": "No phone number"}, {"name": "Happiness Star Motel", "location": "Gisagara", "tel": "No phone number"}, {"name": "Emaus Hostel", "location": "Gisagara", "tel": "No phone number"}, {"name": "Galileo Hotel Stadium", "location": "Gisagara", "tel": "No phone number"}, {"name": "Mater Boni Concilli", "location": "Gisagara", "tel": "No phone number"}, {"name": "Wisdom Village Isangano", "location": "Gisagara", "tel": "No phone number"}, {"name": "Heroes Motel", "location": "Gisagara", "tel": "No phone number"}, {"name": "Mumunyinya Relax Motel", "location": "Gisagara", "tel": "No phone number"}, {"name": "Hotel Faucon", "location": "Gisagara", "tel": "No phone number"}, {"name": "Saint Vincent Motel", "location": "Gisagara", "tel": "No phone number"}, {"name": "Beaux Arts", "location": "Gisagara", "tel": "No phone number"}, {"name": "Ineza Heritage", "location": "Gisagara", "tel": "No phone number"}, {"name": "Credo Hotel", "location": "Gisagara", "tel": "No phone number"}, {"name": "Shalom Guest House", "location": "Gisagara", "tel": "No phone number"}, {"name": "Barthos Hotel", "location": "Gisagara", "tel": "No phone number"}, {"name": "Select Boutique Hotel", "location": "Huye", "tel": "0786098109"}, {"name": "Hotel Twiga", "location": "Huye", "tel": "No phone number"}, {"name": "Light House Hotel", "location": "Huye", "tel": "No phone number"}, {"name": "H\u00f4tel Maisons-Sifa", "location": "Huye", "tel": "No phone number"}, {"name": "KU Guesthouse", "location": "Huye", "tel": "No phone number"}, {"name": "Residence Astrida", "location": "Huye", "tel": "No phone number"}, {"name": "Casa Hotel Ltd", "location": "Huye", "tel": "No phone number"}, {"name": "Petit Prince (Four Steps) Hotel", "location": "Huye", "tel": "No phone number"}, {"name": "Hotel Credo", "location": "Huye", "tel": "No phone number"}, {"name": "Hotel Ibis", "location": "Huye", "tel": "No phone number"}, {"name": "Mont Huye Motel", "location": "Huye", "tel": "No phone number"}, {"name": "Galileo Hotel Stadium", "location": "Huye", "tel": "No phone number"}, {"name": "Motel du Mont Huye", "location": "Huye", "tel": "No phone number"}, {"name": "Barthos Hotel", "location": "Huye", "tel": "No phone number"}, {"name": "Golden Monkey Hotel", "location": "Huye", "tel": "No phone number"}, {"name": "Happiness Star Motel", "location": "Huye", "tel": "No phone number"}, {"name": "Wisdom Village Isangano", "location": "Huye", "tel": "No phone number"}, {"name": "Emaus Hostel", "location": "Huye", "tel": "No phone number"}, {"name": "Mater Boni Consilii", "location": "Huye", "tel": "No phone number"}, {"name": "Shalom Guest House", "location": "Huye", "tel": "No phone number"}, {"name": "Heroes Motel", "location": "Huye", "tel": "No phone number"}, {"name": "Barthos Hotel", "location": "Huye", "tel": "No phone number"}, {"name": "Mumunyinya Relax Motel", "location": "Huye", "tel": "No phone number"}, {"name": "Credo Hotel", "location": "Huye", "tel": "No phone number"}, {"name": "Kolibri Paradise", "location": "Huye", "tel": "No phone number"}, {"name": "Saint Vincent Motel", "location": "Huye", "tel": "No phone number"}, {"name": "Mater Boni Concilli", "location": "Huye", "tel": "No phone number"}, {"name": "Ineza Heritage", "location": "Huye", "tel": "No phone number"}, {"name": "Honey In Honey Motel", "location": "Huye", "tel": "No phone number"}, {"name": "Beaux Arts", "location": "Huye", "tel": "No phone number"}, {"name": "Hotel Faucon", "location": "Huye", "tel": "No phone number"}, {"name": "Regina Pacis Kibeho", "location": "Huye", "tel": "No phone number"}, {"name": "Montana Motel", "location": "Huye", "tel": "No phone number"}, {"name": "Ubumwe Center Kigeme Ltd", "location": "Huye", "tel": "No phone number"}, {"name": "Chris Hotel Ruyenzi", "location": "Kamonyi", "tel": "No phone number"}, {"name": "Heartland hotel", "location": "Kamonyi", "tel": "No phone number"}, {"name": "Chris Hotel Kamonyi", "location": "Kamonyi", "tel": "No phone number"}, {"name": "Sweet Stay Guest House", "location": "Kamonyi", "tel": "No phone number"}, {"name": "Kanyinya Hills Hotel", "location": "Kamonyi", "tel": "No phone number"}, {"name": "Heaven Boutique Hotel Villa", "location": "Kamonyi", "tel": "No phone number"}, {"name": "Kigali Marriott Hotel", "location": "Kamonyi", "tel": "No phone number"}, {"name": "New Impala Hotel", "location": "Kamonyi", "tel": "No phone number"}, {"name": "Honey In Honey Motel", "location": "Kamonyi", "tel": "No phone number"}, {"name": "Mountain View Apartment", "location": "Kamonyi", "tel": "No phone number"}, {"name": "San Jos\u00e9 Carmelo Spiritual Centre", "location": "Kamonyi", "tel": "No phone number"}, {"name": "La Floraison", "location": "Kamonyi", "tel": "No phone number"}, {"name": "Dove Hotel Kigali", "location": "Kamonyi", "tel": "No phone number"}, {"name": "Heaven Boutique Hotel Garden Chalet", "location": "Kamonyi", "tel": "No phone number"}, {"name": "Step Town Motel", "location": "Kamonyi", "tel": "No phone number"}, {"name": "Hotel Okapi", "location": "Kamonyi", "tel": "No phone number"}, {"name": "Mount Kigali Hotel", "location": "Kamonyi", "tel": "No phone number"}, {"name": "H\u00f4tel des Mille Collines", "location": "Kamonyi", "tel": "No phone number"}, {"name": "Peace and Grace Motel", "location": "Kamonyi", "tel": "No phone number"}, {"name": "City Valley Motel", "location": "Kamonyi", "tel": "No phone number"}, {"name": "Hill View Hotel", "location": "Kamonyi", "tel": "No phone number"}, {"name": "Anthurium Residential Hotel", "location": "Kamonyi", "tel": "No phone number"}, {"name": "Kigali Serena Hotel", "location": "Kamonyi", "tel": "No phone number"}, {"name": "Ubumwe Grande Hotel", "location": "Kamonyi", "tel": "No phone number"}, {"name": "Glory Guest House", "location": "Kamonyi", "tel": "No phone number"}, {"name": "2000 Hotel", "location": "Kamonyi", "tel": "No phone number"}, {"name": "Hotel Gloria", "location": "Kamonyi", "tel": "No phone number"}, {"name": "La Posh Hotel", "location": "Kamonyi", "tel": "No phone number"}, {"name": "5 Swiss Hotel", "location": "Kamonyi", "tel": "No phone number"}, {"name": "Heaven Restaurant & Boutique Hotel", "location": "Kamonyi", "tel": "No phone number"}, {"name": "Centre San Jose Carmelo", "location": "Kamonyi", "tel": "No phone number"}, {"name": "H\u00f4tel Le Garni", "location": "Kamonyi", "tel": "No phone number"}, {"name": "Splendid Hotel", "location": "Kamonyi", "tel": "No phone number"}, {"name": "Galaxy Hotel", "location": "Kamonyi", "tel": "No phone number"}, {"name": "Nicksters Home Inn", "location": "Kamonyi", "tel": "No phone number"}, {"name": "La Vedetta Maceo", "location": "Kamonyi", "tel": "No phone number"}, {"name": "The Retreat", "location": "Kamonyi", "tel": "No phone number"}, {"name": "High Ground Villa", "location": "Kamonyi", "tel": "No phone number"}, {"name": "Jangwe Lodge", "location": "Kamonyi", "tel": "No phone number"}, {"name": "Hotel Saint-Andre Kabgayi", "location": "Kamonyi", "tel": "No phone number"}, {"name": "Kigaliview", "location": "Kamonyi", "tel": "No phone number"}, {"name": "Mattina Motel", "location": "Kamonyi", "tel": "No phone number"}, {"name": "Madison Hills Hotel", "location": "Kamonyi", "tel": "No phone number"}, {"name": "Crown resort hotel", "location": "Kamonyi", "tel": "No phone number"}, {"name": "Smart Inn Hotel", "location": "Kamonyi", "tel": "No phone number"}, {"name": "Wembley Motel", "location": "Kamonyi", "tel": "No phone number"}, {"name": "Kigaliview Hotel and Apartments", "location": "Kamonyi", "tel": "No phone number"}, {"name": "Ururabo Guest House", "location": "Kamonyi", "tel": "No phone number"}, {"name": "Hotel Isimbi", "location": "Kamonyi", "tel": "No phone number"}, {"name": "Humble Guest House", "location": "Kamonyi", "tel": "No phone number"}, {"name": "Azizi Life", "location": "Kamonyi", "tel": "0785781146"}, {"name": "Muhanga in Cyakabiri Motel", "location": "Kamonyi", "tel": "No phone number"}, {"name": "Resident Hotel", "location": "Kamonyi", "tel": "No phone number"}, {"name": "Umuco Hotel", "location": "Kamonyi", "tel": "No phone number"}, {"name": "Kigali Baobab Hotel", "location": "Kamonyi", "tel": "No phone number"}, {"name": "New Impala Hotel", "location": "Kamonyi", "tel": "No phone number"}, {"name": "Auberge La Caverne", "location": "Kamonyi", "tel": "No phone number"}, {"name": "Arcadia Motel", "location": "Kamonyi", "tel": "No phone number"}, {"name": "Eden Palace Hotel", "location": "Kamonyi", "tel": "No phone number"}, {"name": "Auberge de Nyamirambo", "location": "Kamonyi", "tel": "No phone number"}, {"name": "Sifa Guest House", "location": "Kamonyi", "tel": "No phone number"}, {"name": "Sainte Famille Hotel", "location": "Kamonyi", "tel": "No phone number"}, {"name": "2000 Hotel", "location": "Kamonyi", "tel": "No phone number"}, {"name": "Glory Motel", "location": "Kamonyi", "tel": "No phone number"}, {"name": "Ambiance Accommodation", "location": "Kamonyi", "tel": "No phone number"}, {"name": "Sky House Inn", "location": "Kamonyi", "tel": "No phone number"}, {"name": "Kigali Holiday Hotel", "location": "Kamonyi", "tel": "No phone number"}, {"name": "Dayenu Hotel", "location": "Kamonyi", "tel": "No phone number"}, {"name": "Mater Dei Motel", "location": "Kamonyi", "tel": "No phone number"}, {"name": "Kigali Guest House", "location": "Kamonyi", "tel": "No phone number"}, {"name": "Amatana Center Lodge", "location": "Kamonyi", "tel": "No phone number"}, {"name": "Good Galaxy Lodge", "location": "Kamonyi", "tel": "No phone number"}, {"name": "DoubleTree by Hilton Kigali City Centre", "location": "Kamonyi", "tel": "No phone number"}, {"name": "IREBERO VILLAGE", "location": "Kamonyi", "tel": "No phone number"}, {"name": "Le Printemps Hotel Limited", "location": "Kamonyi", "tel": "No phone number"}, {"name": "Vision Motel", "location": "Kamonyi", "tel": "No phone number"}, {"name": "Dignity Motel", "location": "Kamonyi", "tel": "No phone number"}, {"name": "Heaven Rwanda", "location": "Kamonyi", "tel": "No phone number"}, {"name": "Trust Inn Motel", "location": "Kamonyi", "tel": "No phone number"}, {"name": "New Hope Lodge", "location": "Kamonyi", "tel": "No phone number"}, {"name": "Mater Dei Motel", "location": "Kamonyi", "tel": "No phone number"}, {"name": "Galaxy Hotel", "location": "Kamonyi", "tel": "No phone number"}, {"name": "Amani Lodge", "location": "Kamonyi", "tel": "No phone number"}, {"name": "Rufradu Hotel 1", "location": "Kamonyi", "tel": "No phone number"}, {"name": "Splendid Karisimbi", "location": "Kamonyi", "tel": "No phone number"}, {"name": "Moriah Hill Resort", "location": "Karongi", "tel": "No phone number"}, {"name": "Rwiza Village.", "location": "Karongi", "tel": "No phone number"}, {"name": "Macheo \u00c9colodge-camping", "location": "Karongi", "tel": "No phone number"}, {"name": "Kivu Lodge", "location": "Karongi", "tel": "No phone number"}, {"name": "Cormoran Lodge", "location": "Karongi", "tel": "No phone number"}, {"name": "Rebero Kivu Resort", "location": "Karongi", "tel": "0785821511"}, {"name": "Karongi Lake View Retreat", "location": "Karongi", "tel": "No phone number"}, {"name": "Home Saint Jean", "location": "Karongi", "tel": "No phone number"}, {"name": "Delta Resort Hotel", "location": "Karongi", "tel": "No phone number"}, {"name": "Romantic Hotel", "location": "Karongi", "tel": "No phone number"}, {"name": "Bethany Hotel A", "location": "Karongi", "tel": "No phone number"}, {"name": "Golf Eden Rock Hotel/MUGAMBIRA Aphrodis /Karongi", "location": "Karongi", "tel": "No phone number"}, {"name": "Spa Shallum", "location": "Karongi", "tel": "0789071756"}, {"name": "La Roche House", "location": "Karongi", "tel": "No phone number"}, {"name": "Mulberry Guest house", "location": "Karongi", "tel": "No phone number"}, {"name": "New Umunyinya House", "location": "Karongi", "tel": "No phone number"}, {"name": "Holiday Hotel", "location": "Karongi", "tel": "No phone number"}, {"name": "Centre Bethel", "location": "Karongi", "tel": "No phone number"}, {"name": "Best western echo hotel", "location": "Karongi", "tel": "No phone number"}, {"name": "Nyenyeli Holiday Hotel", "location": "Karongi", "tel": "No phone number"}, {"name": "Diana Fossey Rutsiro", "location": "Karongi", "tel": "No phone number"}, {"name": "Destella Guest House Kayonza", "location": "Kayonza", "tel": "No phone number"}, {"name": "Colours Club Spa & Village Resort", "location": "Kayonza", "tel": "No phone number"}, {"name": "Eastern Country Hotel", "location": "Kayonza", "tel": "No phone number"}, {"name": "Dereva Hotel", "location": "Kayonza", "tel": "No phone number"}, {"name": "Silent Hill Motel", "location": "Kayonza", "tel": "No phone number"}, {"name": "Elegancia Hotel", "location": "Kayonza", "tel": "No phone number"}, {"name": "Eastland Hotel", "location": "Kayonza", "tel": "No phone number"}, {"name": "Muhazi Beach Hotel", "location": "Kayonza", "tel": "No phone number"}, {"name": "Seed of Peace Center", "location": "Kayonza", "tel": "No phone number"}, {"name": "La Palisse Gashora", "location": "Kayonza", "tel": "No phone number"}, {"name": "Seed of Peace Center", "location": "Kayonza", "tel": "No phone number"}, {"name": "Vintage Cottage", "location": "Kayonza", "tel": "No phone number"}, {"name": "Avega East Hostel", "location": "Kayonza", "tel": "0788347018"}, {"name": "Motel Ikambere", "location": "Kayonza", "tel": "No phone number"}, {"name": "Centre Pastoral St. Augustin", "location": "Kayonza", "tel": "No phone number"}, {"name": "Mijo Hostel", "location": "Kicukiro", "tel": "No phone number"}, {"name": "Greenpage Suites", "location": "Kicukiro", "tel": "No phone number"}, {"name": "Rainbow Hotel", "location": "Kicukiro", "tel": "No phone number"}, {"name": "Feel At Home", "location": "Kicukiro", "tel": "No phone number"}, {"name": "GreenPage Garden Suites", "location": "Kicukiro", "tel": "No phone number"}, {"name": "Wailers Guest House", "location": "Kicukiro", "tel": "No phone number"}, {"name": "GreenPage Inn", "location": "Kicukiro", "tel": "No phone number"}, {"name": "Villa Asimba", "location": "Kicukiro", "tel": "No phone number"}, {"name": "Nova Apartment", "location": "Kicukiro", "tel": "No phone number"}, {"name": "Ishema Kigali Home", "location": "Kicukiro", "tel": "No phone number"}, {"name": "Yambi Hotel", "location": "Kicukiro", "tel": "No phone number"}, {"name": "Amahoro Smart Motel", "location": "Kicukiro", "tel": "No phone number"}, {"name": "Grazia Apartments", "location": "Kicukiro", "tel": "No phone number"}, {"name": "Remera Modern Guesthouse", "location": "Kicukiro", "tel": "No phone number"}, {"name": "The Nest Guesthouse", "location": "Kicukiro", "tel": "No phone number"}, {"name": "Mythos Boutique Hotel", "location": "Kicukiro", "tel": "No phone number"}, {"name": "Centre d'Acceuil Bonne Esp\u00e9rance", "location": "Kicukiro", "tel": "No phone number"}, {"name": "HOLLY GUESTINN", "location": "Kicukiro", "tel": "No phone number"}, {"name": "HILL CREST HOTEL", "location": "Kicukiro", "tel": "No phone number"}, {"name": "Ezra Boutique Hotel", "location": "Kicukiro", "tel": "No phone number"}, {"name": "Five To Five Hotel", "location": "Kicukiro", "tel": "No phone number"}, {"name": "RUJO ROOMS", "location": "Kicukiro", "tel": "No phone number"}, {"name": "The Sunshine Villa", "location": "Kicukiro", "tel": "No phone number"}, {"name": "The Hut Restaurant & Boutique Hotel", "location": "Kicukiro", "tel": "No phone number"}, {"name": "Lebanon Hotel Kigali", "location": "Kicukiro", "tel": "No phone number"}, {"name": "Corina K Guesthouse", "location": "Kicukiro", "tel": "No phone number"}, {"name": "Romalo Guest House", "location": "Kicukiro", "tel": "No phone number"}, {"name": "Classic Hotel", "location": "Kicukiro", "tel": "No phone number"}, {"name": "KIM Hotel", "location": "Kicukiro", "tel": "No phone number"}, {"name": "Yerbis Guest House", "location": "Kicukiro", "tel": "No phone number"}, {"name": "Rohi Apartments Hotel", "location": "Kicukiro", "tel": "0788306040"}, {"name": "Villanova Come Again", "location": "Kicukiro", "tel": "No phone number"}, {"name": "Best Inn Motel", "location": "Kicukiro", "tel": "No phone number"}, {"name": "Vincenzo Homestay", "location": "Kicukiro", "tel": "No phone number"}, {"name": "UMUGANO Guest House", "location": "Kicukiro", "tel": "No phone number"}, {"name": "The Court Boutique Hotel", "location": "Kicukiro", "tel": "No phone number"}, {"name": "H\u00f4tel Chez Lando", "location": "Kicukiro", "tel": "No phone number"}, {"name": "The Mirror Hotel", "location": "Kicukiro", "tel": "No phone number"}, {"name": "Peaceful Home Away From Home", "location": "Kicukiro", "tel": "No phone number"}, {"name": "Corina K Guest house", "location": "Kicukiro", "tel": "No phone number"}, {"name": "Plata Guest House", "location": "Kicukiro", "tel": "No phone number"}, {"name": "Grand Legacy Hotel", "location": "Kicukiro", "tel": "No phone number"}, {"name": "Happy Home and Dine", "location": "Kicukiro", "tel": "No phone number"}, {"name": "B.Maurice Guest House", "location": "Kicukiro", "tel": "No phone number"}, {"name": "Zebra Tourism Hotel", "location": "Kicukiro", "tel": "No phone number"}, {"name": "Boston Villa Motel", "location": "Kicukiro", "tel": "No phone number"}, {"name": "Rubangura Luxury Apartments", "location": "Kicukiro", "tel": "No phone number"}, {"name": "The Crib", "location": "Kicukiro", "tel": "No phone number"}, {"name": "Amata n'Ubuki Boutique Hotel & Restaurant", "location": "Kicukiro", "tel": "No phone number"}, {"name": "Good News Guest House", "location": "Kicukiro", "tel": "No phone number"}, {"name": "Civitas Hotel", "location": "Kicukiro", "tel": "No phone number"}, {"name": "Jambo Guest House", "location": "Kicukiro", "tel": "No phone number"}, {"name": "Zenith Hotel Kigali", "location": "Kicukiro", "tel": "No phone number"}, {"name": "Amani Guesthouse", "location": "Kicukiro", "tel": "No phone number"}, {"name": "B VILLA HOTEL", "location": "Kicukiro", "tel": "No phone number"}, {"name": "Lemigo Hotel", "location": "Kicukiro", "tel": "No phone number"}, {"name": "Price Guest House", "location": "Kicukiro", "tel": "No phone number"}, {"name": "Radisson Blu Hotel & Convention Centre, Kigali", "location": "Kicukiro", "tel": "No phone number"}, {"name": "Greenwich Hotel", "location": "Kicukiro", "tel": "No phone number"}, {"name": "Centre Saint Vincent Pallotti", "location": "Kicukiro", "tel": "No phone number"}, {"name": "Beaus\u00e9jour Hotel", "location": "Kicukiro", "tel": "No phone number"}, {"name": "The Nest", "location": "Kicukiro", "tel": "No phone number"}, {"name": "Kings Hostel", "location": "Kicukiro", "tel": "No phone number"}, {"name": "Select", "location": "Kicukiro", "tel": "No phone number"}, {"name": "The Hut", "location": "Kicukiro", "tel": "No phone number"}, {"name": "HILL CREST HOTEL", "location": "Kicukiro", "tel": "No phone number"}, {"name": "Kings Hospitality Centre", "location": "Kicukiro", "tel": "No phone number"}, {"name": "Modern Villa Hotel", "location": "Kicukiro", "tel": "No phone number"}, {"name": "Piece Motel", "location": "Kicukiro", "tel": "No phone number"}, {"name": "St Augustine Apart & Hotel", "location": "Kicukiro", "tel": "No phone number"}, {"name": "Accord Hotel", "location": "Kicukiro", "tel": "No phone number"}, {"name": "The Memory Makers Hospitality Service", "location": "Kicukiro", "tel": "No phone number"}, {"name": "Eden Escape Apartments", "location": "Kicukiro", "tel": "No phone number"}, {"name": "Champion Hotel", "location": "Kicukiro", "tel": "No phone number"}, {"name": "Cari Hotel", "location": "Kicukiro", "tel": "No phone number"}, {"name": "CityBlue Hotel & Suites", "location": "Kicukiro", "tel": "No phone number"}, {"name": "Zenith Hotel", "location": "Kicukiro", "tel": "No phone number"}, {"name": "Kigali Diplomat Hotel", "location": "Kicukiro", "tel": "No phone number"}, {"name": "IGITEGO HOTEL", "location": "Kicukiro", "tel": "No phone number"}, {"name": "Africa New Life Guest House", "location": "Kicukiro", "tel": "No phone number"}, {"name": "New Life Guest House", "location": "Kicukiro", "tel": "No phone number"}, {"name": "Nice Corner Guest House", "location": "Kicukiro", "tel": "No phone number"}, {"name": "Upendo Guest House", "location": "Kicukiro", "tel": "No phone number"}, {"name": "St Barnabas CAC", "location": "Kicukiro", "tel": "No phone number"}, {"name": "Prince Guest House", "location": "Kicukiro", "tel": "No phone number"}, {"name": "Hotel Tech Remera", "location": "Kicukiro", "tel": "No phone number"}, {"name": "Talking Through Art", "location": "Kicukiro", "tel": "0782425177"}, {"name": "Kigali House of Stories", "location": "Kicukiro", "tel": "No phone number"}, {"name": "Amacumbi Steclem", "location": "Kicukiro", "tel": "No phone number"}, {"name": "Dream Guest House", "location": "Kicukiro", "tel": "No phone number"}, {"name": "Ava House", "location": "Kicukiro", "tel": "No phone number"}, {"name": "Batik Maison d'H\u00f4te", "location": "Kicukiro", "tel": "No phone number"}, {"name": "Tea House Bis", "location": "Kicukiro", "tel": "No phone number"}, {"name": "St Augustine Hotel", "location": "Kicukiro", "tel": "No phone number"}, {"name": "Parador Motel", "location": "Kicukiro", "tel": "No phone number"}, {"name": "Pure Africa Cafe", "location": "Kicukiro", "tel": "No phone number"}, {"name": "Shammah Guest House", "location": "Kicukiro", "tel": "No phone number"}, {"name": "Makutano Club and Resorts", "location": "Kicukiro", "tel": "0780112228"}, {"name": "Havila apartment", "location": "Kicukiro", "tel": "No phone number"}, {"name": "HELLO HOME", "location": "Kicukiro", "tel": "No phone number"}, {"name": "New Hope lodge", "location": "Kicukiro", "tel": "No phone number"}, {"name": "Centre St Joseph", "location": "Kirehe", "tel": "No phone number"}, {"name": "Kibungo - Centre St. Joseph Guest House", "location": "Kirehe", "tel": "No phone number"}, {"name": "Splendid Hotel", "location": "Muhanga", "tel": "No phone number"}, {"name": "Hotel Saint-Andre Kabgayi", "location": "Muhanga", "tel": "No phone number"}, {"name": "Jangwe Lodge", "location": "Muhanga", "tel": "No phone number"}, {"name": "Azizi Life", "location": "Muhanga", "tel": "0785781146"}, {"name": "Umuco Hotel", "location": "Muhanga", "tel": "No phone number"}, {"name": "Muhanga in Cyakabiri Motel", "location": "Muhanga", "tel": "No phone number"}, {"name": "Mater Dei Motel", "location": "Muhanga", "tel": "No phone number"}, {"name": "Ururabo Guest House", "location": "Muhanga", "tel": "No phone number"}, {"name": "Dayenu Hotel", "location": "Muhanga", "tel": "No phone number"}, {"name": "Amatana Center Lodge", "location": "Muhanga", "tel": "No phone number"}, {"name": "Sifa Guest House", "location": "Muhanga", "tel": "No phone number"}, {"name": "Rufradu Hotel 1", "location": "Muhanga", "tel": "No phone number"}, {"name": "Mater Dei Motel", "location": "Muhanga", "tel": "No phone number"}, {"name": "Ruhondo Beach Resort", "location": "Musanze", "tel": "No phone number"}, {"name": "Mountain Gorilla Nest Hotel", "location": "Musanze", "tel": "No phone number"}, {"name": "VILLA GORILLA", "location": "Musanze", "tel": "No phone number"}, {"name": "La Locanda", "location": "Musanze", "tel": "No phone number"}, {"name": "Faraja Hotel", "location": "Musanze", "tel": "No phone number"}, {"name": "Virunga Hotel", "location": "Musanze", "tel": "No phone number"}, {"name": "Musanze Caves Hotel", "location": "Musanze", "tel": "No phone number"}, {"name": "Gorillas Volcanoes Hotel", "location": "Musanze", "tel": "No phone number"}, {"name": "Isange Paradise Resort", "location": "Musanze", "tel": "No phone number"}, {"name": "Gorillas Volcanoes Hotel", "location": "Musanze", "tel": "No phone number"}, {"name": "Le Bambou Gorilla Lodge", "location": "Musanze", "tel": "No phone number"}, {"name": "Red Rocks Rwanda", "location": "Musanze", "tel": "No phone number"}, {"name": "Ruhondo Beach Resort", "location": "Musanze", "tel": "No phone number"}, {"name": "The Garden Place Hotel", "location": "Musanze", "tel": "No phone number"}, {"name": "Five Volcanoes Boutique Hotel", "location": "Musanze", "tel": "0789924969"}, {"name": "Fatima Hotel", "location": "Musanze", "tel": "No phone number"}, {"name": "East Africa Amazon Guest House Musanze", "location": "Musanze", "tel": "No phone number"}, {"name": "Snow Hotel Rwanda", "location": "Musanze", "tel": "No phone number"}, {"name": "Home Inn", "location": "Musanze", "tel": "No phone number"}, {"name": "Ingagi Park View Lodge", "location": "Musanze", "tel": "No phone number"}, {"name": "Lake Chahafi Resort", "location": "Musanze", "tel": "No phone number"}, {"name": "Bambou Gorilla Lodge", "location": "Musanze", "tel": "No phone number"}, {"name": "Mountain Gorilla View Lodge", "location": "Musanze", "tel": "No phone number"}, {"name": "The Bishop's House Rwanda", "location": "Musanze", "tel": "No phone number"}, {"name": "Amakoro Songa Lodge", "location": "Musanze", "tel": "No phone number"}, {"name": "Filon d'Or Guest House and Campsite", "location": "Musanze", "tel": "No phone number"}, {"name": "Urugano Virunga Palace", "location": "Musanze", "tel": "No phone number"}, {"name": "Auberge Ikaze", "location": "Musanze", "tel": "No phone number"}, {"name": "La Palme Hotel", "location": "Musanze", "tel": "No phone number"}, {"name": "Classic Lodge", "location": "Musanze", "tel": "No phone number"}, {"name": "Amahoro Guesthouse", "location": "Musanze", "tel": "No phone number"}, {"name": "Fatima Hotel", "location": "Musanze", "tel": "No phone number"}, {"name": "Buffalo Mountain Lodge", "location": "Musanze", "tel": "0788529550"}, {"name": "Volcano View B&B", "location": "Musanze", "tel": "No phone number"}, {"name": "Best View Hotel", "location": "Musanze", "tel": "No phone number"}, {"name": "Amahoro Guest House", "location": "Musanze", "tel": "No phone number"}, {"name": "La Voisina Motel", "location": "Musanze", "tel": "No phone number"}, {"name": "Pearl Guest House", "location": "Musanze", "tel": "No phone number"}, {"name": "Hotel Muhabura", "location": "Musanze", "tel": "No phone number"}, {"name": "My Hill Eco Lodge", "location": "Musanze", "tel": "No phone number"}, {"name": "Twin Lakes Lodge", "location": "Musanze", "tel": "No phone number"}, {"name": "Mountain Gorilla View Lodge", "location": "Musanze", "tel": "No phone number"}, {"name": "One&Only Gorilla's Nest", "location": "Musanze", "tel": "No phone number"}, {"name": "Mt.Muhabura Climbers Rest Camp", "location": "Musanze", "tel": "No phone number"}, {"name": "Sabyinyo Silverback Lodge", "location": "Musanze", "tel": "No phone number"}, {"name": "Five Volcanoes Boutique Hotel", "location": "Musanze", "tel": "No phone number"}, {"name": "Singita Kwitonda Lodge", "location": "Musanze", "tel": "No phone number"}, {"name": "Urugaga Imbaraga", "location": "Musanze", "tel": "No phone number"}, {"name": "Montana Vista Hotel - Rwanda, Africa", "location": "Musanze", "tel": "No phone number"}, {"name": "Byiza Lodge", "location": "Musanze", "tel": "No phone number"}, {"name": "Villa Gorilla", "location": "Musanze", "tel": "No phone number"}, {"name": "Sainte Anne", "location": "Musanze", "tel": "No phone number"}, {"name": "Virunga Lodge", "location": "Musanze", "tel": "No phone number"}, {"name": "Tiloreza Volcanoes Ecolodge", "location": "Musanze", "tel": "No phone number"}, {"name": "western mountain hotel", "location": "Musanze", "tel": "No phone number"}, {"name": "Kinigi Guest House", "location": "Musanze", "tel": "No phone number"}, {"name": "Centre Pastoral Notre Dame de Fatima", "location": "Musanze", "tel": "No phone number"}, {"name": "Venus Villa Guest House 02", "location": "Musanze", "tel": "No phone number"}, {"name": "Sainte Anne Hotel", "location": "Musanze", "tel": "No phone number"}, {"name": "Hotel Urumuli", "location": "Musanze", "tel": "No phone number"}, {"name": "Snow Hotel", "location": "Musanze", "tel": "No phone number"}, {"name": "Venus Villa Guest House 01", "location": "Musanze", "tel": "No phone number"}, {"name": "FIDOS GUEST HOUSE & SAFARIS", "location": "Musanze", "tel": "No phone number"}, {"name": "La Paillotte Gorilla Place", "location": "Musanze", "tel": "No phone number"}, {"name": "La Silene", "location": "Musanze", "tel": "0783785399"}, {"name": "Mount Gahinga Lodge", "location": "Musanze", "tel": "No phone number"}, {"name": "New Silver Hotel", "location": "Musanze", "tel": "No phone number"}, {"name": "Red Rocks Cultural Center", "location": "Musanze", "tel": "No phone number"}, {"name": "La Paillotte Gorilla Place Kinigi", "location": "Musanze", "tel": "No phone number"}, {"name": "La Paillotte Gorilla Place Kingi", "location": "Musanze", "tel": "No phone number"}, {"name": "La Palme Hotel", "location": "Musanze", "tel": "No phone number"}, {"name": "Migano hotel", "location": "Musanze", "tel": "No phone number"}, {"name": "La Paillotte Cyuza Island", "location": "Musanze", "tel": "No phone number"}, {"name": "Peakspot Kinigi Camp", "location": "Musanze", "tel": "No phone number"}, {"name": "Motel Mont Kirerema 2", "location": "Musanze", "tel": "No phone number"}, {"name": "Amajambere Iwacu Community Camp", "location": "Musanze", "tel": "No phone number"}, {"name": "Crested Crane", "location": "Musanze", "tel": "No phone number"}, {"name": "Amizero Lodge", "location": "Musanze", "tel": "No phone number"}, {"name": "Twin Lakes Lodge", "location": "Musanze", "tel": "No phone number"}, {"name": "Shadow House Peace Guest House", "location": "Musanze", "tel": "No phone number"}, {"name": "Chaamban Hotel", "location": "Musanze", "tel": "No phone number"}, {"name": "Volcano Gate Motel", "location": "Musanze", "tel": "No phone number"}, {"name": "Kibungo - Centre St. Joseph Guest House", "location": "Ngoma", "tel": "No phone number"}, {"name": "Centre St Joseph", "location": "Ngoma", "tel": "No phone number"}, {"name": "Hotel Rufrabu", "location": "Ngororero", "tel": "No phone number"}, {"name": "Splendid Hotel", "location": "Ngororero", "tel": "No phone number"}, {"name": "Ubumwe Hotel", "location": "Ngororero", "tel": "No phone number"}, {"name": "Lake Kivu Serena Hotel", "location": "Ngororero", "tel": "No phone number"}, {"name": "Belvedere Hotel", "location": "Ngororero", "tel": "No phone number"}, {"name": "Mater Dei Motel", "location": "Ngororero", "tel": "No phone number"}, {"name": "Stipp Hotel Gisenyi", "location": "Ngororero", "tel": "No phone number"}, {"name": "Gorillas Lake Kivu Hotel", "location": "Ngororero", "tel": "No phone number"}, {"name": "Golf Eden Rock Hotel/MUGAMBIRA Aphrodis /Karongi", "location": "Ngororero", "tel": "No phone number"}, {"name": "Best Choice Lodge", "location": "Ngororero", "tel": "No phone number"}, {"name": "HOTEL SAINT-ANDRE KABGAYI", "location": "Ngororero", "tel": "No phone number"}, {"name": "Dayenu Hotel", "location": "Ngororero", "tel": "No phone number"}, {"name": "Rufradu Hotel 1", "location": "Ngororero", "tel": "No phone number"}, {"name": "Hotel Saint-Andre Kabgayi", "location": "Ngororero", "tel": "No phone number"}, {"name": "Kigali Marriott Hotel", "location": "Ngororero", "tel": "No phone number"}, {"name": "Marasa Umubano Hotel", "location": "Ngororero", "tel": "No phone number"}, {"name": "Accord Hotel", "location": "Ngororero", "tel": "No phone number"}, {"name": "Amatana Center Lodge", "location": "Ngororero", "tel": "No phone number"}, {"name": "Shadow House Peace Guest House", "location": "Ngororero", "tel": "No phone number"}, {"name": "Scheba Hotel", "location": "Ngororero", "tel": "No phone number"}, {"name": "Kigali Serena Hotel", "location": "Ngororero", "tel": "No phone number"}, {"name": "Hill View Hotel", "location": "Ngororero", "tel": "No phone number"}, {"name": "Radisson Blu Hotel & Convention Centre, Kigali", "location": "Ngororero", "tel": "No phone number"}, {"name": "Gorillas Golf Hotel", "location": "Ngororero", "tel": "No phone number"}, {"name": "Lemigo Hotel", "location": "Ngororero", "tel": "No phone number"}, {"name": "Dmall Hotel", "location": "Ngororero", "tel": "No phone number"}, {"name": "Five To Five Hotel", "location": "Ngororero", "tel": "No phone number"}, {"name": "The Court Boutique Hotel", "location": "Ngororero", "tel": "No phone number"}, {"name": "Karisimbi Hotel", "location": "Ngororero", "tel": "No phone number"}, {"name": "Garr Hotel", "location": "Ngororero", "tel": "No phone number"}, {"name": "Blessington Motel Ltd", "location": "Ngororero", "tel": "No phone number"}, {"name": "Cari Hotel", "location": "Ngororero", "tel": "No phone number"}, {"name": "5 Swiss Hotel", "location": "Ngororero", "tel": "No phone number"}, {"name": "Iwawe Hotel", "location": "Ngororero", "tel": "No phone number"}, {"name": "Stipp Hotel Kiyovu", "location": "Ngororero", "tel": "No phone number"}, {"name": "Diana Fossey Rutsiro", "location": "Ngororero", "tel": "No phone number"}, {"name": "The Manor Hotel", "location": "Ngororero", "tel": "No phone number"}, {"name": "Perle Boutique Hotel", "location": "Ngororero", "tel": "No phone number"}, {"name": "Kigali Diplomat Hotel", "location": "Ngororero", "tel": "No phone number"}, {"name": "Parkview Hotel", "location": "Ngororero", "tel": "No phone number"}, {"name": "Quiet Haven Hotel", "location": "Ngororero", "tel": "No phone number"}, {"name": "The Mirror Hotel", "location": "Ngororero", "tel": "No phone number"}, {"name": "Le Printemps Hotel Limited", "location": "Ngororero", "tel": "No phone number"}, {"name": "Grand Legacy Hotel", "location": "Ngororero", "tel": "No phone number"}, {"name": "Zebra Boutique Hotel", "location": "Ngororero", "tel": "No phone number"}, {"name": "Lebanon Hotel Kigali", "location": "Ngororero", "tel": "No phone number"}, {"name": "Anthurium Residential Hotel", "location": "Ngororero", "tel": "No phone number"}, {"name": "Amata n'Ubuki Boutique Hotel & Restaurant", "location": "Ngororero", "tel": "No phone number"}, {"name": "Amaris Hotel", "location": "Ngororero", "tel": "No phone number"}, {"name": "Zenith Hotel", "location": "Ngororero", "tel": "No phone number"}, {"name": "Hotel Villa Portofino Kigali", "location": "Ngororero", "tel": "No phone number"}, {"name": "Beaus\u00e9jour Hotel", "location": "Ngororero", "tel": "No phone number"}, {"name": "Andalusia Hotel Rwanda", "location": "Ngororero", "tel": "No phone number"}, {"name": "Wailers Guest House", "location": "Ngororero", "tel": "No phone number"}, {"name": "2000 Hotel", "location": "Ngororero", "tel": "No phone number"}, {"name": "Zenith Hotel Kigali", "location": "Ngororero", "tel": "No phone number"}, {"name": "Classic Hotel", "location": "Ngororero", "tel": "No phone number"}, {"name": "Star Hotel", "location": "Ngororero", "tel": "No phone number"}, {"name": "Bethany Hotel A", "location": "Ngororero", "tel": "No phone number"}, {"name": "Next-Gen Boutique Hotel", "location": "Ngororero", "tel": "No phone number"}, {"name": "La Palisse Hotel Nyamata", "location": "Ngororero", "tel": "No phone number"}, {"name": "Rainbow Hotel", "location": "Ngororero", "tel": "No phone number"}, {"name": "Guest House La Serenite", "location": "Ngororero", "tel": "No phone number"}, {"name": "Bougainvilla Boutique Hotel", "location": "Ngororero", "tel": "No phone number"}, {"name": "Champion Hotel", "location": "Ngororero", "tel": "No phone number"}, {"name": "Kivu Peace View Hotel", "location": "Ngororero", "tel": "No phone number"}, {"name": "Cari Hotel", "location": "Ngororero", "tel": "No phone number"}, {"name": "Hill View Hotel", "location": "Ngororero", "tel": "No phone number"}, {"name": "Hotel Gorillas Kigali City Centre", "location": "Ngororero", "tel": "No phone number"}, {"name": "The Country Inn Hotel", "location": "Ngororero", "tel": "No phone number"}, {"name": "Petit Bassam Hotel", "location": "Ngororero", "tel": "No phone number"}, {"name": "Nirvana Heights Hotel & Spa", "location": "Ngororero", "tel": "No phone number"}, {"name": "Civitas Hotel", "location": "Ngororero", "tel": "No phone number"}, {"name": "H\u00f4tel Chez Lando", "location": "Ngororero", "tel": "No phone number"}, {"name": "Hotel Sienna", "location": "Ngororero", "tel": "No phone number"}, {"name": "Hotel Isimbi", "location": "Ngororero", "tel": "No phone number"}, {"name": "Prime Hotels Kigali", "location": "Ngororero", "tel": "No phone number"}, {"name": "World House Gisozi Hotel", "location": "Ngororero", "tel": "No phone number"}, {"name": "Highlands Suites Hotel", "location": "Ngororero", "tel": "No phone number"}, {"name": "Olympic Hotel", "location": "Ngororero", "tel": "No phone number"}, {"name": "Gloria Hotel", "location": "Ngororero", "tel": "No phone number"}, {"name": "Asante Hotel Gisenyi", "location": "Ngororero", "tel": "No phone number"}, {"name": "Bloom Back Hotel", "location": "Ngororero", "tel": "No phone number"}, {"name": "Modern Villa Hotel", "location": "Ngororero", "tel": "No phone number"}, {"name": "Olympic Hotel", "location": "Ngororero", "tel": "No phone number"}, {"name": "Urban by CityBlue", "location": "Ngororero", "tel": "No phone number"}, {"name": "Extra Inn Kigali", "location": "Ngororero", "tel": "No phone number"}, {"name": "Dove Hotel Kigali", "location": "Ngororero", "tel": "No phone number"}, {"name": "Infinity Hotel", "location": "Ngororero", "tel": "No phone number"}, {"name": "Inzu Lodge", "location": "Ngororero", "tel": "No phone number"}, {"name": "Prime Hotels", "location": "Ngororero", "tel": "No phone number"}, {"name": "Select", "location": "Ngororero", "tel": "No phone number"}, {"name": "Kigali Airport Hotel", "location": "Ngororero", "tel": "No phone number"}, {"name": "Alink Hotel", "location": "Ngororero", "tel": "No phone number"}, {"name": "Flame Tree Village", "location": "Ngororero", "tel": "No phone number"}, {"name": "Rwiza Village.", "location": "Ngororero", "tel": "No phone number"}, {"name": "Step Town Motel", "location": "Ngororero", "tel": "No phone number"}, {"name": "St Augustine Hotel", "location": "Ngororero", "tel": "No phone number"}, {"name": "Musanto Hotel", "location": "Ngororero", "tel": "No phone number"}, {"name": "Elevate Suites", "location": "Ngororero", "tel": "No phone number"}, {"name": "Musanto Hotel", "location": "Ngororero", "tel": "No phone number"}, {"name": "Elevate Suites", "location": "Ngororero", "tel": "No phone number"}, {"name": "Nice Corner Guest House", "location": "Ngororero", "tel": "No phone number"}, {"name": "Hotel Italiano AL Lago", "location": "Ngororero", "tel": "No phone number"}, {"name": "Colours Club", "location": "Ngororero", "tel": "No phone number"}, {"name": "Hotel Tech", "location": "Ngororero", "tel": "No phone number"}, {"name": "Diana Fossey Nyiramacibiri Hotel", "location": "Ngororero", "tel": "No phone number"}, {"name": "Heaven Boutique Hotel Villa", "location": "Ngororero", "tel": "No phone number"}, {"name": "Waterfront Resort Lake Kivu", "location": "Ngororero", "tel": "No phone number"}, {"name": "Park View Hotel", "location": "Ngororero", "tel": "No phone number"}, {"name": "Hilltop Hotel and Country Club", "location": "Ngororero", "tel": "No phone number"}, {"name": "Keva Guest House", "location": "Ngororero", "tel": "No phone number"}, {"name": "Mountain Gorilla View", "location": "Ngororero", "tel": "No phone number"}, {"name": "Red Rocks Rwanda", "location": "Nyabihu", "tel": "No phone number"}, {"name": "Filon d'Or Guest House and Campsite", "location": "Nyabihu", "tel": "No phone number"}, {"name": "Ingagi Park View Lodge", "location": "Nyabihu", "tel": "No phone number"}, {"name": "Isange Paradise Resort", "location": "Nyabihu", "tel": "No phone number"}, {"name": "Mountain Gorilla Nest Hotel", "location": "Nyabihu", "tel": "No phone number"}, {"name": "VILLA GORILLA", "location": "Nyabihu", "tel": "No phone number"}, {"name": "Amahoro Guesthouse", "location": "Nyabihu", "tel": "No phone number"}, {"name": "La Locanda", "location": "Nyabihu", "tel": "No phone number"}, {"name": "Bambou Gorilla Lodge", "location": "Nyabihu", "tel": "No phone number"}, {"name": "Mountain Gorilla View Lodge", "location": "Nyabihu", "tel": "No phone number"}, {"name": "Auberge Ikaze", "location": "Nyabihu", "tel": "No phone number"}, {"name": "Gorillas Volcanoes Hotel", "location": "Nyabihu", "tel": "No phone number"}, {"name": "Urugano Virunga Palace", "location": "Nyabihu", "tel": "No phone number"}, {"name": "East Africa Amazon Guest House Musanze", "location": "Nyabihu", "tel": "No phone number"}, {"name": "Faraja Hotel", "location": "Nyabihu", "tel": "No phone number"}, {"name": "Buffalo Mountain Lodge", "location": "Nyabihu", "tel": "0788529550"}, {"name": "Musanze Caves Hotel", "location": "Nyabihu", "tel": "No phone number"}, {"name": "Gorillas Volcanoes Hotel", "location": "Nyabihu", "tel": "No phone number"}, {"name": "La Silene", "location": "Nyabihu", "tel": "0783785399"}, {"name": "The Garden Place Hotel", "location": "Nyabihu", "tel": "No phone number"}, {"name": "Virunga Hotel", "location": "Nyabihu", "tel": "No phone number"}, {"name": "Pearl Guest House", "location": "Nyabihu", "tel": "No phone number"}, {"name": "Snow Hotel Rwanda", "location": "Nyabihu", "tel": "No phone number"}, {"name": "Fatima Hotel", "location": "Nyabihu", "tel": "No phone number"}, {"name": "Amahoro Guest House", "location": "Nyabihu", "tel": "No phone number"}, {"name": "Five Volcanoes Boutique Hotel", "location": "Nyabihu", "tel": "0789924969"}, {"name": "Home Inn", "location": "Nyabihu", "tel": "No phone number"}, {"name": "Volcano View B&B", "location": "Nyabihu", "tel": "No phone number"}, {"name": "Hotel Muhabura", "location": "Nyabihu", "tel": "No phone number"}, {"name": "La Voisina Motel", "location": "Nyabihu", "tel": "No phone number"}, {"name": "The Bishop's House Rwanda", "location": "Nyabihu", "tel": "No phone number"}, {"name": "Classic Lodge", "location": "Nyabihu", "tel": "No phone number"}, {"name": "Amizero Lodge", "location": "Nyabihu", "tel": "No phone number"}, {"name": "Venus Villa Guest House 02", "location": "Nyabihu", "tel": "No phone number"}, {"name": "Sainte Anne", "location": "Nyabihu", "tel": "No phone number"}, {"name": "Motel Mont Kirerema 2", "location": "Nyabihu", "tel": "No phone number"}, {"name": "La Paillotte Gorilla Place", "location": "Nyabihu", "tel": "No phone number"}, {"name": "Red Rocks Cultural Center", "location": "Nyabihu", "tel": "No phone number"}, {"name": "Best View Hotel", "location": "Nyabihu", "tel": "No phone number"}, {"name": "Volcano Gate Motel", "location": "Nyabihu", "tel": "No phone number"}, {"name": "La Palme Hotel", "location": "Nyabihu", "tel": "No phone number"}, {"name": "Five Volcanoes Boutique Hotel", "location": "Nyabihu", "tel": "No phone number"}, {"name": "Urugaga Imbaraga", "location": "Nyabihu", "tel": "No phone number"}, {"name": "FIDOS GUEST HOUSE & SAFARIS", "location": "Nyabihu", "tel": "No phone number"}, {"name": "Centre Pastoral Notre Dame de Fatima", "location": "Nyabihu", "tel": "No phone number"}, {"name": "Tiloreza Volcanoes Ecolodge", "location": "Nyabihu", "tel": "No phone number"}, {"name": "Venus Villa Guest House 01", "location": "Nyabihu", "tel": "No phone number"}, {"name": "Shadow House Peace Guest House", "location": "Nyabihu", "tel": "No phone number"}, {"name": "Hotel Urumuli", "location": "Nyabihu", "tel": "No phone number"}, {"name": "Fatima Hotel", "location": "Nyabihu", "tel": "No phone number"}, {"name": "One&Only Gorilla's Nest", "location": "Nyabihu", "tel": "No phone number"}, {"name": "Chaamban Hotel", "location": "Nyabihu", "tel": "No phone number"}, {"name": "Snow Hotel", "location": "Nyabihu", "tel": "No phone number"}, {"name": "La Paillotte Gorilla Place Kinigi", "location": "Nyabihu", "tel": "No phone number"}, {"name": "Crested Crane", "location": "Nyabihu", "tel": "No phone number"}, {"name": "La Palme Hotel", "location": "Nyabihu", "tel": "No phone number"}, {"name": "Peakspot Kinigi Camp", "location": "Nyabihu", "tel": "No phone number"}, {"name": "western mountain hotel", "location": "Nyabihu", "tel": "No phone number"}, {"name": "Migano hotel", "location": "Nyabihu", "tel": "No phone number"}, {"name": "La Paillotte Gorilla Place Kingi", "location": "Nyabihu", "tel": "No phone number"}, {"name": "Sainte Anne Hotel", "location": "Nyabihu", "tel": "No phone number"}, {"name": "New Silver Hotel", "location": "Nyabihu", "tel": "No phone number"}, {"name": "EPIC Hotel and Suites", "location": "Nyagatare", "tel": "No phone number"}, {"name": "Nyagatare Diplomat Hotel", "location": "Nyagatare", "tel": "No phone number"}, {"name": "Seed of Hope Center", "location": "Nyagatare", "tel": "No phone number"}, {"name": "Kitabi Eco-Center", "location": "Nyamagabe", "tel": "0787260016"}, {"name": "Nyungwe Nziza Ecolodge", "location": "Nyamagabe", "tel": "0784733417"}, {"name": "Golden Monkey Hotel", "location": "Nyamagabe", "tel": "No phone number"}, {"name": "Ubumwe Center Kigeme Ltd", "location": "Nyamagabe", "tel": "No phone number"}, {"name": "Nyungwe Top View Hill Hotel", "location": "Nyamagabe", "tel": "No phone number"}, {"name": "Montana Motel", "location": "Nyamagabe", "tel": "No phone number"}, {"name": "Honey In Honey Motel", "location": "Nyamagabe", "tel": "No phone number"}, {"name": "Gisakura Family Hostel", "location": "Nyamagabe", "tel": "No phone number"}, {"name": "One&Only Nyungwe House", "location": "Nyamasheke", "tel": "No phone number"}, {"name": "Nyungwe Forest Lodge", "location": "Nyamasheke", "tel": "No phone number"}, {"name": "NYUNGWE TOP VIEW HILL HOTEL", "location": "Nyamasheke", "tel": "No phone number"}, {"name": "Gisakura Family hostel", "location": "Nyamasheke", "tel": "No phone number"}, {"name": "Rubava Motel", "location": "Nyamasheke", "tel": "No phone number"}, {"name": "Nobleza Hotel", "location": "Nyanza", "tel": "No phone number"}, {"name": "Nyanza Heritage Hotel", "location": "Nyanza", "tel": "No phone number"}, {"name": "Dayenu Hotel Nyanza", "location": "Nyanza", "tel": "No phone number"}, {"name": "Amacumbi Steclem", "location": "Nyanza", "tel": "No phone number"}, {"name": "Jambo Inn", "location": "Nyanza", "tel": "No phone number"}, {"name": "Goodlife Lodge", "location": "Nyanza", "tel": "No phone number"}, {"name": "HILL CREST HOTEL", "location": "Nyanza", "tel": "No phone number"}, {"name": "Homeland Bar", "location": "Nyanza", "tel": "No phone number"}, {"name": "Kinyange Gardens Hotel", "location": "Nyanza", "tel": "No phone number"}, {"name": "New Life Motel", "location": "Nyanza", "tel": "No phone number"}, {"name": "Umuco Hotel", "location": "Nyanza", "tel": "No phone number"}, {"name": "New Life Motel", "location": "Nyanza", "tel": "No phone number"}, {"name": "Kigali Genocide Memorial", "location": "Nyanza", "tel": "No phone number"}, {"name": "Dayenu Hotel", "location": "Nyanza", "tel": "No phone number"}, {"name": "Eden Palace Hotel", "location": "Nyanza", "tel": "No phone number"}, {"name": "Ibis Hotel", "location": "Nyanza", "tel": "No phone number"}, {"name": "Nyanza", "location": "Nyanza", "tel": "No phone number"}, {"name": "FOREST GARDEN Hotel", "location": "Nyanza", "tel": "No phone number"}, {"name": "Mijo Hostel", "location": "Nyarugenge", "tel": "No phone number"}, {"name": "Kigali Marriott Hotel", "location": "Nyarugenge", "tel": "No phone number"}, {"name": "H\u00f4tel des Mille Collines", "location": "Nyarugenge", "tel": "No phone number"}, {"name": "Urban by CityBlue", "location": "Nyarugenge", "tel": "No phone number"}, {"name": "Sweet Stay Guest House", "location": "Nyarugenge", "tel": "No phone number"}, {"name": "Mythos Boutique Hotel", "location": "Nyarugenge", "tel": "No phone number"}, {"name": "Perle Boutique Hotel", "location": "Nyarugenge", "tel": "No phone number"}, {"name": "Park Inn by Radisson Kigali", "location": "Nyarugenge", "tel": "No phone number"}, {"name": "Peace and Grace Motel", "location": "Nyarugenge", "tel": "No phone number"}, {"name": "Heaven Restaurant & Boutique Hotel", "location": "Nyarugenge", "tel": "No phone number"}, {"name": "La Posh Hotel", "location": "Nyarugenge", "tel": "No phone number"}, {"name": "Kigali Serena Hotel", "location": "Nyarugenge", "tel": "No phone number"}, {"name": "Heaven Boutique Hotel Villa", "location": "Nyarugenge", "tel": "No phone number"}, {"name": "Inside Afrika Hotel", "location": "Nyarugenge", "tel": "No phone number"}, {"name": "5 Swiss Hotel", "location": "Nyarugenge", "tel": "No phone number"}, {"name": "Ubumwe Grande Hotel", "location": "Nyarugenge", "tel": "No phone number"}, {"name": "Hotel Gloria", "location": "Nyarugenge", "tel": "No phone number"}, {"name": "2000 Hotel", "location": "Nyarugenge", "tel": "No phone number"}, {"name": "Hill View Hotel", "location": "Nyarugenge", "tel": "No phone number"}, {"name": "Onomo Hotel", "location": "Nyarugenge", "tel": "No phone number"}, {"name": "Mijo Hostel", "location": "Nyarugenge", "tel": "No phone number"}, {"name": "Kigali Marriott Hotel", "location": "Nyarugenge", "tel": "No phone number"}, {"name": "H\u00f4tel des Mille Collines", "location": "Nyarugenge", "tel": "No phone number"}, {"name": "Urban by CityBlue", "location": "Nyarugenge", "tel": "No phone number"}, {"name": "Sweet Stay Guest House", "location": "Nyarugenge", "tel": "No phone number"}, {"name": "Mythos Boutique Hotel", "location": "Nyarugenge", "tel": "No phone number"}, {"name": "Perle Boutique Hotel", "location": "Nyarugenge", "tel": "No phone number"}, {"name": "Park Inn by Radisson Kigali", "location": "Nyarugenge", "tel": "No phone number"}, {"name": "Peace and Grace Motel", "location": "Nyarugenge", "tel": "No phone number"}, {"name": "Heaven Restaurant & Boutique Hotel", "location": "Nyarugenge", "tel": "No phone number"}, {"name": "La Posh Hotel", "location": "Nyarugenge", "tel": "No phone number"}, {"name": "Kigali Serena Hotel", "location": "Nyarugenge", "tel": "No phone number"}, {"name": "Heaven Boutique Hotel Villa", "location": "Nyarugenge", "tel": "No phone number"}, {"name": "Inside Afrika Hotel", "location": "Nyarugenge", "tel": "No phone number"}, {"name": "5 Swiss Hotel", "location": "Nyarugenge", "tel": "No phone number"}, {"name": "Ubumwe Grande Hotel", "location": "Nyarugenge", "tel": "No phone number"}, {"name": "Hotel Gloria", "location": "Nyarugenge", "tel": "No phone number"}, {"name": "2000 Hotel", "location": "Nyarugenge", "tel": "No phone number"}, {"name": "Hill View Hotel", "location": "Nyarugenge", "tel": "No phone number"}, {"name": "Onomo Hotel", "location": "Nyarugenge", "tel": "No phone number"}, {"name": "Kitabi Eco-Center", "location": "Nyaruguru", "tel": "0787260016"}, {"name": "Hotel Twiga", "location": "Nyaruguru", "tel": "No phone number"}, {"name": "Nyungwe Nziza Ecolodge", "location": "Nyaruguru", "tel": "0784733417"}, {"name": "Light House Hotel", "location": "Nyaruguru", "tel": "No phone number"}, {"name": "Regina Pacis Kibeho", "location": "Nyaruguru", "tel": "No phone number"}, {"name": "KU Guesthouse", "location": "Nyaruguru", "tel": "No phone number"}, {"name": "H\u00f4tel Maisons-Sifa", "location": "Nyaruguru", "tel": "No phone number"}, {"name": "Residence Astrida", "location": "Nyaruguru", "tel": "No phone number"}, {"name": "Kolibri Paradise", "location": "Nyaruguru", "tel": "No phone number"}, {"name": "Barthos Hotel", "location": "Nyaruguru", "tel": "No phone number"}, {"name": "Mont Huye Motel", "location": "Nyaruguru", "tel": "No phone number"}, {"name": "Casa Hotel Ltd", "location": "Nyaruguru", "tel": "No phone number"}, {"name": "Hotel Ibis", "location": "Nyaruguru", "tel": "No phone number"}, {"name": "Nyungwe Top View Hill Hotel", "location": "Nyaruguru", "tel": "No phone number"}, {"name": "Honey In Honey Motel", "location": "Nyaruguru", "tel": "No phone number"}, {"name": "Mater Boni Consilii", "location": "Nyaruguru", "tel": "No phone number"}, {"name": "Hotel Credo", "location": "Nyaruguru", "tel": "No phone number"}, {"name": "Motel du Mont Huye", "location": "Nyaruguru", "tel": "No phone number"}, {"name": "Emaus Hostel", "location": "Nyaruguru", "tel": "No phone number"}, {"name": "Happiness Star Motel", "location": "Nyaruguru", "tel": "No phone number"}, {"name": "Galileo Hotel Stadium", "location": "Nyaruguru", "tel": "No phone number"}, {"name": "Wisdom Village Isangano", "location": "Nyaruguru", "tel": "No phone number"}, {"name": "Petit Prince (Four Steps) Hotel", "location": "Nyaruguru", "tel": "No phone number"}, {"name": "Heroes Motel", "location": "Nyaruguru", "tel": "No phone number"}, {"name": "Mater Boni Concilli", "location": "Nyaruguru", "tel": "No phone number"}, {"name": "Saint Vincent Motel", "location": "Nyaruguru", "tel": "No phone number"}, {"name": "Mumunyinya Relax Motel", "location": "Nyaruguru", "tel": "No phone number"}, {"name": "Hotel Faucon", "location": "Nyaruguru", "tel": "No phone number"}, {"name": "Beaux Arts", "location": "Nyaruguru", "tel": "No phone number"}, {"name": "Ineza Heritage", "location": "Nyaruguru", "tel": "No phone number"}, {"name": "Barthos Hotel", "location": "Nyaruguru", "tel": "No phone number"}, {"name": "Credo Hotel", "location": "Nyaruguru", "tel": "No phone number"}, {"name": "Shalom Guest House", "location": "Nyaruguru", "tel": "No phone number"}, {"name": "Beach Garden BnB", "location": "Rubavu", "tel": "0785612169"}, {"name": "Discover Rwanda Gisenyi Beach", "location": "Rubavu", "tel": "No phone number"}, {"name": "Kivu Peace View Hotel", "location": "Rubavu", "tel": "No phone number"}, {"name": "Inzu Lodge", "location": "Rubavu", "tel": "No phone number"}, {"name": "Lake Kivu Serena Hotel", "location": "Rubavu", "tel": "No phone number"}, {"name": "The Palm Beach Resort", "location": "Rubavu", "tel": "No phone number"}, {"name": "Paradis Malahide", "location": "Rubavu", "tel": "No phone number"}, {"name": "Family Nest Kivu", "location": "Rubavu", "tel": "No phone number"}, {"name": "Fanad Hotel Gisenyi", "location": "Rubavu", "tel": "No phone number"}, {"name": "Kivu Peace View Hotel", "location": "Rubavu", "tel": "No phone number"}, {"name": "Kivu Paradis Resort", "location": "Rubavu", "tel": "No phone number"}, {"name": "Palm Garden Resort", "location": "Rubavu", "tel": "No phone number"}, {"name": "Musanto Hotel", "location": "Rubavu", "tel": "No phone number"}, {"name": "Nirvana Heights Hotel & Spa", "location": "Rubavu", "tel": "No phone number"}, {"name": "Gorillas Lake Kivu Hotel", "location": "Rubavu", "tel": "No phone number"}, {"name": "Ubumwe Hotel", "location": "Rubavu", "tel": "No phone number"}, {"name": "CAP TUNEKO", "location": "Rubavu", "tel": "No phone number"}, {"name": "Asante Hotel Gisenyi", "location": "Rubavu", "tel": "No phone number"}, {"name": "Le Paradis", "location": "Rubavu", "tel": "No phone number"}, {"name": "Hill View Hotel", "location": "Rubavu", "tel": "No phone number"}, {"name": "Hotel Linda", "location": "Rubavu", "tel": "No phone number"}, {"name": "Kivu Paradis Ltd", "location": "Rubavu", "tel": "No phone number"}, {"name": "The Palm Beach Resort Lake Kivu", "location": "Rubavu", "tel": "No phone number"}, {"name": "Nirvana Heights Resort and Spa", "location": "Rubavu", "tel": "No phone number"}, {"name": "Centre d'Accueil Isidore Bakanja", "location": "Rubavu", "tel": "No phone number"}, {"name": "Stipp Hotel Gisenyi", "location": "Rubavu", "tel": "No phone number"}, {"name": "Sawa Sawa Gisenyi", "location": "Rubavu", "tel": "No phone number"}, {"name": "Hakuna Matata2 lodge", "location": "Rubavu", "tel": "No phone number"}, {"name": "Hotel JERRYSON", "location": "Rubavu", "tel": "No phone number"}, {"name": "Hotel VIP", "location": "Rubavu", "tel": "No phone number"}, {"name": "Motel La Corniche", "location": "Rubavu", "tel": "No phone number"}, {"name": "Cafe De Rome", "location": "Rubavu", "tel": "No phone number"}, {"name": "Goma, CENTRE D'ACCUEIL CARITAS", "location": "Rubavu", "tel": "No phone number"}, {"name": "Belvedere Hotel", "location": "Rubavu", "tel": "No phone number"}, {"name": "Diana Fossey Nyiramacibiri Hotel", "location": "Rubavu", "tel": "No phone number"}, {"name": "Hakuna Matata", "location": "Rubavu", "tel": "No phone number"}, {"name": "Waterfront Resort Lake Kivu", "location": "Rubavu", "tel": "No phone number"}, {"name": "Lasharte Geust House", "location": "Rubavu", "tel": "No phone number"}, {"name": "Happy Garden Motel", "location": "Rubavu", "tel": "No phone number"}, {"name": "Le Mercure Guesthouse", "location": "Rubavu", "tel": "No phone number"}, {"name": "Kivu Park Hotel", "location": "Rubavu", "tel": "No phone number"}, {"name": "Lac Kivu Lodge", "location": "Rubavu", "tel": "No phone number"}, {"name": "La Liberta Rubavu", "location": "Rubavu", "tel": "No phone number"}, {"name": "Kunda Village Guest House", "location": "Rubavu", "tel": "No phone number"}, {"name": "MBIZA", "location": "Rubavu", "tel": "No phone number"}, {"name": "La Bella", "location": "Rubavu", "tel": "No phone number"}, {"name": "Mostej Hotel", "location": "Rubavu", "tel": "No phone number"}, {"name": "Blessington Motel Ltd", "location": "Rubavu", "tel": "No phone number"}, {"name": "Palm garden Resort", "location": "Rubavu", "tel": "No phone number"}, {"name": "Nganda Zela Ngai Guest House", "location": "Rubavu", "tel": "No phone number"}, {"name": "Impala Amacumbi Lodge", "location": "Rubavu", "tel": "No phone number"}, {"name": "Ihusi Hotel", "location": "Rubavu", "tel": "No phone number"}, {"name": "Dian Fossey", "location": "Rubavu", "tel": "No phone number"}, {"name": "MUHABURA MOUNTAIN LODGE", "location": "Rubavu", "tel": "No phone number"}, {"name": "MUHABURA MOUNTAIN LODGE", "location": "Rubavu", "tel": "No phone number"}, {"name": "Elevate Suites Hotel Gisenyi", "location": "Rubavu", "tel": "No phone number"}, {"name": "Honest Inn", "location": "Rubavu", "tel": "No phone number"}, {"name": "Hotel Italiano AL Lago", "location": "Rubavu", "tel": "No phone number"}, {"name": "Mostej Hotel Ltd", "location": "Rubavu", "tel": "No phone number"}, {"name": "Western Mountain Hotel", "location": "Rubavu", "tel": "No phone number"}, {"name": "H\u00f4tel Cap Kivu", "location": "Rubavu", "tel": "No phone number"}, {"name": "Arundinaria Guest House", "location": "Rubavu", "tel": "No phone number"}, {"name": "Hotel La Brisse", "location": "Rubavu", "tel": "No phone number"}, {"name": "Hotel Des Grands Lacs", "location": "Rubavu", "tel": "No phone number"}, {"name": "Sam Motel", "location": "Rubavu", "tel": "No phone number"}, {"name": "Centre d'accueil Caritas", "location": "Rubavu", "tel": "No phone number"}, {"name": "Hotel la Versailles Goma", "location": "Rubavu", "tel": "No phone number"}, {"name": "Ten To Ten Guest House", "location": "Rubavu", "tel": "No phone number"}, {"name": "Hotel Cirezi", "location": "Rubavu", "tel": "No phone number"}, {"name": "Ishango guest house", "location": "Rubavu", "tel": "No phone number"}, {"name": "Hotel La Benediction", "location": "Rubavu", "tel": "No phone number"}, {"name": "La Joie Plazza Hotel", "location": "Rubavu", "tel": "No phone number"}, {"name": "Planette Motel", "location": "Rubavu", "tel": "No phone number"}, {"name": "Hotel aux 2 paysages", "location": "Rubavu", "tel": "No phone number"}, {"name": "CENTRE D'ACCUEIL SAINT FRANCOIS XAVIER", "location": "Rubavu", "tel": "No phone number"}, {"name": "RUSINA APARTMENT", "location": "Rubavu", "tel": "No phone number"}, {"name": "Hotel Bassin du Congo", "location": "Rubavu", "tel": "No phone number"}, {"name": "Motel Mont Kirerema 2", "location": "Rubavu", "tel": "No phone number"}, {"name": "Ubumwe Hotel", "location": "Rubavu", "tel": "No phone number"}, {"name": "Eden Garden Motel", "location": "Rubavu", "tel": "No phone number"}, {"name": "Maji Matulivu", "location": "Rubavu", "tel": "No phone number"}, {"name": "Bungwe Guest House", "location": "Rubavu", "tel": "No phone number"}, {"name": "Restaurant And Guest Rooms", "location": "Rubavu", "tel": "No phone number"}, {"name": "H\u00f4tel Flamingo Grill-Lounge", "location": "Rubavu", "tel": "No phone number"}, {"name": "Planet Hotel", "location": "Rubavu", "tel": "No phone number"}, {"name": "Tchegera Island", "location": "Rubavu", "tel": "No phone number"}, {"name": "Bethanie Hotel", "location": "Rubavu", "tel": "No phone number"}, {"name": "Guest House La Serenite", "location": "Rubavu", "tel": "No phone number"}, {"name": "Volcano Gate Motel", "location": "Rubavu", "tel": "No phone number"}, {"name": "Best Choice Lodge", "location": "Rubavu", "tel": "No phone number"}, {"name": "Shadow House Peace Guest House", "location": "Rubavu", "tel": "No phone number"}, {"name": "Chaamban Hotel", "location": "Rubavu", "tel": "No phone number"}, {"name": "Eden Palace Hotel", "location": "Ruhango", "tel": "No phone number"}, {"name": "Umuco Hotel", "location": "Ruhango", "tel": "No phone number"}, {"name": "Jangwe Lodge", "location": "Ruhango", "tel": "No phone number"}, {"name": "Splendid Hotel", "location": "Ruhango", "tel": "No phone number"}, {"name": "Nyanza Heritage Hotel", "location": "Ruhango", "tel": "No phone number"}, {"name": "Dayenu Hotel Nyanza", "location": "Ruhango", "tel": "No phone number"}, {"name": "Mater Dei Motel", "location": "Ruhango", "tel": "No phone number"}, {"name": "Hotel Saint-Andre Kabgayi", "location": "Ruhango", "tel": "No phone number"}, {"name": "Goodlife Lodge", "location": "Ruhango", "tel": "No phone number"}, {"name": "Azizi Life", "location": "Ruhango", "tel": "0785781146"}, {"name": "Muhanga in Cyakabiri Motel", "location": "Ruhango", "tel": "No phone number"}, {"name": "Ururabo Guest House", "location": "Ruhango", "tel": "No phone number"}, {"name": "New Life Motel", "location": "Ruhango", "tel": "No phone number"}, {"name": "Sifa Guest House", "location": "Ruhango", "tel": "No phone number"}, {"name": "Amatana Center Lodge", "location": "Ruhango", "tel": "No phone number"}, {"name": "Super Galactico Motel", "location": "Ruhango", "tel": "No phone number"}, {"name": "Dayenu Hotel", "location": "Ruhango", "tel": "No phone number"}, {"name": "Homeland Bar", "location": "Ruhango", "tel": "No phone number"}, {"name": "Quality Inn Motel", "location": "Ruhango", "tel": "No phone number"}, {"name": "Kinyange Gardens Hotel", "location": "Ruhango", "tel": "No phone number"}, {"name": "Rufradu Hotel 1", "location": "Ruhango", "tel": "No phone number"}, {"name": "Mijo Hostel", "location": "Rulindo", "tel": "No phone number"}, {"name": "The Kingfish Beach Hotel", "location": "Rulindo", "tel": "No phone number"}, {"name": "Gisa Stay 103", "location": "Rulindo", "tel": "No phone number"}, {"name": "Salama Village", "location": "Rulindo", "tel": "No phone number"}, {"name": "Rouge by Desir", "location": "Rulindo", "tel": "No phone number"}, {"name": "Kigali Art Gallery", "location": "Rulindo", "tel": "No phone number"}, {"name": "Serenity Park", "location": "Rulindo", "tel": "No phone number"}, {"name": "Quiet Haven Hotel", "location": "Rulindo", "tel": "No phone number"}, {"name": "Mythos Boutique Hotel", "location": "Rulindo", "tel": "No phone number"}, {"name": "Gisa Stay 101", "location": "Rulindo", "tel": "No phone number"}, {"name": "Hotel Gloria", "location": "Rulindo", "tel": "No phone number"}, {"name": "Kigali Marriott Hotel", "location": "Rulindo", "tel": "No phone number"}, {"name": "Honey In Honey Motel", "location": "Rulindo", "tel": "No phone number"}, {"name": "Peponi Living Spaces", "location": "Rulindo", "tel": "No phone number"}, {"name": "Dove Hotel Kigali", "location": "Rulindo", "tel": "No phone number"}, {"name": "The Manor Hotel", "location": "Rulindo", "tel": "No phone number"}, {"name": "Heaven Boutique Hotel Villa", "location": "Rulindo", "tel": "No phone number"}, {"name": "H\u00f4tel des Mille Collines", "location": "Rulindo", "tel": "No phone number"}, {"name": "Ubumwe Grande Hotel", "location": "Rulindo", "tel": "No phone number"}, {"name": "Select", "location": "Rulindo", "tel": "No phone number"}, {"name": "Colours Club Spa", "location": "Rulindo", "tel": "0788521369"}, {"name": "Villa Belle Vue", "location": "Rulindo", "tel": "No phone number"}, {"name": "Kigali Castle", "location": "Rulindo", "tel": "No phone number"}, {"name": "Hill View Hotel", "location": "Rulindo", "tel": "No phone number"}, {"name": "Hotel Villa Portofino Kigali", "location": "Rulindo", "tel": "No phone number"}, {"name": "Lebanon Hotel Kigali", "location": "Rulindo", "tel": "No phone number"}, {"name": "Urban by CityBlue", "location": "Rulindo", "tel": "No phone number"}, {"name": "Landmark Suites Rwanda", "location": "Rulindo", "tel": "No phone number"}, {"name": "Urumuli Hotel", "location": "Rulindo", "tel": "No phone number"}, {"name": "New Impala Hotel", "location": "Rulindo", "tel": "No phone number"}, {"name": "Kanyinya Hills Hotel", "location": "Rulindo", "tel": "No phone number"}, {"name": "Kereth Living Space", "location": "Rulindo", "tel": "No phone number"}, {"name": "Kwetu Residence Inn", "location": "Rulindo", "tel": "No phone number"}, {"name": "5 Swiss Hotel", "location": "Rulindo", "tel": "No phone number"}, {"name": "Inside Afrika Hotel", "location": "Rulindo", "tel": "No phone number"}, {"name": "Park Inn by Radisson, Kigali", "location": "Rulindo", "tel": "No phone number"}, {"name": "Perle Boutique Hotel", "location": "Rulindo", "tel": "No phone number"}, {"name": "Silver Motel", "location": "Rulindo", "tel": "No phone number"}, {"name": "2000 Hotel", "location": "Rulindo", "tel": "No phone number"}, {"name": "Iwawe Hotel", "location": "Rulindo", "tel": "No phone number"}, {"name": "Cozy Safari", "location": "Rulindo", "tel": "No phone number"}, {"name": "Dmall Hotel", "location": "Rulindo", "tel": "No phone number"}, {"name": "Heaven Restaurant & Boutique Hotel", "location": "Rulindo", "tel": "No phone number"}, {"name": "Flame Tree Village", "location": "Rulindo", "tel": "No phone number"}, {"name": "Park View Courts", "location": "Rulindo", "tel": "No phone number"}, {"name": "Khana Khazana Boutique Hotel", "location": "Rulindo", "tel": "No phone number"}, {"name": "Murugo Rwanda Hostel", "location": "Rulindo", "tel": "No phone number"}, {"name": "World House Gisozi Hotel", "location": "Rulindo", "tel": "No phone number"}, {"name": "Mountain View Apartment", "location": "Rulindo", "tel": "No phone number"}, {"name": "Step Town Motel", "location": "Rulindo", "tel": "No phone number"}, {"name": "Radisson Blu Hotel & Convention Centre, Kigali", "location": "Rulindo", "tel": "No phone number"}, {"name": "Gaju House", "location": "Rulindo", "tel": "No phone number"}, {"name": "ViaVia Kigali", "location": "Rulindo", "tel": "No phone number"}, {"name": "Gorillas Golf Hotel", "location": "Rulindo", "tel": "No phone number"}, {"name": "AROMAS MOTEL", "location": "Rulindo", "tel": "No phone number"}, {"name": "Colours Club", "location": "Rulindo", "tel": "No phone number"}, {"name": "HILL CREST HOTEL", "location": "Rulindo", "tel": "No phone number"}, {"name": "Onomo Hotel", "location": "Rulindo", "tel": "No phone number"}, {"name": "Ezra Boutique Hotel", "location": "Rulindo", "tel": "No phone number"}, {"name": "Peace and Grace Motel", "location": "Rulindo", "tel": "No phone number"}, {"name": "The Court Boutique Hotel", "location": "Rulindo", "tel": "No phone number"}, {"name": "Hotel Okapi", "location": "Rulindo", "tel": "No phone number"}, {"name": "The Country Inn Hotel", "location": "Rulindo", "tel": "No phone number"}, {"name": "The Hut Restaurant & Boutique Hotel", "location": "Rulindo", "tel": "No phone number"}, {"name": "La Posh Hotel", "location": "Rulindo", "tel": "No phone number"}, {"name": "Scheba Hotel", "location": "Rulindo", "tel": "No phone number"}, {"name": "Rubangura Luxury Apartments", "location": "Rulindo", "tel": "No phone number"}, {"name": "Karisimbi Hotel", "location": "Rulindo", "tel": "No phone number"}, {"name": "Olympic Hotel", "location": "Rulindo", "tel": "No phone number"}, {"name": "Garr Hotel", "location": "Rulindo", "tel": "No phone number"}, {"name": "Five To Five Hotel", "location": "Rulindo", "tel": "No phone number"}, {"name": "The Nest Guesthouse", "location": "Rulindo", "tel": "No phone number"}, {"name": "Lemigo Hotel", "location": "Rulindo", "tel": "No phone number"}, {"name": "Great Seasons Hotel", "location": "Rulindo", "tel": "No phone number"}, {"name": "Kigali Serena Hotel", "location": "Rulindo", "tel": "No phone number"}, {"name": "Golf Eden Guest House", "location": "Rulindo", "tel": "No phone number"}, {"name": "Iwacu Guesthouse", "location": "Rulindo", "tel": "No phone number"}, {"name": "Greedy Five", "location": "Rulindo", "tel": "No phone number"}, {"name": "Heaven Boutique Hotel Garden Chalet", "location": "Rulindo", "tel": "No phone number"}, {"name": "Amata n'Ubuki Boutique Hotel & Restaurant", "location": "Rulindo", "tel": "No phone number"}, {"name": "Radius Guest Flats", "location": "Rulindo", "tel": "No phone number"}, {"name": "Park Inn by Radisson Kigali", "location": "Rulindo", "tel": "No phone number"}, {"name": "Greek Taverna at Hotel Hellenic", "location": "Rulindo", "tel": "No phone number"}, {"name": "Pili Pili", "location": "Rulindo", "tel": "No phone number"}, {"name": "Medi Motel", "location": "Rulindo", "tel": "No phone number"}, {"name": "Champion Hotel", "location": "Rulindo", "tel": "No phone number"}, {"name": "City Valley Motel", "location": "Rulindo", "tel": "No phone number"}, {"name": "Cari Hotel", "location": "Rulindo", "tel": "No phone number"}, {"name": "Azalea Guest House Gisozi", "location": "Rulindo", "tel": "No phone number"}, {"name": "Bethany Investment Group EPR Hostel", "location": "Rulindo", "tel": "No phone number"}, {"name": "Kereth Design Guest House", "location": "Rulindo", "tel": "No phone number"}, {"name": "Grazia Apartments", "location": "Rulindo", "tel": "No phone number"}, {"name": "Discover Rwanda Youth Hostel", "location": "Rulindo", "tel": "No phone number"}, {"name": "Umusambi B&B", "location": "Rulindo", "tel": "No phone number"}, {"name": "Vincenzo Homestay", "location": "Rulindo", "tel": "No phone number"}, {"name": "Remera Modern Guesthouse", "location": "Rulindo", "tel": "No phone number"}, {"name": "Victoria Blue Hotels and Apartments", "location": "Rulindo", "tel": "No phone number"}, {"name": "Mubwiza Courts", "location": "Rulindo", "tel": "No phone number"}, {"name": "DV Appart Hotel", "location": "Rulindo", "tel": "No phone number"}, {"name": "H\u00f4tel Le Garni", "location": "Rulindo", "tel": "No phone number"}, {"name": "RUJO ROOMS", "location": "Rulindo", "tel": "No phone number"}, {"name": "LION MOTEL", "location": "Rulindo", "tel": "No phone number"}, {"name": "KINGSMEN SUITES", "location": "Rulindo", "tel": "No phone number"}, {"name": "Legend Hotel", "location": "Rulindo", "tel": "No phone number"}, {"name": "Auberge St Jean Leopold", "location": "Rulindo", "tel": "No phone number"}, {"name": "Amaris Hotel", "location": "Rulindo", "tel": "No phone number"}, {"name": "KIM Hotel", "location": "Rulindo", "tel": "No phone number"}, {"name": "Sinai Suites Hotel and Apartments", "location": "Rulindo", "tel": "No phone number"}, {"name": "Rohi Apartments Hotel", "location": "Rulindo", "tel": "0788306040"}, {"name": "Iris Guesthouse", "location": "Rulindo", "tel": "No phone number"}, {"name": "The Retreat", "location": "Rulindo", "tel": "No phone number"}, {"name": "Kings Hospitality Centre", "location": "Rulindo", "tel": "No phone number"}, {"name": "Isimbi House", "location": "Rulindo", "tel": "No phone number"}, {"name": "AMIGO APARTMENT", "location": "Rulindo", "tel": "No phone number"}, {"name": "Kimenyi Home", "location": "Rulindo", "tel": "No phone number"}, {"name": "Mama Rwanda Hostel", "location": "Rulindo", "tel": "No phone number"}, {"name": "Zebra Tourism Hotel", "location": "Rulindo", "tel": "No phone number"}, {"name": "Kami Executive Apartments", "location": "Rulindo", "tel": "No phone number"}, {"name": "B.Maurice Guest House", "location": "Rulindo", "tel": "No phone number"}, {"name": "Klala Suites", "location": "Rulindo", "tel": "No phone number"}, {"name": "Park View Hotel", "location": "Rulindo", "tel": "No phone number"}, {"name": "INZOZI AFRICA HOUSE", "location": "Rulindo", "tel": "No phone number"}, {"name": "BELIZE MOTEL", "location": "Rulindo", "tel": "No phone number"}, {"name": "Tinho Guest House", "location": "Rulindo", "tel": "No phone number"}, {"name": "PALAZZO MOTEL @ KIGALI/KIMIRONKO", "location": "Rulindo", "tel": "No phone number"}, {"name": "Kami Executive Apartments", "location": "Rulindo", "tel": "No phone number"}, {"name": "Price Guest House", "location": "Rulindo", "tel": "No phone number"}, {"name": "Roots Inn", "location": "Rulindo", "tel": "No phone number"}, {"name": "Nicksters Home Inn", "location": "Rulindo", "tel": "No phone number"}, {"name": "Kigali Diplomat Hotel", "location": "Rulindo", "tel": "No phone number"}, {"name": "IGITEGO HOTEL", "location": "Rulindo", "tel": "No phone number"}, {"name": "Delhi Darbar Indian Restaurant & Villa", "location": "Rulindo", "tel": "No phone number"}, {"name": "Kings Hostel", "location": "Rulindo", "tel": "No phone number"}, {"name": "Beaus\u00e9jour Hotel", "location": "Rulindo", "tel": "No phone number"}, {"name": "Galaxy Hotel", "location": "Rulindo", "tel": "No phone number"}, {"name": "The Nest", "location": "Rulindo", "tel": "No phone number"}, {"name": "Tea House B&B", "location": "Rulindo", "tel": "No phone number"}, {"name": "Kimironko Sinai Suites", "location": "Rulindo", "tel": "No phone number"}, {"name": "Highlands Suites Hotel", "location": "Rulindo", "tel": "No phone number"}, {"name": "Olympic Hotel Kigali", "location": "Rulindo", "tel": "No phone number"}, {"name": "Zenith Hotel Kigali", "location": "Rulindo", "tel": "No phone number"}, {"name": "Happy Home and Dine", "location": "Rulindo", "tel": "No phone number"}, {"name": "Zebra Boutique Hotel", "location": "Rulindo", "tel": "No phone number"}, {"name": "Kiberinka Cultural Centre", "location": "Rulindo", "tel": "No phone number"}, {"name": "Hotel Gorillas Kigali City Centre", "location": "Rulindo", "tel": "No phone number"}, {"name": "INGANZI APARTMENTS", "location": "Rulindo", "tel": "No phone number"}, {"name": "Harvest Hills", "location": "Rulindo", "tel": "No phone number"}, {"name": "Nobilis Apartments", "location": "Rulindo", "tel": "No phone number"}, {"name": "Madison Hills Hotel", "location": "Rulindo", "tel": "No phone number"}, {"name": "Radius Guest Flats", "location": "Rulindo", "tel": "No phone number"}, {"name": "Hotel Sienna", "location": "Rulindo", "tel": "No phone number"}, {"name": "Root House", "location": "Rulindo", "tel": "No phone number"}, {"name": "KENT Residence", "location": "Rulindo", "tel": "No phone number"}, {"name": "Relax Resort", "location": "Rulindo", "tel": "No phone number"}, {"name": "Orient Park Hotel", "location": "Rulindo", "tel": "No phone number"}, {"name": "Next-Gen Boutique Hotel", "location": "Rulindo", "tel": "No phone number"}, {"name": "Le Printemps", "location": "Rulindo", "tel": "No phone number"}, {"name": "Mattina Motel", "location": "Rulindo", "tel": "No phone number"}, {"name": "Bougainvilla Boutique Hotel", "location": "Rulindo", "tel": "No phone number"}, {"name": "The Memory Makers Hospitality Service", "location": "Rulindo", "tel": "No phone number"}, {"name": "Auberge La Caverne", "location": "Rulindo", "tel": "No phone number"}, {"name": "Makutano Club and Resorts", "location": "Rulindo", "tel": "0780112228"}, {"name": "Accord Hotel", "location": "Rulindo", "tel": "No phone number"}, {"name": "Arcadia Motel", "location": "Rulindo", "tel": "No phone number"}, {"name": "The Hut", "location": "Rulindo", "tel": "No phone number"}, {"name": "Bloom Back Hotel", "location": "Rulindo", "tel": "No phone number"}, {"name": "Dream House - Kigali", "location": "Rulindo", "tel": "No phone number"}, {"name": "Kigali Guestlux Hotel", "location": "Rulindo", "tel": "No phone number"}, {"name": "Andalusia Hotel Rwanda", "location": "Rulindo", "tel": "No phone number"}, {"name": "Dehli Darbar Hotel & Restaurant", "location": "Rulindo", "tel": "No phone number"}, {"name": "Golf Hills Residence", "location": "Rulindo", "tel": "No phone number"}, {"name": "Hope Apartment", "location": "Rulindo", "tel": "No phone number"}, {"name": "Zenith Hotel", "location": "Rulindo", "tel": "No phone number"}, {"name": "2000 Hotel", "location": "Rulindo", "tel": "No phone number"}, {"name": "Home2Home B&B", "location": "Rulindo", "tel": "No phone number"}, {"name": "Parkview Hotel", "location": "Rulindo", "tel": "No phone number"}, {"name": "La Palisse Hotel, Kigali", "location": "Rulindo", "tel": "No phone number"}, {"name": "Gloria Hotel", "location": "Rulindo", "tel": "No phone number"}, {"name": "Palma Village Apart Hotel", "location": "Rulindo", "tel": "No phone number"}, {"name": "Humble Guest House", "location": "Rulindo", "tel": "No phone number"}, {"name": "Olympic Hotel", "location": "Rulindo", "tel": "No phone number"}, {"name": "Dmall Hotel", "location": "Rulindo", "tel": "No phone number"}, {"name": "Cari Hotel", "location": "Rulindo", "tel": "No phone number"}, {"name": "Pure Africa Cafe", "location": "Rulindo", "tel": "No phone number"}, {"name": "Hotel Isimbi", "location": "Rulindo", "tel": "No phone number"}, {"name": "Marasa Umubano Hotel", "location": "Rulindo", "tel": "No phone number"}, {"name": "Kigaliview Hotel and Apartments", "location": "Rulindo", "tel": "No phone number"}, {"name": "Kigali Holiday Hotel", "location": "Rulindo", "tel": "No phone number"}, {"name": "East African Villas Guest House", "location": "Rulindo", "tel": "No phone number"}, {"name": "Kigali Homestay", "location": "Rulindo", "tel": "0788501416"}, {"name": "Resident Hotel", "location": "Rulindo", "tel": "No phone number"}, {"name": "Star Hotel", "location": "Rulindo", "tel": "No phone number"}, {"name": "Ava House", "location": "Rulindo", "tel": "No phone number"}, {"name": "Freedom Hotel", "location": "Rulindo", "tel": "No phone number"}, {"name": "Infinity Hotel", "location": "Rulindo", "tel": "No phone number"}, {"name": "Kent Residence", "location": "Rulindo", "tel": "No phone number"}, {"name": "Victoria Blue Hotels and apartments(Hotel)", "location": "Rulindo", "tel": "No phone number"}, {"name": "Cameo Guest House", "location": "Rulindo", "tel": "No phone number"}, {"name": "Sainte Famille Hotel", "location": "Rulindo", "tel": "No phone number"}, {"name": "St Barnabas CAC", "location": "Rulindo", "tel": "No phone number"}, {"name": "Tavola Guest", "location": "Rulindo", "tel": "No phone number"}, {"name": "Ambiance Accommodation", "location": "Rulindo", "tel": "No phone number"}, {"name": "Jambo Guest House", "location": "Rulindo", "tel": "No phone number"}, {"name": "DoubleTree by Hilton Kigali City Centre", "location": "Rulindo", "tel": "No phone number"}, {"name": "HELLO HOME", "location": "Rulindo", "tel": "No phone number"}, {"name": "Kigali Havens", "location": "Rulindo", "tel": "No phone number"}, {"name": "Smart Inn Hotel", "location": "Rulindo", "tel": "No phone number"}, {"name": "Golf Eden Guest House", "location": "Rulindo", "tel": "No phone number"}, {"name": "Elevate Suites", "location": "Rulindo", "tel": "No phone number"}, {"name": "Courtesy Residence Apartment", "location": "Rulindo", "tel": "No phone number"}, {"name": "Champion Hotel", "location": "Rulindo", "tel": "No phone number"}, {"name": "Select Boutique Hotel", "location": "Rulindo", "tel": "No phone number"}, {"name": "Dream Guest House", "location": "Rulindo", "tel": "No phone number"}, {"name": "Scola Hotel and Apartment", "location": "Rulindo", "tel": "No phone number"}, {"name": "East African Villas Guest House", "location": "Rulindo", "tel": "No phone number"}, {"name": "Fat Mama's", "location": "Rulindo", "tel": "No phone number"}, {"name": "Ecoair Apartment Hotel", "location": "Rulindo", "tel": "No phone number"}, {"name": "Prince Guest House", "location": "Rulindo", "tel": "No phone number"}, {"name": "Kigali Labelle", "location": "Rulindo", "tel": "No phone number"}, {"name": "Cari Apartment", "location": "Rulindo", "tel": "No phone number"}, {"name": "Le Printemps Hotel Limited", "location": "Rulindo", "tel": "No phone number"}, {"name": "Green Apartments", "location": "Rulindo", "tel": "No phone number"}, {"name": "Glory Motel", "location": "Rulindo", "tel": "No phone number"}, {"name": "Vision Motel", "location": "Rulindo", "tel": "No phone number"}, {"name": "The Travellers Guest House", "location": "Rulindo", "tel": "No phone number"}, {"name": "Town View Guest House", "location": "Rulindo", "tel": "No phone number"}, {"name": "Airport Hill Guest House", "location": "Rulindo", "tel": "No phone number"}, {"name": "Plata Guesthouse", "location": "Rulindo", "tel": "No phone number"}, {"name": "Galaxy Hotel", "location": "Rulindo", "tel": "No phone number"}, {"name": "utalii best corner", "location": "Rulindo", "tel": "No phone number"}, {"name": "Infinity Hotel", "location": "Rulindo", "tel": "No phone number"}, {"name": "Mountain Gorilla View", "location": "Rulindo", "tel": "No phone number"}, {"name": "Blend Guesthouse", "location": "Rulindo", "tel": "No phone number"}, {"name": "Petit Bassam Hotel", "location": "Rulindo", "tel": "No phone number"}, {"name": "Dmall Supermarket", "location": "Rulindo", "tel": "No phone number"}, {"name": "Nice Corner Guest House", "location": "Rulindo", "tel": "No phone number"}, {"name": "Splendid Karisimbi", "location": "Rulindo", "tel": "No phone number"}, {"name": "Kitabi Eco-Center", "location": "Rusizi", "tel": "0787260016"}, {"name": "Emeraude Kivu Resort", "location": "Rusizi", "tel": "No phone number"}, {"name": "Peace Guest House", "location": "Rusizi", "tel": "No phone number"}, {"name": "H\u00f4tel Elila", "location": "Rusizi", "tel": "No phone number"}, {"name": "H\u00f4tel Rivi\u00e8re Ruzizi", "location": "Rusizi", "tel": "No phone number"}, {"name": "Nyungwe Nziza Ecolodge", "location": "Rusizi", "tel": "0784733417"}, {"name": "Airport Breeze Motel", "location": "Rusizi", "tel": "No phone number"}, {"name": "La Petite Isimbi", "location": "Rusizi", "tel": "No phone number"}, {"name": "Umucyo Lodge", "location": "Rusizi", "tel": "No phone number"}, {"name": "New Hope", "location": "Rusizi", "tel": "No phone number"}, {"name": "Orchids' Safari Club Hotel Restaurant", "location": "Rusizi", "tel": "No phone number"}, {"name": "KHeheda Hotel", "location": "Rusizi", "tel": "No phone number"}, {"name": "Nyungwe Top View Hill Hotel", "location": "Rusizi", "tel": "No phone number"}, {"name": "Heirdorm Hotel", "location": "Rusizi", "tel": "No phone number"}, {"name": "Rubavu Motel", "location": "Rusizi", "tel": "No phone number"}, {"name": "Munini Hill Motel", "location": "Rusizi", "tel": "No phone number"}, {"name": "Motel Gloria", "location": "Rusizi", "tel": "No phone number"}, {"name": "Gisakura Family Hostel", "location": "Rusizi", "tel": "No phone number"}, {"name": "Elizabeth Hotel Bukavu", "location": "Rusizi", "tel": "No phone number"}, {"name": "Horizon Hotel", "location": "Rusizi", "tel": "No phone number"}, {"name": "Kivu Sight Ltd", "location": "Rusizi", "tel": "No phone number"}, {"name": "Lodge Coco", "location": "Rusizi", "tel": "No phone number"}, {"name": "Rubava Motel", "location": "Rusizi", "tel": "No phone number"}, {"name": "Hotel Begonias", "location": "Rusizi", "tel": "No phone number"}, {"name": "Eden H\u00f4tel", "location": "Rusizi", "tel": "No phone number"}, {"name": "Macheo \u00c9colodge-camping", "location": "Rutsiro", "tel": "No phone number"}, {"name": "Diana Fossey Rutsiro", "location": "Rutsiro", "tel": "No phone number"}, {"name": "Moriah Hill Resort", "location": "Rutsiro", "tel": "No phone number"}, {"name": "Rwiza Village.", "location": "Rutsiro", "tel": "No phone number"}, {"name": "Home Saint Jean", "location": "Rutsiro", "tel": "No phone number"}, {"name": "Rebero Kivu Resort", "location": "Rutsiro", "tel": "0785821511"}, {"name": "Kivu Lodge", "location": "Rutsiro", "tel": "No phone number"}, {"name": "Rushel Kivu Lodge", "location": "Rutsiro", "tel": "No phone number"}, {"name": "Cormoran Lodge", "location": "Rutsiro", "tel": "No phone number"}, {"name": "Karongi Lake View Retreat", "location": "Rutsiro", "tel": "No phone number"}, {"name": "Delta Resort Hotel", "location": "Rutsiro", "tel": "No phone number"}, {"name": "Romantic Hotel", "location": "Rutsiro", "tel": "No phone number"}, {"name": "Centre Bethel", "location": "Rutsiro", "tel": "No phone number"}, {"name": "La Roche House", "location": "Rutsiro", "tel": "No phone number"}, {"name": "Spa Shallum", "location": "Rutsiro", "tel": "0789071756"}, {"name": "Bethany Hotel A", "location": "Rutsiro", "tel": "No phone number"}, {"name": "Golf Eden Rock Hotel/MUGAMBIRA Aphrodis /Karongi", "location": "Rutsiro", "tel": "No phone number"}, {"name": "Best western echo hotel", "location": "Rutsiro", "tel": "No phone number"}, {"name": "Mulberry Guest house", "location": "Rutsiro", "tel": "No phone number"}, {"name": "New Umunyinya House", "location": "Rutsiro", "tel": "No phone number"}, {"name": "Holiday Hotel", "location": "Rutsiro", "tel": "No phone number"}, {"name": "Nyenyeli Holiday Hotel", "location": "Rutsiro", "tel": "No phone number"}, {"name": "Dereva Hotel", "location": "Rwamagana", "tel": "No phone number"}, {"name": "Colours Club Spa & Village Resort", "location": "Rwamagana", "tel": "No phone number"}, {"name": "Destella Guest House Kayonza", "location": "Rwamagana", "tel": "No phone number"}, {"name": "Muhazi Beach Hotel", "location": "Rwamagana", "tel": "No phone number"}, {"name": "Centre Pastoral St. Augustin", "location": "Rwamagana", "tel": "No phone number"}, {"name": "Vintage Cottage", "location": "Rwamagana", "tel": "No phone number"}, {"name": "Motel Ikambere", "location": "Rwamagana", "tel": "No phone number"}, {"name": "Nyagasambu Realm Beach Hotel", "location": "Rwamagana", "tel": "No phone number"}, {"name": "Avega East Hostel", "location": "Rwamagana", "tel": "0788347018"}, {"name": "Elegancia Hotel", "location": "Rwamagana", "tel": "No phone number"}, {"name": "La Palisse Gashora", "location": "Rwamagana", "tel": "No phone number"}, {"name": "Eastern Country Hotel", "location": "Rwamagana", "tel": "No phone number"}, {"name": "Seed of Peace Center", "location": "Rwamagana", "tel": "No phone number"}, {"name": "Silent Hill Motel", "location": "Rwamagana", "tel": "No phone number"}, {"name": "Eastland Hotel", "location": "Rwamagana", "tel": "No phone number"}, {"name": "Seed of Peace Center", "location": "Rwamagana", "tel": "No phone number"}]