[
  {
    "name": "Memia's Pharmacy",
    "location": "Bugesera",
    "tel": "0788310016"
  },
  {
    "name": "Umutozo Pharmacy",
    "location": "Bugesera",
    "tel": "No phone number"
  },
  {
    "name": "Pharmacy, Gakenke",
    "location": "Gakenke",
    "tel": "No phone number"
  },
  {
    "name": "Kanyange",
    "location": "Gakenke",
    "tel": "0789634398"
  },
  {
    "name": "Pharmamed Pharmacy",
    "location": "Gasabo",
    "tel": "0783164306"
  },
  {
    "name": "Score Pharmacy",
    "location": "Gasabo",
    "tel": "0783410790"
  },
  {
    "name": "Teta Pharmacy Kimironko",
    "location": "Gasabo",
    "tel": "0789771322"
  },
  {
    "name": "Sunshine Pharmacy",
    "location": "Gasabo",
    "tel": "No phone number"
  },
  {
    "name": "Kipharma Pharmacy, Nyarugenge",
    "location": "Gasabo",
    "tel": "No phone number"
  },
  {
    "name": "Pharmacy Divine",
    "location": "Gasabo",
    "tel": "0789453089"
  },
  {
    "name": "Memia's Pharmacy",
    "location": "Gasabo",
    "tel": "0788310016"
  },
  {
    "name": "Vine Pharmacy",
    "location": "Gasabo",
    "tel": "No phone number"
  },
  {
    "name": "Pharmacie Conseil",
    "location": "Gasabo",
    "tel": "0781928457"
  },
  {
    "name": "Umutozo Pharmacy",
    "location": "Gasabo",
    "tel": "No phone number"
  },
  {
    "name": "Kipharma Pharmacy, Bridge (B2)",
    "location": "Gasabo",
    "tel": "No phone number"
  },
  {
    "name": "Pharmacie Unique",
    "location": "Gasabo",
    "tel": "0788309743"
  },
  {
    "name": "National Pharmacy Council",
    "location": "Gasabo",
    "tel": "No phone number"
  },
  {
    "name": "EZA Pharmacy",
    "location": "Gasabo",
    "tel": "0785022763"
  },
  {
    "name": "Kipharma",
    "location": "Gasabo",
    "tel": "No phone number"
  },
  {
    "name": "Rite Pharmacy",
    "location": "Gasabo",
    "tel": "0788304373"
  },
  {
    "name": "Safecare Pharmacy",
    "location": "Gasabo",
    "tel": "0781293423"
  },
  {
    "name": "Bovan Pharmacy",
    "location": "Gasabo",
    "tel": "No phone number"
  },
  {
    "name": "Pharmacie Shema",
    "location": "Gasabo",
    "tel": "No phone number"
  },
  {
    "name": "Pharmacie Auberge",
    "location": "Gasabo",
    "tel": "No phone number"
  },
  {
    "name": "Pharmacy",
    "location": "Gasabo",
    "tel": "No phone number"
  },
  {
    "name": "Score Pharmacy",
    "location": "Gasabo",
    "tel": "No phone number"
  },
  {
    "name": "Pharmedica",
    "location": "Gasabo",
    "tel": "No phone number"
  },
  {
    "name": "Peace Pharmacy",
    "location": "Gasabo",
    "tel": "No phone number"
  },
  {
    "name": "Jordan Pharmacy",
    "location": "Gasabo",
    "tel": "No phone number"
  },
  {
    "name": "Pharma Plus Pharmacy",
    "location": "Gasabo",
    "tel": "No phone number"
  },
  {
    "name": "Goal Pharmacy",
    "location": "Gasabo",
    "tel": "No phone number"
  },
  {
    "name": "Sanophar Pharmacy",
    "location": "Gasabo",
    "tel": "No phone number"
  },
  {
    "name": "Pharmacie Bora",
    "location": "Gasabo",
    "tel": "No phone number"
  },
  {
    "name": "Medplus Pharmacy ltd",
    "location": "Gasabo",
    "tel": "0788533474"
  },
  {
    "name": "Pharmacy",
    "location": "Gasabo",
    "tel": "No phone number"
  },
  {
    "name": "Health Plus Pharmacy",
    "location": "Gasabo",
    "tel": "No phone number"
  },
  {
    "name": "Abacus Pharma Alam",
    "location": "Gasabo",
    "tel": "No phone number"
  },
  {
    "name": "Pharmacie Agrovet",
    "location": "Gasabo",
    "tel": "No phone number"
  },
  {
    "name": "Tramed pharmacy",
    "location": "Gasabo",
    "tel": "No phone number"
  },
  {
    "name": "Bora Pharmacy",
    "location": "Gasabo",
    "tel": "No phone number"
  },
  {
    "name": "Gilmed Pharmaceutical Wholesale",
    "location": "Gasabo",
    "tel": "0788888442"
  },
  {
    "name": "Pharmacie Royale",
    "location": "Gasabo",
    "tel": "No phone number"
  },
  {
    "name": "Pharmacie Le Normal",
    "location": "Gasabo",
    "tel": "No phone number"
  },
  {
    "name": "Capital Pharmaceutical Supply Ltd",
    "location": "Gasabo",
    "tel": "No phone number"
  },
  {
    "name": "SEMU Pharmacy",
    "location": "Gasabo",
    "tel": "0788679787"
  },
  {
    "name": "Inganji Pharmacy",
    "location": "Gasabo",
    "tel": "No phone number"
  },
  {
    "name": "Dorrie Pharmacy",
    "location": "Gasabo",
    "tel": "No phone number"
  },
  {
    "name": "MULTIPHAR RWANDA LTD",
    "location": "Gasabo",
    "tel": "0785158072"
  },
  {
    "name": "Motley Healthcare Ltd",
    "location": "Gasabo",
    "tel": "0784444001"
  },
  {
    "name": "Iramiro Pharmacy",
    "location": "Gasabo",
    "tel": "No phone number"
  },
  {
    "name": "Keystone Pharmacy",
    "location": "Gasabo",
    "tel": "0788352583"
  },
  {
    "name": "Pharmacie Umurava",
    "location": "Gasabo",
    "tel": "0788539713"
  },
  {
    "name": "GASABO District Pharmacy",
    "location": "Gasabo",
    "tel": "No phone number"
  },
  {
    "name": "Royal Agrovet LTD Rwanda",
    "location": "Gasabo",
    "tel": "0782752505"
  },
  {
    "name": "VIEPHARMA PHARMACY LTD",
    "location": "Gasabo",
    "tel": "0788690137"
  },
  {
    "name": "Sabans Pharmacy",
    "location": "Gasabo",
    "tel": "0784296088"
  },
  {
    "name": "TETA Pharmacy near Chez Lando hotel",
    "location": "Gasabo",
    "tel": "No phone number"
  },
  {
    "name": "INSHUTI PHARMACY",
    "location": "Gasabo",
    "tel": "No phone number"
  },
  {
    "name": "PHARMASAVE",
    "location": "Gasabo",
    "tel": "No phone number"
  },
  {
    "name": "INSHUTI PHARMACY",
    "location": "Gasabo",
    "tel": "No phone number"
  },
  {
    "name": "Kipharma Pharmacy, Giporoso (B3)",
    "location": "Gasabo",
    "tel": "No phone number"
  },
  {
    "name": "KIPHARMA PHARMACY BRANCH B2",
    "location": "Gasabo",
    "tel": "No phone number"
  },
  {
    "name": "Sunshine Pharmacy",
    "location": "Gatsibo",
    "tel": "No phone number"
  },
  {
    "name": "Score Pharmacy",
    "location": "Gatsibo",
    "tel": "0783410790"
  },
  {
    "name": "Pharmamed Pharmacy",
    "location": "Gatsibo",
    "tel": "0783164306"
  },
  {
    "name": "Teta Pharmacy Kimironko",
    "location": "Gatsibo",
    "tel": "0789771322"
  },
  {
    "name": "Kipharma Pharmacy, Nyarugenge",
    "location": "Gatsibo",
    "tel": "No phone number"
  },
  {
    "name": "Memia's Pharmacy",
    "location": "Gatsibo",
    "tel": "0788310016"
  },
  {
    "name": "Vine Pharmacy",
    "location": "Gatsibo",
    "tel": "No phone number"
  },
  {
    "name": "National Pharmacy Council",
    "location": "Gatsibo",
    "tel": "No phone number"
  },
  {
    "name": "Umutozo Pharmacy",
    "location": "Gatsibo",
    "tel": "No phone number"
  },
  {
    "name": "Pharmacie Conseil",
    "location": "Gatsibo",
    "tel": "0781928457"
  },
  {
    "name": "Pharmacy Divine",
    "location": "Gatsibo",
    "tel": "0789453089"
  },
  {
    "name": "Pharmacie Unique",
    "location": "Gatsibo",
    "tel": "0788309743"
  },
  {
    "name": "Kipharma Pharmacy, Bridge (B2)",
    "location": "Gatsibo",
    "tel": "No phone number"
  },
  {
    "name": "Pharmacy",
    "location": "Gatsibo",
    "tel": "No phone number"
  },
  {
    "name": "FAMIKAN Pharmacy",
    "location": "Gatsibo",
    "tel": "No phone number"
  },
  {
    "name": "Rite Pharmacy",
    "location": "Gatsibo",
    "tel": "0788304373"
  },
  {
    "name": "Pharmacie Le Normal",
    "location": "Gatsibo",
    "tel": "No phone number"
  },
  {
    "name": "Safecare Pharmacy",
    "location": "Gatsibo",
    "tel": "0781293423"
  },
  {
    "name": "Pharmacie Shema",
    "location": "Gatsibo",
    "tel": "No phone number"
  },
  {
    "name": "Score Pharmacy",
    "location": "Gatsibo",
    "tel": "No phone number"
  },
  {
    "name": "EZA Pharmacy",
    "location": "Gatsibo",
    "tel": "0785022763"
  },
  {
    "name": "Keystone Pharmacy",
    "location": "Gatsibo",
    "tel": "0788352583"
  },
  {
    "name": "Bovan Pharmacy",
    "location": "Gatsibo",
    "tel": "No phone number"
  },
  {
    "name": "Dorrie Pharmacy",
    "location": "Gatsibo",
    "tel": "No phone number"
  },
  {
    "name": "Pharmacie Auberge",
    "location": "Gatsibo",
    "tel": "No phone number"
  },
  {
    "name": "Kipharma",
    "location": "Gatsibo",
    "tel": "No phone number"
  },
  {
    "name": "Tramed pharmacy",
    "location": "Gatsibo",
    "tel": "No phone number"
  },
  {
    "name": "Pharmacie Umurava",
    "location": "Gatsibo",
    "tel": "0788539713"
  },
  {
    "name": "Iramiro Pharmacy",
    "location": "Gatsibo",
    "tel": "No phone number"
  },
  {
    "name": "Peace Pharmacy",
    "location": "Gatsibo",
    "tel": "No phone number"
  },
  {
    "name": "Goal Pharmacy",
    "location": "Gatsibo",
    "tel": "No phone number"
  },
  {
    "name": "Bora Pharmacy",
    "location": "Gatsibo",
    "tel": "No phone number"
  },
  {
    "name": "Pharmacie Bora",
    "location": "Gatsibo",
    "tel": "No phone number"
  },
  {
    "name": "Sanophar Pharmacy",
    "location": "Gatsibo",
    "tel": "No phone number"
  },
  {
    "name": "Jordan Pharmacy",
    "location": "Gatsibo",
    "tel": "No phone number"
  },
  {
    "name": "Pharmedica",
    "location": "Gatsibo",
    "tel": "No phone number"
  },
  {
    "name": "Pharma Plus Pharmacy",
    "location": "Gatsibo",
    "tel": "No phone number"
  },
  {
    "name": "Health Plus Pharmacy",
    "location": "Gatsibo",
    "tel": "No phone number"
  },
  {
    "name": "Medplus Pharmacy ltd",
    "location": "Gatsibo",
    "tel": "0788533474"
  },
  {
    "name": "Abacus Pharma Alam",
    "location": "Gatsibo",
    "tel": "No phone number"
  },
  {
    "name": "EZA Pharmacy",
    "location": "Gatsibo",
    "tel": "0785022763"
  },
  {
    "name": "Keystone Pharmacy",
    "location": "Gatsibo",
    "tel": "0788352583"
  },
  {
    "name": "Bovan Pharmacy",
    "location": "Gatsibo",
    "tel": "No phone number"
  },
  {
    "name": "Dorrie Pharmacy",
    "location": "Gatsibo",
    "tel": "No phone number"
  },
  {
    "name": "Pharmacie Auberge",
    "location": "Gatsibo",
    "tel": "No phone number"
  },
  {
    "name": "Kipharma",
    "location": "Gatsibo",
    "tel": "No phone number"
  },
  {
    "name": "Tramed pharmacy",
    "location": "Gatsibo",
    "tel": "No phone number"
  },
  {
    "name": "Pharmacie Umurava",
    "location": "Gatsibo",
    "tel": "0788539713"
  },
  {
    "name": "Iramiro Pharmacy",
    "location": "Gatsibo",
    "tel": "No phone number"
  },
  {
    "name": "Peace Pharmacy",
    "location": "Gatsibo",
    "tel": "No phone number"
  },
  {
    "name": "Goal Pharmacy",
    "location": "Gatsibo",
    "tel": "No phone number"
  },
  {
    "name": "Bora Pharmacy",
    "location": "Gatsibo",
    "tel": "No phone number"
  },
  {
    "name": "Pharmacie Bora",
    "location": "Gatsibo",
    "tel": "No phone number"
  },
  {
    "name": "Sanophar Pharmacy",
    "location": "Gatsibo",
    "tel": "No phone number"
  },
  {
    "name": "Jordan Pharmacy",
    "location": "Gatsibo",
    "tel": "No phone number"
  },
  {
    "name": "Pharmedica",
    "location": "Gatsibo",
    "tel": "No phone number"
  },
  {
    "name": "Pharma Plus Pharmacy",
    "location": "Gatsibo",
    "tel": "No phone number"
  },
  {
    "name": "Health Plus Pharmacy",
    "location": "Gatsibo",
    "tel": "No phone number"
  },
  {
    "name": "Medplus Pharmacy ltd",
    "location": "Gatsibo",
    "tel": "0788533474"
  },
  {
    "name": "Abacus Pharma Alam",
    "location": "Gatsibo",
    "tel": "No phone number"
  },
  {
    "name": "CARITATE PHARMACY LTD",
    "location": "Gicumbi",
    "tel": "0780292045"
  },
  {
    "name": "Farumasi",
    "location": "Huye",
    "tel": "No phone number"
  },
  {
    "name": "Tumba Pharmacy",
    "location": "Huye",
    "tel": "No phone number"
  },
  {
    "name": "UR Pharmacy",
    "location": "Huye",
    "tel": "No phone number"
  },
  {
    "name": "Victory",
    "location": "Huye",
    "tel": "0783043793"
  },
  {
    "name": "Pharmacie du March\u00e9",
    "location": "Huye",
    "tel": "No phone number"
  },
  {
    "name": "Farumasi",
    "location": "Huye",
    "tel": "No phone number"
  },
  {
    "name": "Mpore",
    "location": "Huye",
    "tel": "No phone number"
  },
  {
    "name": "Victory Pharmacy",
    "location": "Huye",
    "tel": "0783043793"
  },
  {
    "name": "Ebenephar Pharmacy",
    "location": "Huye",
    "tel": "0788432092"
  },
  {
    "name": "VIEPHARMA PHARMACY LTD",
    "location": "Kamonyi",
    "tel": "0788690137"
  },
  {
    "name": "Bovan Pharmacy",
    "location": "Kamonyi",
    "tel": "No phone number"
  },
  {
    "name": "Dorrie Pharmacy",
    "location": "Kamonyi",
    "tel": "No phone number"
  },
  {
    "name": "Pharmacy Divine",
    "location": "Kamonyi",
    "tel": "0789453089"
  },
  {
    "name": "Kipharma Pharmacy, Nyarugenge",
    "location": "Karongi",
    "tel": "No phone number"
  },
  {
    "name": "AFRITANK Aquasan ltd",
    "location": "Kayonza",
    "tel": "0787511291"
  },
  {
    "name": "Umutozo Pharmacy",
    "location": "Kicukiro",
    "tel": "No phone number"
  },
  {
    "name": "Memia's Pharmacy",
    "location": "Kicukiro",
    "tel": "0788310016"
  },
  {
    "name": "National Pharmacy Council",
    "location": "Kicukiro",
    "tel": "No phone number"
  },
  {
    "name": "Pharmacy",
    "location": "Kicukiro",
    "tel": "No phone number"
  },
  {
    "name": "Score Pharmacy",
    "location": "Kicukiro",
    "tel": "0783410790"
  },
  {
    "name": "SEMU Pharmacy",
    "location": "Kicukiro",
    "tel": "0788679787"
  },
  {
    "name": "Pharmacie Unique",
    "location": "Kicukiro",
    "tel": "0788309743"
  },
  {
    "name": "Pharmacie Le Normal",
    "location": "Kicukiro",
    "tel": "No phone number"
  },
  {
    "name": "IKAZE PHARMACY LTD",
    "location": "Kirehe",
    "tel": "0788647959"
  },
  {
    "name": "IKAZE PHARMACY LTD",
    "location": "Kirehe",
    "tel": "0788647959"
  },
  {
    "name": "Zipline Muhanga",
    "location": "Muhanga",
    "tel": "0784441218"
  },
  {
    "name": "Rwanyarale Pharmacy Uganda",
    "location": "Muhanga",
    "tel": "No phone number"
  },
  {
    "name": "Iraguha Pharmacy",
    "location": "Musanze",
    "tel": "0788237461"
  },
  {
    "name": "Pharmacie Right 2030",
    "location": "Musanze",
    "tel": "No phone number"
  },
  {
    "name": "Amirah Pharmacy",
    "location": "Musanze",
    "tel": "No phone number"
  },
  {
    "name": "Farmacie St Augustin",
    "location": "Musanze",
    "tel": "0783061172"
  },
  {
    "name": "CETRAF MUSANZE",
    "location": "Musanze",
    "tel": "No phone number"
  },
  {
    "name": "Zamurumusaruro",
    "location": "Musanze",
    "tel": "0788826738"
  },
  {
    "name": "easyHATCH",
    "location": "Musanze",
    "tel": "0786372657"
  },
  {
    "name": "Pharmacy, Gakenke",
    "location": "Musanze",
    "tel": "No phone number"
  },
  {
    "name": "IKAZE PHARMACY LTD",
    "location": "Ngoma",
    "tel": "0788647959"
  },
  {
    "name": "National Pharmacy Council",
    "location": "Nyabihu",
    "tel": "No phone number"
  },
  {
    "name": "Nyagatare Pharmacy Store",
    "location": "Nyagatare",
    "tel": "No phone number"
  },
  {
    "name": "Terranova Pharmacy",
    "location": "Nyamagabe",
    "tel": "No phone number"
  },
  {
    "name": "Kipharma Pharmacy, Nyarugenge",
    "location": "Nyarugenge",
    "tel": "No phone number"
  },
  {
    "name": "Pharmacy Divine",
    "location": "Nyarugenge",
    "tel": "0789453089"
  },
  {
    "name": "Pharmacie Shema",
    "location": "Nyarugenge",
    "tel": "No phone number"
  },
  {
    "name": "EZA Pharmacy",
    "location": "Nyarugenge",
    "tel": "0785022763"
  },
  {
    "name": "Safecare Pharmacy",
    "location": "Nyarugenge",
    "tel": "0781293423"
  },
  {
    "name": "Tramed pharmacy",
    "location": "Nyarugenge",
    "tel": "No phone number"
  },
  {
    "name": "Iramiro Pharmacy",
    "location": "Nyarugenge",
    "tel": "No phone number"
  },
  {
    "name": "MULTIPHAR RWANDA LTD",
    "location": "Nyarugenge",
    "tel": "0785158072"
  },
  {
    "name": "Capital Pharmaceutical Supply Ltd",
    "location": "Nyarugenge",
    "tel": "No phone number"
  },
  {
    "name": "Abacus Pharma Alam",
    "location": "Nyarugenge",
    "tel": "No phone number"
  },
  {
    "name": "Kipharma Pharmacy, Bridge (B2)",
    "location": "Nyarugenge",
    "tel": "No phone number"
  },
  {
    "name": "Pharmacie Conseil",
    "location": "Nyarugenge",
    "tel": "No phone number"
  },
  {
    "name": "Score Pharmacy",
    "location": "Nyarugenge",
    "tel": "No phone number"
  },
  {
    "name": "Bora Pharmacy",
    "location": "Nyarugenge",
    "tel": "No phone number"
  },
  {
    "name": "Pharmacie Umurava",
    "location": "Nyarugenge",
    "tel": "0788539713"
  },
  {
    "name": "Peace Pharmacy",
    "location": "Nyarugenge",
    "tel": "No phone number"
  },
  {
    "name": "Pharmacy",
    "location": "Nyarugenge",
    "tel": "No phone number"
  },
  {
    "name": "Keystone Pharmacy",
    "location": "Nyarugenge",
    "tel": "0788352583"
  },
  {
    "name": "Bovan Pharmacy",
    "location": "Nyarugenge",
    "tel": "No phone number"
  },
  {
    "name": "Dorrie Pharmacy",
    "location": "Nyarugenge",
    "tel": "No phone number"
  },
  {
    "name": "Pharmacie Le Normal",
    "location": "Nyarugenge",
    "tel": "No phone number"
  },
  {
    "name": "Motley Healthcare Ltd",
    "location": "Nyarugenge",
    "tel": "0784444001"
  },
  {
    "name": "Agrotech Ltd.",
    "location": "Nyarugenge",
    "tel": "No phone number"
  },
  {
    "name": "Goal Pharmacy",
    "location": "Nyarugenge",
    "tel": "No phone number"
  },
  {
    "name": "Pharmacy Vinca",
    "location": "Rubavu",
    "tel": "0788455565"
  },
  {
    "name": "Pharmacie de Rubavu",
    "location": "Rubavu",
    "tel": "0788459267"
  },
  {
    "name": "Terranova Pharmacy",
    "location": "Ruhango",
    "tel": "No phone number"
  },
  {
    "name": "Kipharma Pharmacy, Nyarugenge",
    "location": "Rulindo",
    "tel": "No phone number"
  },
  {
    "name": "Pharmacy Divine",
    "location": "Rulindo",
    "tel": "0789453089"
  },
  {
    "name": "Pharmacie BIOPHARM/Bukavu",
    "location": "Rusizi",
    "tel": "No phone number"
  },
  {
    "name": "Cimerwa Clinic",
    "location": "Rusizi",
    "tel": "No phone number"
  },
  {
    "name": "GBY-PHARMA",
    "location": "Rusizi",
    "tel": "No phone number"
  },
  {
    "name": "DCMP 8\u00e8me CEPAC",
    "location": "Rusizi",
    "tel": "No phone number"
  },
  {
    "name": "Max Pharmacy ltd",
    "location": "Rusizi",
    "tel": "0788733706"
  },
  {
    "name": "Rwamagana District Pharmacy",
    "location": "Rwamagana",
    "tel": "No phone number"
  },
  {
    "name": "Rwamagana Banana wine CPC",
    "location": "Rwamagana",
    "tel": "No phone number"
  }
]
