[{"name": "Delta Petrol Station Gahanga", "location": "Bugesera", "tel": "0783655126"}, {"name": "Kacyiru Petrol Station", "location": "Gasabo", "tel": "No phone number"}, {"name": "Soci\u00e9t\u00e9 P\u00e9troli\u00e8re, SP", "location": "Gasabo", "tel": "No phone number"}, {"name": "Hashi Petrol Station", "location": "Gasabo", "tel": "0788306020"}, {"name": "Maxi Station", "location": "Gasabo", "tel": "No phone number"}, {"name": "SP Petrol Station", "location": "Gasabo", "tel": "No phone number"}, {"name": "Enes Petrol Station", "location": "Gasabo", "tel": "No phone number"}, {"name": "Petrol Station", "location": "Gasabo", "tel": "No phone number"}, {"name": "Mt Meru Petrol Station", "location": "Gasabo", "tel": "No phone number"}, {"name": "SP Rwanda", "location": "Gasabo", "tel": "0788306233"}, {"name": "SP", "location": "Gasabo", "tel": "No phone number"}, {"name": "Engen", "location": "Gasabo", "tel": "0788175100"}, {"name": "Engen", "location": "Gasabo", "tel": "No phone number"}, {"name": "SP", "location": "Gasabo", "tel": "No phone number"}, {"name": "SP Rwanda", "location": "Gasabo", "tel": "0781269010"}, {"name": "Mt Meru Petrol Station", "location": "Gasabo", "tel": "0786131430"}, {"name": "Mogas", "location": "Gasabo", "tel": "No phone number"}, {"name": "Merez", "location": "Gasabo", "tel": "0788307575"}, {"name": "Petrol Station", "location": "Gasabo", "tel": "0786131430"}, {"name": "Meru", "location": "Gasabo", "tel": "No phone number"}, {"name": "Engen", "location": "Gasabo", "tel": "No phone number"}, {"name": "Engen", "location": "Gasabo", "tel": "No phone number"}, {"name": "Engen", "location": "Gasabo", "tel": "No phone number"}, {"name": "Kobil", "location": "Gasabo", "tel": "0788821924"}, {"name": "Castrol", "location": "Gasabo", "tel": "No phone number"}, {"name": "Gemeca", "location": "Gasabo", "tel": "0788591481"}, {"name": "Discentre", "location": "Gasabo", "tel": "No phone number"}, {"name": "Ukod Oil", "location": "Gasabo", "tel": "No phone number"}, {"name": "Engen", "location": "Gasabo", "tel": "No phone number"}, {"name": "Kacyiru Petrol Station", "location": "Gatsibo", "tel": "No phone number"}, {"name": "Soci\u00e9t\u00e9 P\u00e9troli\u00e8re, SP", "location": "Gatsibo", "tel": "No phone number"}, {"name": "SP Petrol Station", "location": "Gatsibo", "tel": "No phone number"}, {"name": "Mt Meru Petrol Station", "location": "Gatsibo", "tel": "No phone number"}, {"name": "Maxi Station", "location": "Gatsibo", "tel": "No phone number"}, {"name": "Hashi Petrol Station", "location": "Gatsibo", "tel": "0788306020"}, {"name": "Enes Petrol Station", "location": "Gatsibo", "tel": "No phone number"}, {"name": "Discentre", "location": "Gatsibo", "tel": "No phone number"}, {"name": "Engen", "location": "Gatsibo", "tel": "0788175100"}, {"name": "SP", "location": "Gatsibo", "tel": "No phone number"}, {"name": "Mt Meru Petrol Station", "location": "Gatsibo", "tel": "0786131430"}, {"name": "Delta Petrol Station", "location": "Gatsibo", "tel": "No phone number"}, {"name": "Engen", "location": "Gatsibo", "tel": "No phone number"}, {"name": "SP Rwanda", "location": "Gatsibo", "tel": "0781269010"}, {"name": "SP", "location": "Gatsibo", "tel": "No phone number"}, {"name": "SP Rwanda", "location": "Gatsibo", "tel": "0788306233"}, {"name": "ENES Petrol Station", "location": "Gatsibo", "tel": "0783678516"}, {"name": "Discentre", "location": "Gatsibo", "tel": "No phone number"}, {"name": "Engen", "location": "Gatsibo", "tel": "No phone number"}, {"name": "Engen", "location": "Gatsibo", "tel": "No phone number"}, {"name": "Engen", "location": "Gatsibo", "tel": "No phone number"}, {"name": "Merez 1", "location": "Gatsibo", "tel": "0788307575"}, {"name": "Petrol Station", "location": "Gatsibo", "tel": "No phone number"}, {"name": "Engen", "location": "Gatsibo", "tel": "No phone number"}, {"name": "SP Petrol Station", "location": "Gatsibo", "tel": "No phone number"}, {"name": "Merez", "location": "Gatsibo", "tel": "0788307575"}, {"name": "Gemeca", "location": "Gatsibo", "tel": "0788591481"}, {"name": "Petrol Station", "location": "Gatsibo", "tel": "0786131430"}, {"name": "Kobil", "location": "Gatsibo", "tel": "0788821924"}, {"name": "Hass Petroleum", "location": "Gatsibo", "tel": "No phone number"}, {"name": "GEMECA", "location": "Gicumbi", "tel": "No phone number"}, {"name": "Kobil", "location": "Gicumbi", "tel": "No phone number"}, {"name": "Petroleum Station", "location": "Huye", "tel": "No phone number"}, {"name": "Kobil Gas Station - Mukoni", "location": "Huye", "tel": "No phone number"}, {"name": "Kobil Petrol station", "location": "Huye", "tel": "No phone number"}, {"name": "Kobil", "location": "Huye", "tel": "No phone number"}, {"name": "Merez", "location": "Huye", "tel": "0788307575"}, {"name": "Kobil", "location": "Huye", "tel": "No phone number"}, {"name": "Gemeca", "location": "Huye", "tel": "No phone number"}, {"name": "SP", "location": "Huye", "tel": "No phone number"}, {"name": "Kobil Petrol Station", "location": "Kamonyi", "tel": "No phone number"}, {"name": "Hashi Energy", "location": "Kamonyi", "tel": "No phone number"}, {"name": "Gemeca", "location": "Kamonyi", "tel": "0788591481"}, {"name": "Engen", "location": "Kamonyi", "tel": "No phone number"}, {"name": "Kamonyi commercial center (Kumasuka)", "location": "Kamonyi", "tel": "No phone number"}, {"name": "KOBIL GAS STATION", "location": "Karongi", "tel": "No phone number"}, {"name": "SP Gas Station", "location": "Karongi", "tel": "No phone number"}, {"name": "SP", "location": "Kayonza", "tel": "No phone number"}, {"name": "Discentre", "location": "Kayonza", "tel": "No phone number"}, {"name": "Source Oil", "location": "Kayonza", "tel": "No phone number"}, {"name": "ENES", "location": "Kayonza", "tel": "No phone number"}, {"name": "Meru", "location": "Kayonza", "tel": "No phone number"}, {"name": "Kayonza Taxi Park", "location": "Kayonza", "tel": "No phone number"}, {"name": "Kayonza Police Station", "location": "Kayonza", "tel": "0788311181"}, {"name": "Petrol Station", "location": "Kayonza", "tel": "No phone number"}, {"name": "Engen", "location": "Kayonza", "tel": "0788331265"}, {"name": "Mt Meru Petrol Station", "location": "Kicukiro", "tel": "No phone number"}, {"name": "ENES Petrol Station", "location": "Kicukiro", "tel": "0783678516"}, {"name": "excel energy", "location": "Kicukiro", "tel": "No phone number"}, {"name": "Discentre", "location": "Kicukiro", "tel": "No phone number"}, {"name": "Engen", "location": "Kicukiro", "tel": "No phone number"}, {"name": "Engen", "location": "Kicukiro", "tel": "No phone number"}, {"name": "Ukod Oil", "location": "Kicukiro", "tel": "No phone number"}, {"name": "Kobil", "location": "Kicukiro", "tel": "No phone number"}, {"name": "Enes Petrol Station", "location": "Kicukiro", "tel": "No phone number"}, {"name": "Delta Petrol Station", "location": "Kicukiro", "tel": "No phone number"}, {"name": "SP Petrol Station", "location": "Kicukiro", "tel": "No phone number"}, {"name": "Hashi Petrol Station", "location": "Kicukiro", "tel": "0788306020"}, {"name": "SP gaz station", "location": "Kirehe", "tel": "No phone number"}, {"name": "Hashi Muhanga", "location": "Muhanga", "tel": "No phone number"}, {"name": "Gitarama Bus Station", "location": "Muhanga", "tel": "No phone number"}, {"name": "Sp Gas station", "location": "Muhanga", "tel": "0788306232"}, {"name": "GEMECA station et garage", "location": "Muhanga", "tel": "No phone number"}, {"name": "Kobil Gas Station", "location": "Muhanga", "tel": "No phone number"}, {"name": "Petrol Station", "location": "Muhanga", "tel": "No phone number"}, {"name": "Mount Meru", "location": "Muhanga", "tel": "No phone number"}, {"name": "Merez Gas Station", "location": "Musanze", "tel": "0788307575"}, {"name": "Discentre", "location": "Musanze", "tel": "No phone number"}, {"name": "OM Petrol Station", "location": "Musanze", "tel": "No phone number"}, {"name": "SP Gas", "location": "Musanze", "tel": "No phone number"}, {"name": "Kobil", "location": "Musanze", "tel": "No phone number"}, {"name": "Engen", "location": "Musanze", "tel": "No phone number"}, {"name": "Virunga Express", "location": "Musanze", "tel": "0788380982"}, {"name": "Merez", "location": "Ngoma", "tel": "0788307575"}, {"name": "Kobil Petrol Station", "location": "Ngoma", "tel": "No phone number"}, {"name": "Engen", "location": "Ngoma", "tel": "No phone number"}, {"name": "Source Oil", "location": "Ngoma", "tel": "No phone number"}, {"name": "Hashi Ngoma", "location": "Ngoma", "tel": "No phone number"}, {"name": "Kobil Petrol Station Nyagatare", "location": "Nyagatare", "tel": "No phone number"}, {"name": "Nyagatare Police Station", "location": "Nyagatare", "tel": "No phone number"}, {"name": "Petrol Station", "location": "Nyagatare", "tel": "0737243714"}, {"name": "Ryabega Bus Station", "location": "Nyagatare", "tel": "No phone number"}, {"name": "Volcano Express Nyamagabe Branch", "location": "Nyamagabe", "tel": "0788415441"}, {"name": "Delta", "location": "Nyamasheke", "tel": "No phone number"}, {"name": "Ryarukundo Boats Station", "location": "Nyamasheke", "tel": "No phone number"}, {"name": "Sp station", "location": "Nyamasheke", "tel": "No phone number"}, {"name": "HASHI Energy", "location": "Nyamasheke", "tel": "No phone number"}, {"name": "HASHI ENERGY", "location": "Nyanza", "tel": "No phone number"}, {"name": "Koboil Petrol Station", "location": "Nyanza", "tel": "No phone number"}, {"name": "Nyanza", "location": "Nyanza", "tel": "No phone number"}, {"name": "Kobil", "location": "Nyanza", "tel": "No phone number"}, {"name": "Gare de bus Nyanza", "location": "Nyanza", "tel": "No phone number"}, {"name": "Delta Petrol Station", "location": "Nyanza", "tel": "No phone number"}, {"name": "SP", "location": "Nyarugenge", "tel": "No phone number"}, {"name": "SP", "location": "Nyarugenge", "tel": "No phone number"}, {"name": "SP Rwanda", "location": "Nyarugenge", "tel": "0788306233"}, {"name": "SP Rwanda", "location": "Nyarugenge", "tel": "0781269010"}, {"name": "Maxi Station", "location": "Nyarugenge", "tel": "No phone number"}, {"name": "Engen", "location": "Nyarugenge", "tel": "0788175100"}, {"name": "Kigali City Center Taxi Park", "location": "Nyarugenge", "tel": "No phone number"}, {"name": "Engen", "location": "Nyarugenge", "tel": "No phone number"}, {"name": "Discentre", "location": "Nyarugenge", "tel": "No phone number"}, {"name": "Merez", "location": "Nyarugenge", "tel": "0788307575"}, {"name": "Hashi Petrol Station", "location": "Nyarugenge", "tel": "0788306020"}, {"name": "Engen", "location": "Nyarugenge", "tel": "No phone number"}, {"name": "Kwa Nyiranuma", "location": "Nyarugenge", "tel": "No phone number"}, {"name": "Merez 1", "location": "Nyarugenge", "tel": "0788307575"}, {"name": "Kobil", "location": "Nyarugenge", "tel": "0785783178"}, {"name": "Enes Petrol Station", "location": "Ruhango", "tel": "No phone number"}, {"name": "Gas Ruhango", "location": "Ruhango", "tel": "No phone number"}, {"name": "Merez", "location": "Ruhango", "tel": "No phone number"}, {"name": "Kacyiru Petrol Station", "location": "Rulindo", "tel": "No phone number"}, {"name": "Soci\u00e9t\u00e9 P\u00e9troli\u00e8re, SP", "location": "Rulindo", "tel": "No phone number"}, {"name": "Hashi Petrol Station", "location": "Rulindo", "tel": "0788306020"}, {"name": "SP Petrol Station", "location": "Rulindo", "tel": "No phone number"}, {"name": "Engen", "location": "Rulindo", "tel": "0788175100"}, {"name": "Engen", "location": "Rulindo", "tel": "No phone number"}, {"name": "Discentre", "location": "Rulindo", "tel": "No phone number"}, {"name": "SP", "location": "Rulindo", "tel": "No phone number"}, {"name": "Maxi Station", "location": "Rulindo", "tel": "No phone number"}, {"name": "Mt Meru Petrol Station", "location": "Rulindo", "tel": "No phone number"}, {"name": "Mt Meru Petrol Station", "location": "Rulindo", "tel": "0786131430"}, {"name": "Enes Petrol Station", "location": "Rulindo", "tel": "No phone number"}, {"name": "Engen", "location": "Rulindo", "tel": "No phone number"}, {"name": "SP Rwanda", "location": "Rulindo", "tel": "0781269010"}, {"name": "Engen", "location": "Rulindo", "tel": "No phone number"}, {"name": "Discentre", "location": "Rulindo", "tel": "No phone number"}, {"name": "Engen", "location": "Rulindo", "tel": "No phone number"}, {"name": "ENES Petrol Station", "location": "Rulindo", "tel": "0783678516"}, {"name": "Delta Petrol Station", "location": "Rulindo", "tel": "No phone number"}, {"name": "SP", "location": "Rulindo", "tel": "No phone number"}, {"name": "SP Petrol Station", "location": "Rulindo", "tel": "No phone number"}, {"name": "Engen", "location": "Rulindo", "tel": "No phone number"}, {"name": "Kobil", "location": "Rulindo", "tel": "0788821924"}, {"name": "Engen", "location": "Rulindo", "tel": "No phone number"}, {"name": "Mogas", "location": "Rulindo", "tel": "No phone number"}, {"name": "Merez 1", "location": "Rulindo", "tel": "0788307575"}, {"name": "SP Rwanda", "location": "Rulindo", "tel": "0788306233"}, {"name": "Ryarukundo Boats Station", "location": "Rusizi", "tel": "No phone number"}, {"name": "Engen", "location": "Rusizi", "tel": "No phone number"}, {"name": "station ENGEN", "location": "Rusizi", "tel": "No phone number"}, {"name": "Station Service King Oil", "location": "Rusizi", "tel": "No phone number"}, {"name": "SP Gas Station", "location": "Rutsiro", "tel": "No phone number"}, {"name": "Lake Petroleum", "location": "Rwamagana", "tel": "No phone number"}, {"name": "SP", "location": "Rwamagana", "tel": "No phone number"}, {"name": "Kobil", "location": "Rwamagana", "tel": "No phone number"}, {"name": "Gapco", "location": "Rwamagana", "tel": "No phone number"}, {"name": "Hass Petroleum", "location": "Rwamagana", "tel": "0783614387"}, {"name": "Kobil", "location": "Rwamagana", "tel": "No phone number"}, {"name": "Rwamagana Police Station", "location": "Rwamagana", "tel": "0788311182"}, {"name": "Petrol Station", "location": "Rwamagana", "tel": "No phone number"}, {"name": "Rwamagana Taxi Park", "location": "Rwamagana", "tel": "No phone number"}]