[
  {
    "name": "CHK Clinic",
    "location": "Nyarugenge",
    "tel": "No phone number"
  },
  {
    "name": "Polyclinique du Plateau",
    "location": "Nyarugenge",
    "tel": "0781293417"
  },
  {
    "name": "La Life Polyclinic ENT(ORL)",
    "location": "Nyarugenge",
    "tel": "0788520986"
  },
  {
    "name": "Rwanda Eye Clinic",
    "location": "Nyarugenge",
    "tel": "0783405711"
  },
  {
    "name": "UR - Polyclinic",
    "location": "Nyarugenge",
    "tel": "0786689121"
  },
  {
    "name": "Ivuriro Sante Clinic",
    "location": "Nyarugenge",
    "tel": "No phone number"
  },
  {
    "name": "Imboni Ophthalmology Clinic of Dr Joseph Sebera",
    "location": "Nyarugenge",
    "tel": "0780257089"
  },
  {
    "name": "Viva Clinic RITCO",
    "location": "Nyarugenge",
    "tel": "No phone number"
  },
  {
    "name": "we actx",
    "location": "Nyarugenge",
    "tel": "0787334678"
  },
  {
    "name": "DK OPTICALS",
    "location": "Nyarugenge",
    "tel": "0789426659"
  },
  {
    "name": "Harmony Clinic",
    "location": "Nyarugenge",
    "tel": "0788500497"
  },
  {
    "name": "Ejo Heza Clinic",
    "location": "Nyarugenge",
    "tel": "0785845994"
  },
  {
    "name": "Nyarugenge Health Center",
    "location": "Nyarugenge",
    "tel": "No phone number"
  },
  {
    "name": "Pineda Dental Clinic",
    "location": "Nyarugenge",
    "tel": "0788564377"
  },
  {
    "name": "BWIZA CLINIC AND DIAGNOSTIC CENTER LTD",
    "location": "Nyarugenge",
    "tel": "0780681459"
  },
  {
    "name": "Clinique Solamer",
    "location": "Nyarugenge",
    "tel": "No phone number"
  },
  {
    "name": "Ituze Clinic",
    "location": "Nyarugenge",
    "tel": "No phone number"
  },
  {
    "name": "Gitega Health Center",
    "location": "Nyarugenge",
    "tel": "No phone number"
  },
  {
    "name": "Asha Medical Services (Manipal Group of Hospitals)",
    "location": "Nyarugenge",
    "tel": "No phone number"
  },
  {
    "name": "Clinique Isango",
    "location": "Nyarugenge",
    "tel": "0788481226"
  },
  {
    "name": "Polyclinique De L'Etoile",
    "location": "Nyarugenge",
    "tel": "No phone number"
  },
  {
    "name": "Baho Medical Center",
    "location": "Nyarugenge",
    "tel": "No phone number"
  },
  {
    "name": "CBN",
    "location": "Nyarugenge",
    "tel": "No phone number"
  },
  {
    "name": "Kigali Dialysis Center - Africa Healthcare Network",
    "location": "Nyarugenge",
    "tel": "0782637546"
  },
  {
    "name": "Dispensaire INEZA Ivuriro",
    "location": "Nyarugenge",
    "tel": "No phone number"
  },
  {
    "name": "Clinique Sainte Elisa",
    "location": "Nyarugenge",
    "tel": "0782172985"
  },
  {
    "name": "Iranzi Clinic- Birth Centre",
    "location": "Nyarugenge",
    "tel": "0785022206"
  },
  {
    "name": "Umwizerwa Medicare Centre",
    "location": "Nyarugenge",
    "tel": "0788760733"
  },
  {
    "name": "International Dispensary Kigali",
    "location": "Nyarugenge",
    "tel": "0788300353"
  },
  {
    "name": "China Clinic",
    "location": "Nyarugenge",
    "tel": "No phone number"
  },
  {
    "name": "Dispensaire Amizero",
    "location": "Nyarugenge",
    "tel": "No phone number"
  },
  {
    "name": "Kagugu Medical Clinic",
    "location": "Nyarugenge",
    "tel": "No phone number"
  },
  {
    "name": "Salem Clinic",
    "location": "Nyarugenge",
    "tel": "0781698861"
  },
  {
    "name": "TMC Technology Clinic",
    "location": "Nyarugenge",
    "tel": "No phone number"
  },
  {
    "name": "Dispensaire La Patience",
    "location": "Nyarugenge",
    "tel": "No phone number"
  }
]
